     3.03           OBSERVATION DATA    M: Mixed            RINEX VERSION / TYPE
RTKCONV 2.4.3 Emlid                     20210609 004629 UTC PGM / RUN BY / DATE 
log: D:\SHMILY\RTK\blox\COM8_210609_003820.ubx              COMMENT             
format: u-blox                                              COMMENT             
PING                                                        MARKER NAME         
NIE                                                         MARKER NUMBER       
                                                            MARKER TYPE         
                                                            OBSERVER / AGENCY   
                                                            REC # / TYPE / VERS 
                                                            ANT # / TYPE        
 -2168781.8378  4386835.7988  4076913.2070                  APPROX POSITION XYZ 
        0.0000        0.0000        0.0000                  ANTENNA: DELTA H/E/N
G    4 C1C L1C D1C S1C                                      SYS / # / OBS TYPES 
E    4 C1C L1C D1C S1C                                      SYS / # / OBS TYPES 
C    4 C1I L1I D1I S1I                                      SYS / # / OBS TYPES 
     1.000                                                  INTERVAL            
  2021     6     9     0    38   23.9990000     GPS         TIME OF FIRST OBS   
  2021     6     9     0    46   38.9990000     GPS         TIME OF LAST OBS    
G                                                           SYS / PHASE SHIFT   
E                                                           SYS / PHASE SHIFT   
C                                                           SYS / PHASE SHIFT   
  0                                                         GLONASS SLOT / FRQ #
 C1C    0.000 C1P    0.000 C2C    0.000 C2P    0.000        GLONASS COD/PHS/BIS 
                                                            END OF HEADER       
> 2021  6  9  0 38 23.9990000  0 25                     
G 8  19735745.891 1 103712034.314 1      -295.671          48.000  
G27  20836817.112 1 109498207.143 1     -2385.307          45.000  
G 7  20605387.186 1 108282023.073 1      1756.439          45.000  
C 3  37292026.409 1 194189337.733 1        84.222          42.000  
C 1  37875981.926 1 197230143.082 1        45.949          41.000  
G16  22796939.484 1 119798714.266 1     -2579.609          41.000  
G21  21708801.308 1 114080515.768 1      2792.750          43.000  
G30  23341863.829 1 122662337.518 1      3281.328          36.000  
C 7  35731559.586 1 186063581.223 1       136.469          45.000  
C25  21747370.570 1 113244217.997 1      -981.910          48.000  
C11  21196355.428 1 110374960.864 1       170.305          45.000  
C10  36438823.542 1 189746481.027 1       322.844          43.000  
C23  22356334.326 1 116415266.537 1      1813.785          47.000  
C 9  37099663.934 1 193187641.520 1     -1594.605          41.000  
C 2  37907418.851 1 197393827.852 1        40.114          38.000  
C12  23381278.851 1 121752417.678 1     -2562.634          42.000  
C 4  38614314.677 1 201074852.411 1        64.032          38.000  
G 9  23232661.832 1 122088461.897 1     -2683.784          39.000  
C16  38936036.961 1 202750127.398 1     -1836.189          39.000  
C 5  39732943.505 2 206899829.92221        39.974          35.000  
C 6  38501635.812 2 200488108.908 1     -1742.047          37.000  
G26  24867822.331 4 130681297.672 2     -2825.933          33.000  
G 4  24356609.643 2 127994850.745 1     -3311.784          35.000  
G 1  23739433.649 2 124751609.280 1      4022.998          39.000  
C28  25616433.397 1 133391470.631 1      3371.101          38.000  
> 2021  6  9  0 38 24.9990000  0 25                     
G 8  19735802.290 1 103712330.517 1      -296.598          48.000  
G27  20837271.176 1 109500592.908 1     -2385.884          45.000  
G 7  20605052.918 1 108280267.155 1      1755.609          45.000  
C 3  37292009.927 1 194189253.842 1        84.070          42.000  
C 1  37875973.070 1 197230097.437 1        45.375          41.000  
G16  22797430.489 1 119801294.005 1     -2579.965          41.000  
G21  21708270.106 1 114077723.504 1      2792.119          43.000  
G30  23341239.146 2 122659056.827 1      3280.598          36.000  
C 7  35731533.768 1 186063445.011 1       136.072          45.000  
C25  21747559.120 1 113245200.402 1      -982.662          48.000  
C11  21196322.726 1 110374791.129 1       169.437          45.000  
C10  36438761.690 1 189746158.482 1       322.241          43.000  
C23  22355986.186 1 116413453.194 1      1812.994          47.000  
C 9  37099970.019 1 193189236.419 1     -1595.045          41.000  
C 2  37907411.365 1 197393788.118 1        39.301          38.000  
C12  23381771.025 1 121754980.779 1     -2563.486          41.000  
C 4  38614302.602 2 201074789.020 1        63.348          38.000  
G 9  23233173.027 1 122091145.908 1     -2684.389          39.000  
C16  38936389.437 1 202751963.980 1     -1836.434          39.000  
C 5  39732935.871 2 206899790.55821        39.067          34.000  
C 6  38501970.097 2 200489850.813 1     -1742.285          37.000  
G26  24868360.260 2 130684124.522 1     -2827.197          33.000  
G 4  24357239.797 2 127998162.913 1     -3312.236          35.000  
G 1  23738667.785 2 124747586.573 1      4022.774          39.000  
C28  25615785.855 1 133388100.036 1      3370.560          38.000  
> 2021  6  9  0 38 25.9990000  0 25                     
G 8  19735858.846 1 103712627.881 1      -298.571          48.000  
G27  20837725.361 1 109502979.649 1     -2387.821          45.000  
G 7  20604719.270 1 108278512.358 1      1753.595          45.000  
C 3  37291994.109 1 194189170.569 1        82.515          42.000  
C 1  37875964.755 1 197230052.387 1        44.401          41.000  
G16  22797921.512 1 119803874.482 1     -2581.378          41.000  
G21  21707738.895 1 114074932.268 1      2790.106          43.000  
G30  23340614.620 2 122655776.985 1      3278.942          36.000  
C 7  35731507.550 1 186063309.397 1       134.810          45.000  
C25  21747747.914 1 113246183.824 1      -984.375          48.000  
C11  21196290.469 1 110374622.515 1       167.623          45.000  
C10  36438700.030 1 189745836.498 1       321.174          43.000  
C23  22355638.194 1 116411640.739 1      1811.541          47.000  
C 9  37100276.305 1 193190832.031 1     -1596.380          41.000  
C 2  37907403.896 1 197393748.966 1        38.310          38.000  
C12  23382263.375 1 121757544.736 1     -2564.883          41.000  
C 4  38614290.727 2 201074726.225 1        62.286          38.000  
G 9  23233684.135 1 122093830.795 1     -2685.736          39.000  
C16  38936742.133 1 202753801.235 1     -1838.293          39.000  
C 5  39732928.472 4 206899751.81822        37.759          34.000  
C 6  38502304.827 2 200491593.358 1     -1743.195          37.000  
G26  24868898.338 4 130686952.028 2     -2828.449          33.000  
G 4  24357870.343 2 128001475.658 1     -3313.685          36.000  
G 1  23737902.532 1 124743564.505 1      4021.217          39.000  
C28  25615138.731 1 133384730.178 1      3368.803          38.000  
> 2021  6  9  0 38 26.9990000  0 25                     
G 8  19735915.542 1 103712926.685 1      -299.006          48.000  
G27  20838179.756 1 109505367.671 1     -2388.215          45.000  
G 7  20604385.587 1 108276758.983 1      1753.247          45.000  
C 3  37291977.784 1 194189088.223 1        82.387          42.000  
C 1  37875956.379 1 197230008.278 1        44.176          41.000  
G16  22798412.745 1 119806456.026 1     -2581.602          41.000  
G21  21707208.496 1 114072142.342 1      2789.643          43.000  
G30  23339990.321 2 122652498.253 1      3278.741          36.000  
C 7  35731481.523 1 186063174.705 1       134.667          45.000  
C25  21747937.205 1 113247168.576 1      -985.002          48.000  
C11  21196258.248 1 110374455.382 1       166.949          45.000  
C10  36438638.264 1 189745515.453 1       321.082          43.000  
C23  22355290.358 1 116409829.508 1      1810.998          47.000  
C 9  37100582.635 1 193192428.695 1     -1596.569          41.000  
C 2  37907396.349 2 197393710.733 1        38.277          38.000  
C12  23382755.881 1 121760109.920 1     -2565.161          41.000  
C 4  38614279.131 2 201074664.377 1        62.067          38.000  
G 9  23234195.287 1 122096516.840 1     -2686.109          39.000  
C16  38937095.081 1 202755639.447 1     -1838.421          39.000  
C 5  39732921.117 4 206899713.98822        37.944          35.000  
C 6  38502639.793 2 200493336.900 1     -1743.756          37.000  
G26  24869436.101 4 130689780.512 2     -2828.180          33.000  
G 4  24358501.177 4 128004789.260 2     -3313.668          36.000  
G 1  23737137.375 1 124739543.365 1      4021.315          39.000  
C28  25614491.808 1 133381361.332 1      3369.043          38.000  
> 2021  6  9  0 38 27.9990000  0 26                     
G 8  19735972.622 1 103713226.465 1      -300.587          48.000  
G27  20838634.457 1 109507756.485 1     -2389.616          45.000  
G 7  20604052.244 1 108275006.575 1      1751.508          45.000  
C 3  37291962.436 1 194189006.308 1        81.569          42.000  
C 1  37875947.994 1 197229964.631 1        43.228          41.000  
G16  22798903.933 1 119809038.103 1     -2582.762          41.000  
G21  21706678.062 1 114069353.239 1      2788.426          43.000  
G30  23339366.441 1 122649220.208 1      3277.039          36.000  
C 7  35731455.941 1 186063040.422 1       133.830          45.000  
C25  21748126.470 1 113248154.179 1      -986.356          48.000  
C11  21196226.392 1 110374289.209 1       165.321          45.000  
C10  36438576.761 1 189745194.813 1       319.946          43.000  
C23  22354942.715 1 116408018.980 1      1809.893          47.000  
C 9  37100889.192 1 193194025.916 1     -1597.408          41.000  
C 2  37907388.880 2 197393672.908 1        37.398          38.000  
C12  23383248.893 1 121762675.831 1     -2566.925          41.000  
C 4  38614267.091 1 201074602.994 1        60.663          38.000  
G 9  23234706.352 1 122099203.614 1     -2687.226          39.000  
C16  38937448.168 1 202757478.111 1     -1838.996          39.000  
C 5  39732913.953 2 206899676.61321        36.870          35.000  
C 6  38502974.846 1 200495080.919 1     -1744.672          37.000  
G26  24869974.170 4 130692609.505 2     -2829.145          32.000  
G 4  24359131.985 2 128008103.246 1     -3314.778          36.000  
G 1  23736372.314 1 124735522.679 1      4020.434          39.000  
C28  25613845.007 1 133377993.034 1      3367.613          39.000  
C24  25652670.232 9 133580153.57125     -2879.029          28.000  
> 2021  6  9  0 38 28.9990000  0 26                     
G 8  19736029.658 1 103713527.087 1      -300.870          48.000  
G27  20839089.052 1 109510145.988 1     -2389.809          45.000  
G 7  20603718.439 1 108273254.983 1      1751.422          45.000  
C 3  37291946.574 1 194188924.751 1        81.439          42.000  
C 1  37875939.505 1 197229921.316 1        43.483          41.000  
G16  22799395.340 1 119811620.637 1     -2582.491          41.000  
G21  21706147.514 1 114066564.869 1      2788.136          43.000  
G30  23338742.822 1 122645942.685 1      3277.354          36.000  
C 7  35731430.524 1 186062906.467 1       134.042          45.000  
C25  21748315.849 1 113249140.513 1      -986.401          48.000  
C11  21196194.764 1 110374123.903 1       164.955          45.000  
C10  36438515.188 1 189744874.481 1       320.548          43.000  
C23  22354594.941 1 116406209.075 1      1809.664          47.000  
C 9  37101195.914 1 193195623.616 1     -1597.871          41.000  
C 2  37907381.787 1 197393635.478 1        37.378          38.000  
C12  23383741.722 1 121765242.319 1     -2566.800          41.000  
C 4  38614255.521 1 201074541.925 1        61.005          38.000  
G 9  23235217.905 1 122101890.971 1     -2687.494          39.000  
C16  38937801.369 1 202759317.201 1     -1839.155          39.000  
C 5  39732906.642 2 206899639.56021        37.002          35.000  
C 6  38503309.628 2 200496825.280 1     -1744.287          36.000  
G26  24870511.863 4 130695438.858 2     -2828.720          32.000  
G 4  24359762.793 2 128011417.495 1     -3313.999          36.000  
G 1  23735607.497 1 124731502.338 1      4020.539          39.000  
C28  25613198.563 1 133374625.189 1      3367.811          39.000  
C24  25653229.476 9 133583032.73924     -2879.497          29.000  
> 2021  6  9  0 38 29.9990000  0 26                     
G 8  19736086.755 1 103713827.645 1      -300.710          48.000  
G27  20839543.482 1 109512535.237 1     -2389.293          45.000  
G 7  20603385.148 1 108271503.314 1      1751.587          45.000  
C 3  37291930.782 1 194188842.575 1        82.496          42.000  
C 1  37875930.753 1 197229877.417 1        44.170          41.000  
G16  22799886.599 1 119814202.701 1     -2581.875          41.000  
G21  21705616.896 1 114063776.278 1      2788.691          43.000  
G30  23338119.186 1 122642664.782 1      3278.255          36.000  
C 7  35731404.707 1 186062771.916 1       134.817          45.000  
C25  21748505.376 1 113250126.675 1      -986.112          48.000  
C11  21196163.048 1 110373958.523 1       165.383          45.000  
C10  36438453.528 1 189744553.545 1       321.271          43.000  
C23  22354247.080 1 116404398.861 1      1810.280          47.000  
C 9  37101502.733 1 193197220.794 1     -1596.887          41.000  
C 2  37907374.772 2 197393597.422 1        38.255          38.000  
C12  23384234.124 1 121767808.487 1     -2565.948          41.000  
C 4  38614243.803 1 201074480.270 1        62.115          38.000  
G 9  23235729.135 1 122104577.973 1     -2686.965          39.000  
C16  38938154.361 1 202761155.706 1     -1838.460          39.000  
C 5  39732899.199 2 206899601.42911        38.033          35.000  
C 6  38503644.393 2 200498569.112 1     -1743.445          37.000  
G26  24871049.688 4 130698267.700 2     -2828.496          32.000  
G 4  24360393.540 2 128014731.120 1     -3313.021          36.000  
G 1  23734842.078 2 124727481.414 1      4021.018          39.000  
C28  25612551.884 1 133371256.822 1      3368.857          39.000  
C24  25653783.049 9 133585911.40323     -2878.856          28.000  
> 2021  6  9  0 38 30.9990000  0 25                     
G 8  19736144.297 1 103714129.008 1      -302.197          48.000  
G27  20839998.174 1 109514925.104 1     -2390.492          45.000  
G 7  20603051.945 1 108269752.410 1      1750.079          45.000  
C 3  37291915.469 1 194188760.690 1        81.323          42.000  
C 1  37875922.561 1 197229833.799 1        42.833          41.000  
G16  22800377.814 1 119816785.144 1     -2582.985          41.000  
G21  21705086.453 1 114060988.345 1      2787.249          43.000  
G30  23337496.039 1 122639387.373 1      3276.677          36.000  
C 7  35731378.784 1 186062637.590 1       133.775          45.000  
C25  21748694.911 1 113251113.506 1      -987.514          48.000  
C11  21196131.384 1 110373793.953 1       163.564          45.000  
C10  36438392.086 1 189744232.863 1       320.013          43.000  
C23  22353899.751 1 116402589.196 1      1809.102          47.000  
C 9  37101809.848 1 193198818.378 1     -1598.100          40.000  
C 2  37907367.425 1 197393559.627 1        37.535          38.000  
C12  23384727.171 1 121770375.197 1     -2567.291          41.000  
C 4  38614232.033 1 201074418.899 1        61.127          38.000  
G 9  23236240.584 1 122107265.479 1     -2688.086          39.000  
C16  38938507.196 1 202762994.533 1     -1839.360          39.000  
C 5  39732892.001 2 206899564.083 1        36.595          35.000  
C 6  38503979.211 2 200500313.256 1     -1745.142          37.000  
G26  24871587.861 2 130701096.839 1     -2829.696          32.000  
G 4  24361024.033 2 128018044.969 1     -3314.367          36.000  
G 1  23734077.217 1 124723460.738 1      4020.261          39.000  
C28  25611905.179 1 133367888.856 1      3367.532          39.000  
> 2021  6  9  0 38 31.9990000  0 25                     
G 8  19736201.839 1 103714431.873 1      -302.684          48.000  
G27  20840452.979 1 109517316.318 1     -2391.005          45.000  
G 7  20602718.855 1 108268002.988 1      1749.383          45.000  
C 3  37291899.537 1 194188679.785 1        81.381          42.000  
C 1  37875914.333 1 197229791.130 1        43.059          41.000  
G16  22800868.976 1 119819368.699 1     -2583.296          40.000  
G21  21704556.133 1 114058201.805 1      2786.491          44.000  
G30  23336872.997 1 122636111.149 1      3276.368          36.000  
C 7  35731353.080 1 186062504.238 1       133.623          45.000  
C25  21748884.665 1 113252101.721 1      -988.078          48.000  
C11  21196100.149 1 110373630.886 1       163.085          45.000  
C10  36438330.512 1 189743913.157 1       320.181          43.000  
C23  22353552.378 1 116400780.794 1      1808.560          47.000  
C 9  37102116.867 1 193200417.067 1     -1598.302          40.000  
C 2  37907360.140 2 197393522.851 1        37.197          38.000  
C12  23385220.235 1 121772943.194 1     -2568.018          41.000  
C 4  38614220.333 1 201074358.519 1        60.657          38.000  
G 9  23236752.119 1 122109954.252 1     -2688.493          39.000  
C16  38938860.545 1 202764834.366 1     -1839.756          39.000  
C 5  39732885.117 2 206899527.695 1        36.534          35.000  
C 6  38504314.141 2 200502058.395 1     -1744.739          36.000  
G26  24872126.279 4 130703927.055 2     -2830.352          32.000  
G 4  24361654.710 2 128021359.751 1     -3314.728          36.000  
G 1  23733312.043 1 124719441.059 1      4020.369          39.000  
C28  25611258.762 1 133364521.971 1      3366.979          39.000  
> 2021  6  9  0 38 32.9990000  0 25                     
G 8  19736259.337 1 103714735.512 1      -304.635          48.000  
G27  20840908.133 1 109519708.141 1     -2392.839          45.000  
G 7  20602386.219 1 108266254.326 1      1747.711          45.000  
C 3  37291884.294 1 194188599.135 1        79.866          42.000  
C 1  37875906.009 1 197229748.753 1        41.754          41.000  
G16  22801360.662 1 119821952.629 1     -2584.686          40.000  
G21  21704026.309 1 114055415.897 1      2785.047          44.000  
G30  23336249.797 1 122632835.397 1      3274.613          36.000  
C 7  35731327.367 1 186062371.119 1       132.424          45.000  
C25  21749074.366 1 113253090.611 1      -989.946          48.000  
C11  21196069.122 1 110373468.601 1       161.390          45.000  
C10  36438269.227 1 189743593.702 1       318.490          43.000  
C23  22353205.267 1 116398972.932 1      1806.917          47.000  
C 9  37102424.043 1 193202016.142 1     -1600.000          40.000  
C 2  37907353.369 2 197393486.309 1        35.836          38.000  
C12  23385713.326 1 121775511.686 1     -2569.427          41.000  
C 4  38614208.842 1 201074298.389 1        59.485          38.000  
G 9  23237263.699 1 122112643.541 1     -2690.316          39.000  
C16  38939213.930 1 202766674.531 1     -1841.290          39.000  
C 5  39732878.163 2 206899491.581 1        35.364          34.000  
C 6  38504649.325 1 200503803.824 1     -1746.112          36.000  
G26  24872664.461 4 130706757.505 2     -2830.551          32.000  
G 4  24362285.641 2 128024674.721 1     -3315.895          37.000  
G 1  23732547.016 1 124715421.674 1      4018.432          39.000  
C28  25610612.240 1 133361155.435 1      3365.845          39.000  
> 2021  6  9  0 38 33.9990000  0 25                     
G 8  19736317.508 1 103715041.745 1      -307.480          48.000  
G27  20841363.915 1 109522102.387 1     -2395.486          45.000  
G 7  20602053.985 1 108264508.235 1      1745.019          45.000  
C 3  37291868.912 1 194188520.551 1        77.650          42.000  
C 1  37875897.921 1 197229708.430 1        39.466          41.000  
G16  22801852.985 1 119824538.741 1     -2587.127          41.000  
G21  21703497.105 1 114052632.450 1      2782.215          44.000  
G30  23335627.260 2 122629561.903 1      3272.568          36.000  
C 7  35731302.492 1 186062240.045 1       130.058          45.000  
C25  21749264.731 1 113254081.940 1      -992.382          48.000  
C11  21196038.584 1 110373308.914 1       158.450          45.000  
C10  36438208.178 1 189743276.243 1       316.755          43.000  
C23  22352858.627 1 116397167.413 1      1804.299          47.000  
C 9  37102731.525 1 193203617.367 1     -1602.199          40.000  
C 2  37907346.668 1 197393451.835 1        33.604          38.000  
C12  23386206.862 1 121778082.512 1     -2572.095          41.000  
C 4  38614197.543 1 201074240.310 1        57.220          38.000  
G 9  23237775.950 1 122115335.106 1     -2692.310          39.000  
C16  38939567.759 1 202768516.746 1     -1842.954          39.000  
C 5  39732871.610 4 206899457.471 2        33.770          34.000  
C 6  38504984.832 2 200505551.359 1     -1748.425          36.000  
G26  24873203.472 4 130709590.141 2     -2833.206          32.000  
G 4  24362916.728 2 128027991.712 1     -3317.647          37.000  
G 1  23731782.610 1 124711404.353 1      4016.261          39.000  
C28  25609966.076 1 133357791.070 1      3363.209          39.000  
> 2021  6  9  0 38 34.9990000  0 25                     
G 8  19736376.341 1 103715349.815 1      -308.552          48.000  
G27  20841819.784 1 109524498.280 1     -2396.420          45.000  
G 7  20601721.811 1 108262763.970 1      1743.774          45.000  
C 3  37291854.193 1 194188443.271 1        77.208          42.000  
C 1  37875890.443 1 197229669.423 1        38.745          41.000  
G16  22802345.535 1 119827126.281 1     -2587.855          41.000  
G21  21702968.006 1 114049850.706 1      2781.201          44.000  
G30  23335005.047 1 122626289.979 1      3271.428          36.000  
C 7  35731277.468 1 186062110.250 1       129.567          45.000  
C25  21749455.435 1 113255074.985 1      -993.440          48.000  
C11  21196008.299 1 110373151.061 1       157.257          45.000  
C10  36438147.486 1 189742960.087 1       315.891          43.000  
C23  22352512.441 1 116395363.458 1      1803.721          47.000  
C 9  37103039.268 1 193205220.008 1     -1602.974          40.000  
C 2  37907340.125 1 197393418.664 1        32.905          38.000  
C12  23386700.834 1 121780654.914 1     -2572.821          41.000  
C 4  38614186.689 1 201074183.558 1        56.885          38.000  
G 9  23238288.532 1 122118028.275 1     -2693.741          39.000  
C16  38939922.103 1 202770360.322 1     -1843.862          40.000  
C 5  39732865.067 2 206899424.750 1        32.507          34.000  
C 6  38505320.722 2 200507300.247 1     -1749.414          37.000  
G26  24873742.335 4 130712424.150 2     -2834.524          32.000  
G 4  24363548.068 2 128031309.956 1     -3318.513          36.000  
G 1  23731018.308 1 124707388.360 1      4015.611          39.000  
C28  25609320.427 1 133354428.108 1      3362.539          39.000  
> 2021  6  9  0 38 35.9990000  0 25                     
G 8  19736434.782 1 103715658.661 1      -309.135          48.000  
G27  20842276.081 1 109526894.774 1     -2396.695          45.000  
G 7  20601390.100 1 108261020.443 1      1743.311          45.000  
C 3  37291839.369 1 194188366.236 1        76.810          42.000  
C 1  37875883.141 1 197229630.650 1        38.810          41.000  
G16  22802838.137 1 119829714.188 1     -2588.055          41.000  
G21  21702439.360 1 114047069.602 1      2780.854          44.000  
G30  23334382.449 2 122623018.465 1      3271.688          36.000  
C 7  35731252.305 1 186061980.711 1       129.207          45.000  
C25  21749646.088 1 113256068.687 1      -993.970          48.000  
C11  21195978.163 1 110372993.985 1       156.649          45.000  
C10  36438086.672 1 189742644.162 1       315.863          43.000  
C23  22352166.002 1 116393560.048 1      1803.182          47.000  
C 9  37103347.212 1 193206823.021 1     -1603.092          41.000  
C 2  37907334.139 1 197393385.713 1        33.170          38.000  
C12  23387194.954 1 121783227.823 1     -2572.949          41.000  
C 4  38614175.870 2 201074127.060 1        56.677          38.000  
G 9  23238801.098 1 122120721.929 1     -2693.614          39.000  
C16  38940276.290 1 202772204.201 1     -1844.068          40.000  
C 5  39732858.566 2 206899392.237 1        32.488          35.000  
C 6  38505656.709 2 200509049.374 1     -1748.694          36.000  
G26  24874281.503 4 130715258.445 2     -2834.318          32.000  
G 4  24364179.652 2 128034628.396 1     -3318.753          36.000  
G 1  23730253.883 1 124703372.608 1      4015.570          39.000  
C28  25608674.647 1 133351065.470 1      3362.635          39.000  
> 2021  6  9  0 38 36.9990000  0 25                     
G 8  19736493.572 1 103715967.605 1      -308.397          48.000  
G27  20842732.134 1 109529291.217 1     -2395.719          45.000  
G 7  20601058.031 1 108259277.025 1      1744.037          45.000  
C 3  37291824.196 1 194188288.790 1        78.250          42.000  
C 1  37875875.890 1 197229591.489 1        39.951          41.000  
G16  22803330.722 1 119832301.801 1     -2586.848          41.000  
G21  21701910.182 1 114044288.489 1      2781.798          44.000  
G30  23333759.878 1 122619746.772 1      3272.612          36.000  
C 7  35731227.508 1 186061850.729 1       130.688          45.000  
C25  21749837.054 1 113257062.392 1      -992.957          48.000  
C11  21195948.061 1 110372837.038 1       157.373          45.000  
C10  36438025.736 1 189742327.805 1       317.100          43.000  
C23  22351819.519 1 116391756.511 1      1804.179          47.000  
C 9  37103655.034 1 193208425.744 1     -1601.689          40.000  
C 2  37907327.709 1 197393352.384 1        34.324          38.000  
C12  23387688.944 1 121785800.633 1     -2572.076          41.000  
C 4  38614164.972 2 201074070.139 1        58.356          38.000  
G 9  23239313.506 1 122123415.436 1     -2692.961          39.000  
C16  38940630.373 1 202774047.711 1     -1842.876          40.000  
C 5  39732852.529 4 206899357.79532        33.894          35.000  
C 6  38505992.364 2 200510798.162 1     -1747.772          36.000  
G26  24874820.767 4 130718092.406 2     -2834.012          31.000  
G 4  24364811.080 2 128037946.388 2     -3317.087          36.000  
G 1  23729489.511 1 124699356.458 1      4016.975          39.000  
C28  25608028.570 1 133347702.558 1      3363.999          39.000  
> 2021  6  9  0 38 37.9990000  0 25                     
G 8  19736552.082 1 103716275.616 1      -307.312          48.000  
G27  20843188.178 1 109531686.537 1     -2394.720          45.000  
G 7  20600726.372 1 108257532.620 1      1745.074          45.000  
C 3  37291809.424 1 194188209.892 1        79.687          42.000  
C 1  37875868.064 1 197229550.873 1        41.632          41.000  
G16  22803822.775 1 119834888.054 1     -2585.517          41.000  
G21  21701380.743 1 114041506.275 1      2782.899          44.000  
G30  23333137.132 2 122616473.826 1      3273.737          36.000  
C 7  35731202.424 1 186061719.259 1       132.376          45.000  
C25  21750027.802 1 113258055.043 1      -991.923          48.000  
C11  21195917.733 1 110372679.152 1       158.389          46.000  
C10  36437964.869 1 189742009.966 1       318.702          43.000  
C23  22351473.053 1 116389951.804 1      1805.499          47.000  
C 9  37103962.830 1 193210027.132 1     -1600.658          41.000  
C 2  37907320.668 1 197393317.590 1        35.764          38.000  
C12  23388182.899 1 121788372.222 1     -2570.782          41.000  
C 4  38614153.865 2 201074011.772 1        59.418          38.000  
G 9  23239825.748 1 122126107.696 1     -2691.527          39.000  
C16  38940984.446 1 202775889.797 1     -1841.525          40.000  
C 5  39732846.107 4 206899324.44522        35.452          35.000  
C 6  38506327.966 2 200512545.527 1     -1746.466          36.000  
G26  24875359.639 4 130720924.903 2     -2831.733          31.000  
G 4  24365441.949 2 128041262.844 1     -3315.509          36.000  
G 1  23728724.817 1 124695338.832 1      4018.727          39.000  
C28  25607382.449 1 133344338.314 1      3365.086          39.000  
> 2021  6  9  0 38 38.9990000  0 25                     
G 8  19736610.785 1 103716583.404 1      -308.459          48.000  
G27  20843644.161 1 109534081.456 1     -2395.440          45.000  
G 7  20600394.670 1 108255787.972 1      1743.970          45.000  
C 3  37291793.832 1 194188130.268 1        79.209          42.000  
C 1  37875860.063 1 197229509.526 1        41.218          41.000  
G16  22804314.565 1 119837473.676 1     -2585.942          41.000  
G21  21700851.050 1 114038723.702 1      2781.988          44.000  
G30  23332514.246 2 122613200.343 1      3273.175          36.000  
C 7  35731176.964 1 186061587.041 1       131.958          45.000  
C25  21750218.315 1 113259047.365 1      -992.896          48.000  
C11  21195887.125 1 110372521.041 1       157.629          46.000  
C10  36437903.811 1 189741691.401 1       318.174          43.000  
C23  22351126.361 1 116388146.630 1      1804.694          47.000  
C 9  37104270.041 1 193211627.896 1     -1601.387          41.000  
C 2  37907313.984 1 197393282.047 1        35.401          38.000  
C12  23388676.408 1 121790943.355 1     -2571.808          41.000  
C 4  38614142.514 1 201073952.684 1        58.612          38.000  
G 9  23240338.410 1 122128799.452 1     -2692.389          39.000  
C16  38941338.162 1 202777731.176 1     -1841.702          40.000  
C 5  39732839.581 2 206899290.31031        34.688          35.000  
C 6  38506663.333 2 200514292.183 1     -1746.716          36.000  
G26  24875898.536 4 130723756.709 2     -2832.493          31.000  
G 4  24366072.975 2 128044578.473 1     -3315.543          36.000  
G 1  23727959.930 1 124691320.487 1      4017.865          39.000  
C28  25606736.198 1 133340973.397 1      3364.688          39.000  
> 2021  6  9  0 38 39.9990000  0 25                     
G 8  19736669.452 1 103716891.500 1      -308.489          48.000  
G27  20844099.847 1 109536476.500 1     -2395.396          45.000  
G 7  20600062.618 1 108254043.595 1      1744.049          45.000  
C 3  37291778.668 1 194188050.406 1        79.897          42.000  
C 1  37875852.428 1 197229467.949 1        41.430          41.000  
G16  22804806.609 1 119840059.200 1     -2585.549          41.000  
G21  21700321.218 1 114035941.294 1      2782.117          43.000  
G30  23331890.881 2 122609926.819 1      3273.467          36.000  
C 7  35731151.268 1 186061454.601 1       132.292          45.000  
C25  21750408.898 1 113260039.861 1      -992.756          48.000  
C11  21195856.954 1 110372363.256 1       157.362          45.000  
C10  36437842.473 1 189741372.570 1       318.675          43.000  
C23  22350779.434 1 116386341.510 1      1804.940          47.000  
C 9  37104577.173 1 193213228.542 1     -1600.705          40.000  
C 2  37907307.091 2 197393246.292 1        35.881          38.000  
C12  23389170.424 1 121793514.528 1     -2571.240          41.000  
C 4  38614131.276 2 201073893.374 1        59.204          38.000  
G 9  23240850.905 2 122131491.244 1     -2691.872          39.000  
C16  38941691.608 1 202779572.380 1     -1841.168          40.000  
C 5  39732832.548 4 206899255.03422        34.397          35.000  
C 6  38506998.857 2 200516038.636 1     -1746.668          36.000  
G26  24876437.364 4 130726588.309 2     -2831.080          31.000  
G 4  24366703.669 4 128047893.850 2     -3315.331          36.000  
G 1  23727195.218 2 124687301.897 1      4018.398          39.000  
C28  25606089.824 2 133337608.374 1      3364.999          39.000  
> 2021  6  9  0 38 40.9990000  0 26                     
G 8  19736728.260 1 103717199.385 1      -307.430          48.000  
G27  20844555.499 1 109538871.171 1     -2394.289          45.000  
G 7  20599730.575 1 108252299.001 1      1745.129          45.000  
C 3  37291763.260 1 194187969.847 1        81.153          42.000  
C 1  37875844.462 1 197229425.660 1        43.240          41.000  
G16  22805298.758 1 119842644.122 1     -2584.470          41.000  
G21  21699791.080 1 114033158.552 1      2783.132          43.000  
G30  23331267.550 2 122606652.822 1      3274.120          36.000  
C 7  35731125.686 1 186061321.430 1       133.804          45.000  
C25  21750599.489 1 113261032.051 1      -991.689          48.000  
C11  21195826.669 1 110372205.286 1       158.374          45.000  
C10  36437781.145 1 189741053.010 1       320.205          43.000  
C23  22350432.776 1 116384535.977 1      1805.841          47.000  
C 9  37104884.585 1 193214828.595 1     -1599.430          40.000  
C 2  37907300.076 2 197393209.817 1        37.288          38.000  
C12  23389664.108 1 121796085.263 1     -2570.184          41.000  
C 4  38614119.549 2 201073833.361 1        60.602          38.000  
G 9  23241363.296 1 122134182.565 1     -2690.898          39.000  
C16  38942044.870 1 202781412.922 1     -1840.052          40.000  
C24  25659830.920 9                     -2876.959          27.000  
C 5  39732825.489 2 206899218.96121        36.371          34.000  
C 6  38507334.120 2 200517784.463 1     -1745.465          36.000  
G26  24876976.000 4 130729419.296 2     -2829.900          32.000  
G 4  24367334.250 4 128051208.467 2     -3314.412          35.000  
G 1  23726430.768 1 124683282.611 1      4019.711          39.000  
C28  25605443.512 1 133334242.759 1      3365.949          39.000  
> 2021  6  9  0 38 41.9990000  0 26                     
G 8  19736786.631 1 103717505.582 1      -305.372          48.000  
G27  20845011.054 1 109541263.970 1     -2391.969          45.000  
G 7  20599398.149 1 108250552.698 1      1747.070          45.000  
C 3  37291747.441 1 194187887.087 1        83.666          42.000  
C 1  37875835.789 1 197229381.200 1        45.476          41.000  
G16  22805790.164 1 119845226.929 1     -2581.800          40.000  
G21  21699260.759 1 114030373.976 1      2785.263          43.000  
G30  23330643.984 1 122603376.789 1      3276.775          36.000  
C 7  35731099.249 1 186061186.042 1       136.426          45.000  
C25  21750789.932 1 113262022.460 1      -989.603          48.000  
C11  21195796.113 1 110372045.653 1       160.465          45.000  
C10  36437719.371 1 189740731.260 1       322.774          43.000  
C23  22350085.691 1 116382728.514 1      1808.431          47.000  
C 9  37105191.299 1 193216426.570 1     -1596.825          40.000  
C 2  37907292.555 1 197393171.165 1        39.835          38.000  
C12  23390157.748 1 121798654.087 1     -2567.987          41.000  
C 4  38614107.727 2 201073771.138 1        63.434          38.000  
G 9  23241875.276 1 122136871.909 1     -2688.397          39.000  
C16  38942397.966 1 202783251.299 1     -1837.564          40.000  
C24  25660379.581 9               6     -2879.237          27.000  
C 5  39732818.265 2 206899179.71231        39.135          35.000  
C 6  38507668.998 2 200519528.078 1     -1742.413          36.000  
G26  24877514.147 4 130732248.099 2     -2827.635          31.000  
G 4  24367964.273 2 128054520.791 1     -3311.615          35.000  
G 1  23725665.392 1 124679261.104 1      4022.588          39.000  
C28  25604796.632 1 133330875.029 1      3368.577          39.000  
> 2021  6  9  0 38 42.9990000  0 26                     
G 8  19736844.496 1 103717810.123 1      -304.274          48.000  
G27  20845465.815 1 109543654.965 1     -2390.719          45.000  
G 7  20599065.783 1 108248804.730 1      1748.212          45.000  
C 3  37291731.352 1 194187802.175 1        85.455          42.000  
C 1  37875826.558 1 197229334.590 1        47.269          41.000  
G16  22806281.467 1 119847807.712 1     -2580.412          41.000  
G21  21698730.246 1 114027587.642 1      2786.492          43.000  
G30  23330020.366 1 122600098.799 1      3278.385          37.000  
C 7  35731072.804 1 186061048.492 1       137.982          45.000  
C25  21750979.790 1 113263011.120 1      -988.326          49.000  
C11  21195764.991 1 110371884.394 1       161.632          45.000  
C10  36437657.135 1 189740407.333 1       324.657          43.000  
C23  22349738.275 1 116380919.202 1      1809.672          47.000  
C 9  37105497.611 1 193218022.533 1     -1595.511          40.000  
C 2  37907284.642 1 197393130.377 1        41.150          38.000  
C12  23390650.481 1 121801221.038 1     -2566.565          41.000  
C 4  38614095.197 2 201073706.792 1        64.838          38.000  
G 9  23242386.716 1 122139559.352 1     -2687.000          39.000  
C16  38942750.705 1 202785087.578 1     -1835.837          39.000  
C24  25660939.986 9 133623175.97935     -2877.231          27.000  
C 5  39732810.596 4 206899139.30622        41.074          35.000  
C 6  38508003.126 2 200521269.601 1     -1740.515          37.000  
G26  24878052.198 4 130735074.778 2     -2826.560          32.000  
G 4  24368593.833 4 128057830.845 2     -3308.900          35.000  
G 1  23724899.633 1 124675237.436 1      4024.508          39.000  
C28  25604149.290 1 133327505.260 1      3370.421          39.000  
> 2021  6  9  0 38 43.9990000  0 26                     
G 8  19736902.596 1 103718113.991 1      -303.764          48.000  
G27  20845920.655 1 109546045.089 1     -2389.880          45.000  
G 7  20598732.929 1 108247056.043 1      1749.017          45.000  
C 3  37291714.512 1 194187716.088 1        86.454          42.000  
C 1  37875817.161 1 197229286.785 1        48.328          41.000  
G16  22806772.542 1 119850387.389 1     -2579.336          41.000  
G21  21698199.297 1 114024800.467 1      2787.378          43.000  
G30  23329396.172 1 122596819.823 1      3279.299          37.000  
C 7  35731046.358 1 186060909.735 1       139.239          45.000  
C25  21751169.631 1 113263999.000 1      -987.593          48.000  
C11  21195733.851 1 110371722.482 1       162.014          46.000  
C10  36437594.392 1 189740082.196 1       325.399          43.000  
C23  22349390.675 1 116379108.967 1      1810.515          47.000  
C 9  37105804.098 1 193219617.404 1     -1594.287          41.000  
C 2  37907276.641 1 197393088.368 1        42.161          38.000  
C12  23391143.537 1 121803787.053 1     -2565.601          41.000  
C 4  38614082.563 1 201073641.254 1        66.260          38.000  
G 9  23242897.807 1 122142245.815 1     -2686.181          39.000  
C16  38943102.999 1 202786922.674 1     -1834.394          39.000  
C24  25661497.703 8 133626052.77724     -2876.200          27.000  
C 5  39732802.900 2 206899097.75921        41.560          35.000  
C 6  38508337.411 2 200523009.979 1     -1739.838          37.000  
G26  24878589.883 4 130737900.310 2     -2825.018          33.000  
G 4  24369222.931 4 128061139.711 2     -3308.391          35.000  
G 1  23724133.717 1 124671212.575 1      4025.250          39.000  
C28  25603501.800 1 133324134.411 1      3371.133          39.000  
> 2021  6  9  0 38 44.9990000  0 25                     
G 8  19736960.208 1 103718417.667 1      -303.708          48.000  
G27  20846375.408 1 109548434.862 1     -2389.882          45.000  
G 7  20598400.057 1 108245307.167 1      1748.749          45.000  
C 3  37291698.100 1 194187629.294 1        86.995          42.000  
C 1  37875808.262 1 197229238.296 1        48.772          41.000  
G16  22807263.172 1 119852966.485 1     -2579.124          41.000  
G21  21697668.907 1 114022012.995 1      2787.437          43.000  
G30  23328772.161 1 122593540.370 1      3279.510          36.000  
C 7  35731019.807 1 186060770.242 1       139.748          45.000  
C25  21751359.062 1 113264986.581 1      -987.661          48.000  
C11  21195702.694 1 110371560.382 1       162.006          46.000  
C10  36437532.034 1 189739756.336 1       326.115          43.000  
C23  22349042.823 1 116377298.318 1      1810.763          47.000  
C 9  37106110.210 1 193221211.693 1     -1594.008          40.000  
C 2  37907268.518 1 197393045.667 1        42.779          38.000  
C12  23391636.297 1 121806352.657 1     -2565.588          41.000  
C 4  38614069.833 1 201073575.029 1        66.528          38.000  
G 9  23243408.880 1 122144931.833 1     -2685.933          39.000  
C16  38943455.144 1 202788757.165 1     -1834.296          39.000  
C 5  39732794.856 2 206899055.45021        42.542          35.000  
C 6  38508671.853 2 200524749.701 1     -1739.563          37.000  
G26  24879127.481 2 130740725.224 1     -2825.009          34.000  
G 4  24369852.334 2 128064447.787 1     -3307.807          35.000  
G 1  23723367.486 1 124667187.017 1      4025.468          39.000  
C28  25602854.388 1 133320762.953 1      3371.479          39.000  
> 2021  6  9  0 38 45.9990000  0 25                     
G 8  19737018.082 1 103718721.561 1      -304.143          48.000  
G27  20846829.943 1 109550824.664 1     -2389.931          45.000  
G 7  20598067.456 1 108243558.462 1      1748.383          45.000  
C 3  37291680.877 1 194187542.187 1        87.195          41.000  
C 1  37875798.856 1 197229189.502 1        48.701          42.000  
G16  22807753.864 1 119855545.366 1     -2578.929          41.000  
G21  21697138.141 1 114019225.598 1      2787.164          43.000  
G30  23328148.219 1 122590260.788 1      3279.534          37.000  
C 7  35730992.899 1 186060630.443 1       139.736          45.000  
C25  21751548.798 1 113265974.251 1      -987.832          49.000  
C11  21195671.606 1 110371398.517 1       161.400          45.000  
C10  36437469.274 1 189739430.138 1       326.291          43.000  
C23  22348695.328 1 116375487.649 1      1810.447          47.000  
C 9  37106416.095 1 193222805.794 1     -1594.079          41.000  
C 2  37907260.490 1 197393002.659 1        42.905          38.000  
C12  23392128.812 1 121808918.192 1     -2565.674          41.000  
C 4  38614057.156 2 201073508.493 1        66.473          38.000  
G 9  23243920.023 1 122147617.788 1     -2685.993          39.000  
C16  38943807.351 1 202790591.373 1     -1834.414          39.000  
C 5  39732786.741 2 206899012.85021        43.210          34.000  
C 6  38509005.859 2 200526489.116 1     -1739.618          37.000  
G26  24879665.253 4 130743549.811 2     -2824.580          33.000  
G 4  24370481.859 4 128067755.504 2     -3307.648          34.000  
G 1  23722601.213 1 124663161.143 1      4025.806          39.000  
C28  25602206.837 1 133317391.273 1      3371.988          38.000  
> 2021  6  9  0 38 46.9990000  0 25                     
G 8  19737075.999 1 103719026.333 1      -305.636          48.000  
G27  20847284.704 1 109553215.168 1     -2391.182          45.000  
G 7  20597734.872 1 108241810.610 1      1747.076          45.000  
C 3  37291664.465 1 194187455.452 1        86.292          41.000  
C 1  37875789.459 1 197229141.055 1        47.920          42.000  
G16  22808244.730 1 119858124.716 1     -2579.864          41.000  
G21  21696607.785 1 114016438.933 1      2785.949          43.000  
G30  23327524.165 1 122586981.778 1      3278.323          36.000  
C 7  35730966.436 1 186060490.951 1       139.029          45.000  
C25  21751738.674 1 113266962.682 1      -989.105          49.000  
C11  21195640.780 1 110371237.512 1       160.277          46.000  
C10  36437406.785 1 189739104.266 1       325.445          43.000  
C23  22348347.685 1 116373677.599 1      1809.523          47.000  
C 9  37106722.128 1 193224400.352 1     -1594.908          41.000  
C 2  37907252.106 1 197392959.991 1        42.432          38.000  
C12  23392621.484 1 121811484.368 1     -2566.882          41.000  
C 4  38614044.243 1 201073442.307 1        65.643          38.000  
G 9  23244430.878 1 122150304.341 1     -2687.328          39.000  
C16  38944159.592 1 202792425.935 1     -1834.962          39.000  
C 5  39732778.374 4 206898971.60332        41.703          34.000  
C 6  38509340.197 2 200528228.921 1     -1740.326          37.000  
G26  24880202.693 2 130746374.838 1     -2825.657          33.000  
G 4  24371111.280 4 128071063.457 2     -3307.951          34.000  
G 1  23721835.157 1 124659135.625 1      4024.954          39.000  
C28  25601559.477 1 133314020.092 1      3370.293          39.000  
> 2021  6  9  0 38 47.9990000  0 25                     
G 8  19737134.291 1 103719332.344 1      -306.266          48.000  
G27  20847739.666 1 109555606.764 1     -2391.923          45.000  
G 7  20597402.716 1 108240063.998 1      1746.368          45.000  
C 3  37291648.001 1 194187369.428 1        86.169          41.000  
C 1  37875780.298 1 197229093.336 1        47.618          42.000  
G16  22808735.630 1 119860704.920 1     -2580.198          41.000  
G21  21696077.691 1 114013653.384 1      2785.377          43.000  
G30  23326900.223 1 122583703.700 1      3278.412          36.000  
C 7  35730939.781 1 186060352.191 1       138.704          45.000  
C25  21751928.646 1 113267952.254 1      -989.864          49.000  
C11  21195610.120 1 110371077.781 1       159.445          46.000  
C10  36437344.322 1 189738779.137 1       324.996          43.000  
C23  22348000.242 1 116371868.566 1      1808.869          47.000  
C 9  37107028.519 1 193225995.756 1     -1595.454          41.000  
C 2  37907243.974 2 197392918.064 1        41.915          38.000  
C12  23393114.539 1 121814051.533 1     -2567.377          41.000  
C 4  38614031.748 1 201073376.853 1        65.253          38.000  
G 9  23244942.021 1 122152991.874 1     -2687.718          39.000  
C16  38944512.043 1 202794261.312 1     -1835.665          39.000  
C 5  39732770.617 4 206898930.10422        41.130          34.000  
C 6  38509674.290 2 200529969.516 1     -1741.010          37.000  
G26  24880740.544 2 130749200.638 1     -2826.086          34.000  
G 4  24371741.006 4 128074372.190 2     -3308.900          34.000  
G 1  23721069.127 1 124655110.863 1      4024.380          39.000  
C28  25600912.354 1 133310649.704 1      3370.334          39.000  
> 2021  6  9  0 38 48.9990000  0 25                     
G 8  19737192.488 1 103719638.832 1      -306.691          48.000  
G27  20848194.768 1 109557998.668 1     -2392.080          45.000  
G 7  20597070.386 1 108238317.865 1      1746.033          45.000  
C 3  37291631.327 1 194187283.379 1        86.315          42.000  
C 1  37875771.538 1 197229045.595 1        48.052          42.000  
G16  22809226.453 1 119863285.214 1     -2580.295          41.000  
G21  21695547.711 1 114010868.199 1      2785.258          43.000  
G30  23326276.492 1 122580425.829 1      3277.879          36.000  
C 7  35730912.951 1 186060213.394 1       138.974          45.000  
C25  21752118.705 1 113268942.194 1      -989.999          48.000  
C11  21195579.478 1 110370918.539 1       158.877          45.000  
C10  36437281.999 1 189738453.956 1       325.218          43.000  
C23  22347653.035 1 116370059.788 1      1808.798          47.000  
C 9  37107335.102 1 193227591.258 1     -1595.439          40.000  
C 2  37907236.043 1 197392876.121 1        41.980          38.000  
C12  23393607.456 1 121816618.940 1     -2567.322          41.000  
C 4  38614019.167 1 201073311.374 1        65.509          38.000  
G 9  23245453.025 1 122155679.607 1     -2687.572          38.000  
C16  38944864.624 1 202796096.678 1     -1835.439          39.000  
C 5  39732762.547 4 206898888.58522        41.368          34.000  
C 6  38510008.287 2 200531710.099 1     -1740.442          37.000  
G26  24881278.447 2 130752026.488 1     -2825.963          34.000  
G 4  24372370.531 4 128077680.731 2     -3307.500          35.000  
G 1  23720303.185 1 124651086.064 1      4025.000          39.000  
C28  25600265.212 1 133307279.429 1      3370.047          38.000  
> 2021  6  9  0 38 49.9990000  0 25                     
G 8  19737250.894 1 103719945.123 1      -306.265          48.000  
G27  20848649.887 1 109560390.197 1     -2391.195          45.000  
G 7  20596738.212 1 108236571.523 1      1746.429          45.000  
C 3  37291615.099 1 194187196.639 1        87.035          42.000  
C 1  37875762.123 1 197228997.176 1        48.770          42.000  
G16  22809717.353 1 119865864.912 1     -2579.561          40.000  
G21  21695017.660 1 114008082.701 1      2785.694          43.000  
G30  23325652.629 1 122577147.426 1      3278.971          37.000  
C 7  35730885.868 1 186060073.854 1       139.974          45.000  
C25  21752308.912 1 113269931.845 1      -989.595          49.000  
C11  21195548.774 1 110370759.122 1       159.595          45.000  
C10  36437219.309 1 189738128.040 1       326.269          43.000  
C23  22347305.497 1 116368250.589 1      1809.279          47.000  
C 9  37107641.423 1 193229186.175 1     -1594.737          41.000  
C 2  37907227.771 1 197392833.452 1        42.941          38.000  
C12  23394100.712 1 121819185.910 1     -2566.656          41.000  
C 4  38614006.437 1 201073245.213 1        66.302          38.000  
G 9  23245964.107 1 122158366.889 1     -2687.203          38.000  
C16  38945217.093 1 202797931.367 1     -1834.341          39.000  
C 5  39732754.485 4 206898846.31722        42.705          34.000  
C 6  38510342.345 2 200533450.011 1     -1739.423          37.000  
G26  24881815.949 2 130754851.626 1     -2824.985          34.000  
G 4  24372999.769 4 128080988.599 2     -3307.522          34.000  
G 1  23719537.199 1 124647060.565 1      4025.766          39.000  
C28  25599618.027 1 133303908.523 1      3371.099          39.000  
> 2021  6  9  0 38 50.9990000  0 25                     
G 8  19737309.535 1 103720251.801 1      -307.320          48.000  
G27  20849105.119 1 109562781.928 1     -2392.269          45.000  
G 7  20596405.750 1 108234825.516 1      1745.557          45.000  
C 3  37291597.962 1 194187109.721 1        86.683          42.000  
C 1  37875752.526 1 197228948.574 1        48.224          42.000  
G16  22810208.115 1 119868444.550 1     -2579.940          41.000  
G21  21694487.680 1 114005297.427 1      2784.812          43.000  
G30  23325028.609 1 122573869.092 1      3278.102          37.000  
C 7  35730859.091 1 186059934.175 1       139.262          45.000  
C25  21752499.050 1 113270921.734 1      -990.423          49.000  
C11  21195518.245 1 110370600.087 1       158.441          45.000  
C10  36437156.933 1 189737801.955 1       325.791          43.000  
C23  22346957.906 1 116366441.516 1      1808.583          47.000  
C 9  37107947.726 1 193230781.035 1     -1595.412          41.000  
C 2  37907219.735 1 197392790.633 1        42.168          38.000  
C12  23394593.733 1 121821752.989 1     -2567.480          41.000  
C 4  38613993.567 1 201073178.897 1        65.594          38.000  
G 9  23246475.442 1 122161054.264 1     -2687.665          38.000  
C16  38945569.255 1 202799765.939 1     -1834.839          39.000  
C 5  39732746.082 2 206898803.92922        42.167          34.000  
C 6  38510676.386 2 200535189.808 1     -1740.375          37.000  
G26  24882353.782 2 130757676.675 1     -2825.761          34.000  
G 4  24373628.936 4 128084296.182 2     -3308.194          34.000  
G 1  23718771.483 1 124643034.934 1      4024.950          39.000  
C28  25598970.720 1 133300537.554 1      3370.663          39.000  
> 2021  6  9  0 38 51.9990000  0 25                     
G 8  19737368.107 1 103720559.215 1      -307.929          48.000  
G27  20849560.457 1 109565174.205 1     -2392.682          45.000  
G 7  20596073.638 1 108233080.210 1      1745.007          45.000  
C 3  37291581.742 1 194187023.027 1        86.641          42.000  
C 1  37875743.225 1 197228900.167 1        48.429          42.000  
G16  22810699.364 1 119871024.521 1     -2580.167          41.000  
G21  21693958.415 1 114002512.733 1      2784.466          43.000  
G30  23324405.017 1 122570591.168 1      3277.764          37.000  
C 7  35730832.322 1 186059794.647 1       139.395          45.000  
C25  21752689.318 1 113271912.227 1      -990.702          48.000  
C11  21195487.646 1 110370441.752 1       158.004          45.000  
C10  36437094.470 1 189737476.039 1       325.801          43.000  
C23  22346610.498 1 116364632.910 1      1808.387          47.000  
C 9  37108253.960 1 193232376.204 1     -1595.375          40.000  
C 2  37907211.499 2 197392748.003 1        42.652          38.000  
C12  23395086.798 1 121824320.550 1     -2567.889          41.000  
C 4  38613980.898 1 201073112.760 1        65.948          38.000  
G 9  23246986.785 1 122163742.066 1     -2688.071          38.000  
C16  38945921.558 1 202801600.748 1     -1834.582          39.000  
C 5  39732738.273 2 206898762.74131        42.261          34.000  
C 6  38511010.732 2 200536929.841 1     -1740.002          37.000  
G26  24882891.519 2 130760501.939 1     -2825.111          34.000  
G 4  24374258.645 2 128087603.917 1     -3308.120          35.000  
G 1  23718005.672 1 124639009.484 1      4025.539          39.000  
C28  25598323.396 1 133297166.922 1      3370.496          39.000  
> 2021  6  9  0 38 52.9990000  0 25                     
G 8  19737426.888 1 103720867.548 1      -308.755          48.000  
G27  20850016.152 1 109567567.236 1     -2393.365          45.000  
G 7  20595741.909 1 108231335.825 1      1743.994          45.000  
C 3  37291564.615 1 194186936.710 1        86.323          42.000  
C 1  37875734.046 1 197228852.198 1        47.796          42.000  
G16  22811190.143 1 119873604.988 1     -2580.432          41.000  
G21  21693429.062 1 113999728.853 1      2783.444          43.000  
G30  23323781.520 1 122567313.867 1      3276.731          37.000  
C 7  35730805.466 1 186059655.520 1       138.972          45.000  
C25  21752879.718 1 113272903.533 1      -991.795          48.000  
C11  21195457.326 1 110370284.375 1       156.964          45.000  
C10  36437032.207 1 189737150.527 1       325.366          43.000  
C23  22346263.291 1 116362825.002 1      1807.701          47.000  
C 9  37108560.255 1 193233971.897 1     -1595.819          40.000  
C 2  37907203.158 2 197392705.791 1        41.927          38.000  
C12  23395580.316 1 121826888.780 1     -2568.494          41.000  
C 4  38613967.950 1 201073047.017 1        65.961          38.000  
G 9  23247498.321 1 122166430.531 1     -2688.609          38.000  
C16  38946274.157 1 202803436.040 1     -1835.730          40.000  
C 5  39732730.368 2 206898720.96321        41.252          34.000  
C 6  38511344.808 1 200538670.314 1     -1740.759          38.000  
G26  24883429.343 2 130763327.737 1     -2825.880          34.000  
G 4  24374888.135 4 128090912.023 2     -3308.684          36.000  
G 1  23717240.069 1 124634984.446 1      4024.972          38.000  
C28  25597676.368 1 133293796.780 1      3370.259          39.000  
> 2021  6  9  0 38 53.9990000  0 25                     
G 8  19737485.617 1 103721176.739 1      -309.469          48.000  
G27  20850471.646 1 109569960.954 1     -2393.962          45.000  
G 7  20595409.989 1 108229592.283 1      1743.164          45.000  
C 3  37291548.779 1 194186850.763 1        85.765          42.000  
C 1  37875724.858 1 197228804.561 1        47.632          42.000  
G16  22811681.236 1 119876185.957 1     -2581.231          41.000  
G21  21692899.719 1 113996945.688 1      2782.695          43.000  
G30  23323157.989 1 122564037.108 1      3276.520          37.000  
C 7  35730778.794 1 186059516.696 1       138.625          45.000  
C25  21753070.187 1 113273895.583 1      -992.336          48.000  
C11  21195427.512 1 110370127.869 1       156.018          45.000  
C10  36436969.753 1 189736825.340 1       325.042          43.000  
C23  22345916.293 1 116361017.720 1      1807.103          47.000  
C 9  37108867.048 1 193235568.056 1     -1596.384          40.000  
C 2  37907195.340 2 197392663.924 1        41.371          38.000  
C12  23396073.774 1 121829457.629 1     -2569.305          41.000  
C 4  38613955.727 2 201072981.668 1        65.338          38.000  
G 9  23248010.031 1 122169119.591 1     -2689.314          38.000  
C16  38946626.634 1 202805271.668 1     -1835.645          40.000  
C 5  39732722.524 2 206898679.51521        41.250          35.000  
C 6  38511679.215 1 200540411.150 1     -1741.095          38.000  
G26  24883967.212 2 130766153.889 1     -2826.546          34.000  
G 4  24375517.565 4 128094220.388 2     -3308.585          35.000  
G 1  23716474.092 1 124630959.762 1      4024.663          38.000  
C28  25597029.261 1 133290427.093 1      3369.507          39.000  
> 2021  6  9  0 38 54.9990000  0 25                     
G 8  19737544.755 1 103721486.868 1      -310.867          48.000  
G27  20850927.166 1 109572355.429 1     -2395.030          45.000  
G 7  20595078.225 1 108227849.646 1      1741.888          45.000  
C 3  37291532.201 1 194186765.230 1        84.833          42.000  
C 1  37875715.828 1 197228757.340 1        46.816          42.000  
G16  22812172.390 1 119878767.440 1     -2582.149          41.000  
G21  21692370.323 1 113994163.331 1      2781.811          43.000  
G30  23322534.668 1 122560760.995 1      3275.110          37.000  
C 7  35730752.365 1 186059378.288 1       137.943          45.000  
C25  21753260.979 1 113274888.448 1      -993.552          48.000  
C11  21195397.524 1 110369972.305 1       154.733          45.000  
C10  36436907.177 1 189736500.511 1       324.396          43.000  
C23  22345569.366 1 116359211.115 1      1806.077          47.000  
C 9  37109173.718 1 193237164.744 1     -1597.393          40.000  
C 2  37907187.365 1 197392622.444 1        40.913          38.000  
C12  23396567.161 1 121832027.144 1     -2569.940          41.000  
C 4  38613943.154 1 201072916.720 1        64.362          38.000  
G 9  23248521.829 1 122171809.307 1     -2690.551          38.000  
C16  38946979.469 1 202807107.764 1     -1836.539          40.000  
C 5  39732714.637 2 206898638.44321        41.041          35.000  
C 6  38512013.710 1 200542152.455 1     -1741.852          38.000  
G26  24884505.036 2 130768980.499 1     -2827.291          34.000  
G 4  24376147.204 2 128097529.121 1     -3309.246          36.000  
G 1  23715708.263 2 124626935.523 1      4023.880          38.000  
C28  25596382.094 1 133287057.917 1      3368.445          39.000  
> 2021  6  9  0 38 55.9990000  0 25                     
G 8  19737603.955 1 103721798.355 1      -312.364          48.000  
G27  20851383.080 1 109574751.100 1     -2396.222          45.000  
G 7  20594746.715 1 108226108.352 1      1740.698          45.000  
C 3  37291515.964 1 194186680.514 1        84.112          42.000  
C 1  37875706.728 1 197228710.958 1        45.944          42.000  
G16  22812663.805 1 119881349.866 1     -2583.075          41.000  
G21  21691841.154 1 113991382.223 1      2780.252          43.000  
G30  23321911.232 1 122557485.909 1      3274.182          37.000  
C 7  35730725.806 1 186059240.693 1       137.083          45.000  
C25  21753451.936 1 113275882.565 1      -994.948          48.000  
C11  21195368.068 1 110369818.093 1       153.323          45.000  
C10  36436844.679 1 189736176.527 1       323.373          43.000  
C23  22345222.726 1 116357405.651 1      1804.708          47.000  
C 9  37109480.466 1 193238762.368 1     -1598.105          40.000  
C 2  37907179.251 1 197392581.792 1        40.627          38.000  
C12  23397060.915 1 121834597.770 1     -2571.179          41.000  
C 4  38613930.825 1 201072852.623 1        63.580          38.000  
G 9  23249033.958 1 122174500.108 1     -2691.482          38.000  
C16  38947332.277 1 202808944.756 1     -1837.749          40.000  
C 5  39732706.828 2 206898598.26421        40.161          35.000  
C 6  38512348.431 1 200543894.622 1     -1742.572          37.000  
G26  24885043.279 2 130771808.023 1     -2828.442          34.000  
G 4  24376776.921 2 128100838.648 1     -3309.288          36.000  
G 1  23714942.774 1 124622912.105 1      4023.042          38.000  
C28  25595735.249 1 133283689.674 1      3367.605          39.000  
> 2021  6  9  0 38 56.9990000  0 25                     
G 8  19737663.548 1 103722111.355 1      -313.787          48.000  
G27  20851839.281 1 109577148.139 1     -2397.616          45.000  
G 7  20594415.649 1 108224368.586 1      1738.843          45.000  
C 3  37291499.883 1 194186596.801 1        83.256          42.000  
C 1  37875698.255 1 197228665.588 1        44.872          42.000  
G16  22813155.640 1 119883933.418 1     -2584.012          41.000  
G21  21691311.941 1 113988602.492 1      2779.145          43.000  
G30  23321288.609 1 122554212.054 1      3273.233          37.000  
C 7  35730699.570 1 186059104.066 1       136.119          45.000  
C25  21753643.121 1 113276878.077 1      -996.236          49.000  
C11  21195338.726 1 110369665.421 1       151.876          45.000  
C10  36436782.870 1 189735853.493 1       322.493          43.000  
C23  22344876.025 1 116355601.465 1      1803.400          47.000  
C 9  37109787.407 1 193240361.098 1     -1599.228          40.000  
C 2  37907171.276 2 197392542.199 1        38.991          38.000  
C12  23397554.712 1 121837169.670 1     -2572.620          41.000  
C 4  38613918.880 1 201072789.498 1        62.939          38.000  
G 9  23249546.366 1 122177192.172 1     -2692.594          37.000  
C16  38947685.513 1 202810782.757 1     -1838.437          40.000  
C 5  39732699.351 2 206898559.09321        38.191          34.000  
C 6  38512683.021 2 200545637.830 1     -1743.915          38.000  
G26  24885581.714 2 130774636.596 1     -2828.980          34.000  
G 4  24377406.769 2 128104149.155 1     -3311.079          36.000  
G 1  23714177.364 1 124618889.726 1      4021.893          38.000  
C28  25595088.562 1 133280322.545 1      3366.444          39.000  
> 2021  6  9  0 38 57.9990000  0 25                     
G 8  19737723.533 1 103722426.150 1      -315.410          48.000  
G27  20852295.857 1 109579546.776 1     -2399.070          45.000  
G 7  20594085.159 1 108222630.577 1      1737.354          45.000  
C 3  37291483.672 1 194186514.377 1        81.808          42.000  
C 1  37875689.722 1 197228621.463 1        43.818          42.000  
G16  22813647.631 1 119886518.357 1     -2585.254          41.000  
G21  21690783.068 1 113985824.429 1      2777.615          43.000  
G30  23320666.011 2 122550939.658 1      3271.993          37.000  
C 7  35730673.743 1 186058968.694 1       135.162          45.000  
C25  21753834.663 1 113277875.250 1      -997.654          49.000  
C11  21195309.558 1 110369514.533 1       150.342          45.000  
C10  36436720.948 1 189735531.732 1       321.352          43.000  
C23  22344529.856 1 116353798.809 1      1802.173          47.000  
C 9  37110095.107 1 193241961.228 1     -1600.833          40.000  
C 2  37907164.026 1 197392503.818 1        38.120          38.000  
C12  23398048.964 1 121839743.104 1     -2573.688          41.000  
C 4  38613907.197 1 201072727.673 1        61.359          38.000  
G 9  23250058.765 1 122179885.750 1     -2693.940          37.000  
C16  38948038.845 1 202812622.066 1     -1839.360          40.000  
C 5  39732692.336 4 206898521.11422        37.344          34.000  
C 6  38513018.205 2 200547382.331 1     -1745.032          37.000  
G26  24886120.560 2 130777466.490 1     -2830.313          34.000  
G 4  24378037.306 2 128107460.819 1     -3311.708          35.000  
G 1  23713412.059 1 124614868.597 1      4021.212          38.000  
C28  25594442.441 1 133276956.758 1      3365.395          39.000  
> 2021  6  9  0 38 58.9990000  0 25                     
G 8  19737783.658 1 103722742.003 1      -316.636          48.000  
G27  20852752.433 1 109581946.310 1     -2400.189          45.000  
G 7  20593754.487 1 108220893.589 1      1736.401          45.000  
C 3  37291468.037 1 194186432.454 1        81.541          42.000  
C 1  37875681.224 1 197228577.890 1        42.947          42.000  
G16  22814139.692 1 119889103.953 1     -2586.022          41.000  
G21  21690254.239 1 113983047.278 1      2776.427          43.000  
G30  23320043.562 1 122547668.046 1      3270.844          37.000  
C 7  35730647.516 1 186058833.841 1       134.325          45.000  
C25  21754026.406 1 113278873.363 1      -998.753          49.000  
C11  21195280.992 1 110369364.693 1       149.026          45.000  
C10  36436659.200 1 189735210.488 1       320.642          43.000  
C23  22344183.801 1 116351996.964 1      1801.281          47.000  
C 9  37110402.614 1 193243562.004 1     -1601.328          40.000  
C 2  37907157.037 1 197392465.991 1        37.447          38.000  
C12  23398543.407 1 121842317.327 1     -2574.854          41.000  
C 4  38613895.279 1 201072666.348 1        61.145          38.000  
G 9  23250571.523 1 122182580.107 1     -2694.957          38.000  
C16  38948392.099 1 202814461.956 1     -1840.597          40.000  
C 5  39732685.076 2 206898483.24711        36.470          34.000  
C 6  38513353.380 1 200549127.389 1     -1745.477          38.000  
G26  24886659.536 2 130780296.965 1     -2831.187          34.000  
G 4  24378667.888 4 128110773.005 2     -3312.647          36.000  
G 1  23712646.998 1 124610848.040 1      4020.128          38.000  
C28  25593796.251 1 133273591.632 1      3364.734          39.000  
> 2021  6  9  0 38 59.9990000  0 25                     
G 8  19737844.114 1 103723058.873 1      -317.760          48.000  
G27  20853209.079 1 109584346.675 1     -2401.105          45.000  
G 7  20593424.285 1 108219157.618 1      1735.291          45.000  
C 3  37291452.113 1 194186351.035 1        80.564          42.000  
C 1  37875672.761 1 197228534.805 1        42.535          42.000  
G16  22814632.050 1 119891690.153 1     -2586.835          41.000  
G21  21689725.943 1 113980271.024 1      2775.404          43.000  
G30  23319421.025 2 122544397.099 1      3270.142          37.000  
C 7  35730621.960 1 186058699.449 1       133.781          45.000  
C25  21754217.966 1 113279872.374 1      -999.779          49.000  
C11  21195252.565 1 110369215.883 1       147.946          45.000  
C10  36436597.636 1 189734889.723 1       319.997          43.000  
C23  22343837.938 1 116350195.908 1      1800.215          47.000  
C 9  37110710.009 1 193245163.377 1     -1602.001          40.000  
C 2  37907149.952 2 197392428.634 1        36.946          37.000  
C12  23399037.850 1 121844892.291 1     -2575.580          41.000  
C 4  38613883.709 1 201072605.548 1        60.120          38.000  
G 9  23251084.489 1 122185275.210 1     -2695.836          38.000  
C16  38948745.710 1 202816302.356 1     -1841.052          40.000  
C 5  39732678.122 2 206898449.77831        36.447          35.000  
C 6  38513688.765 1 200550872.970 1     -1746.173          38.000  
G26  24887198.477 2 130783127.988 1     -2831.422          34.000  
G 4  24379298.216 4 128114085.615 2     -3313.236          36.000  
G 1  23711882.242 1 124606827.975 1      4019.551          38.000  
C28  25593150.287 1 133270227.110 1      3363.672          39.000  
> 2021  6  9  0 39  0.9990000  0 25                     
G 8  19737904.649 1 103723377.210 1      -318.820          48.000  
G27  20853665.978 1 109586748.341 1     -2402.168          45.000  
G 7  20593094.092 1 108217423.099 1      1733.978          45.000  
C 3  37291436.949 1 194186270.543 1        80.164          42.000  
C 1  37875664.673 1 197228492.668 1        41.812          42.000  
G16  22815124.679 1 119894277.422 1     -2587.819          41.000  
G21  21689198.048 1 113977496.100 1      2774.553          43.000  
G30  23318798.829 1 122541127.320 1      3269.525          37.000  
C 7  35730596.491 1 186058565.974 1       133.311          45.000  
C25  21754410.259 1 113280872.729 1     -1000.781          48.000  
C11  21195224.331 1 110369068.528 1       146.874          45.000  
C10  36436536.176 1 189734569.850 1       319.451          43.000  
C23  22343492.362 1 116348396.056 1      1799.495          47.000  
C 9  37111017.708 1 193246765.797 1     -1602.883          40.000  
C 2  37907142.771 1 197392392.229 1        36.053          38.000  
C12  23399532.468 1 121847468.494 1     -2576.813          41.000  
C 4  38613872.323 1 201072545.662 1        59.631          38.000  
G 9  23251597.438 1 122187971.495 1     -2696.667          38.000  
C16  38949099.120 1 202818143.750 1     -1841.484          40.000  
C 5  39732670.933 2 206898413.80821        35.805          35.000  
C 6  38514023.896 1 200552619.522 1     -1746.503          38.000  
G26  24887737.523 2 130785960.019 1     -2832.242          33.000  
G 4  24379929.111 4 128117399.113 2     -3313.826          35.000  
G 1  23711117.373 1 124602808.848 1      4018.967          38.000  
C28  25592504.411 1 133266863.605 1      3363.192          39.000  
> 2021  6  9  0 39  1.9990000  0 26                     
G 8  19737965.053 1 103723696.740 1      -319.659          48.000  
G27  20854122.930 1 109589151.001 1     -2402.759          45.000  
G 7  20592764.073 1 108215689.727 1      1733.185          45.000  
C 3  37291421.986 1 194186190.722 1        79.939          42.000  
C 1  37875656.994 1 197228451.181 1        41.403          42.000  
G16  22815617.036 1 119896865.466 1     -2587.993          41.000  
G21  21688670.309 1 113974722.232 1      2773.607          43.000  
G30  23318176.886 1 122537858.449 1      3268.823          38.000  
C 7  35730571.075 1 186058433.164 1       132.747          45.000  
C25  21754602.229 1 113281874.147 1     -1001.634          49.000  
C11  21195196.105 1 110368922.362 1       145.881          45.000  
C10  36436475.031 1 189734250.614 1       319.376          43.000  
C23  22343146.647 1 116346597.150 1      1798.832          47.000  
C 9  37111325.513 1 193248368.975 1     -1602.939          40.000  
C 2  37907135.591 1 197392356.496 1        35.276          38.000  
C12  23400027.382 1 121850045.612 1     -2577.356          41.000  
C 4  38613860.789 1 201072486.455 1        59.174          38.000  
G 9  23252110.649 1 122190668.688 1     -2697.186          38.000  
C16  38949452.871 1 202819985.851 1     -1842.269          40.000  
C24  25671384.438 8 133677603.90633     -2885.737          28.000  
C 5  39732663.988 2 206898376.47231        35.417          35.000  
C 6  38514359.507 1 200554366.784 1     -1747.131          37.000  
G26  24888276.403 2 130788792.753 1     -2832.894          34.000  
G 4  24380560.050 4 128120713.170 2     -3313.813          35.000  
G 1  23710352.564 1 124598790.396 1      4018.715          38.000  
C28  25591858.552 1 133263500.875 1      3362.725          39.000  
> 2021  6  9  0 39  2.9990000  0 26                     
G 8  19738026.172 1 103724017.203 1      -321.265          48.000  
G27  20854580.291 1 109591554.431 1     -2404.105          45.000  
G 7  20592434.474 1 108213957.293 1      1731.696          45.000  
C 3  37291406.621 1 194186111.293 1        79.019          42.000  
C 1  37875649.229 1 197228410.112 1        40.583          42.000  
G16  22816109.752 1 119899454.039 1     -2589.297          42.000  
G21  21688142.571 1 113971949.162 1      2772.473          43.000  
G30  23317554.977 1 122534590.164 1      3267.790          37.000  
C 7  35730545.650 1 186058300.732 1       132.060          45.000  
C25  21754794.687 1 113282876.387 1     -1002.973          49.000  
C11  21195168.324 1 110368777.136 1       144.415          45.000  
C10  36436413.650 1 189733931.777 1       318.462          43.000  
C23  22342801.272 1 116344798.948 1      1797.545          47.000  
C 9  37111633.553 1 193249972.715 1     -1604.314          40.000  
C 2  37907128.672 1 197392321.141 1        34.740          38.000  
C12  23400521.991 1 121852623.400 1     -2578.363          41.000  
C 4  38613849.394 1 201072427.675 1        58.112          38.000  
G 9  23252623.886 1 122193366.526 1     -2698.373          38.000  
C16  38949806.840 1 202821828.383 1     -1843.046          40.000  
C24  25671935.647 4 133680490.26623     -2886.723          28.000  
C 5  39732657.182 2 206898341.56721        34.254          35.000  
C 6  38514695.215 2 200556114.486 1     -1748.260          37.000  
G26  24888815.475 2 130791625.956 1     -2834.176          34.000  
G 4  24381190.648 4 128124027.628 2     -3314.945          35.000  
G 1  23709587.861 1 124594772.383 1      4017.560          38.000  
C28  25591212.711 1 133260138.640 1      3361.847          39.000  
> 2021  6  9  0 39  3.9990000  0 26                     
G 8  19738087.222 1 103724339.202 1      -322.537          48.000  
G27  20855037.853 1 109593959.222 1     -2405.240          45.000  
G 7  20592105.249 1 108212226.360 1      1730.530          45.000  
C 3  37291391.675 1 194186032.896 1        78.179          42.000  
C 1  37875641.342 1 197228370.064 1        39.760          42.000  
G16  22816602.538 1 119902043.732 1     -2590.045          42.000  
G21  21687614.920 1 113969177.512 1      2771.132          43.000  
G30  23316933.252 1 122531323.145 1      3266.414          37.000  
C 7  35730520.696 1 186058169.296 1       131.218          45.000  
C25  21754987.425 1 113283880.029 1     -1004.076          48.000  
C11  21195140.509 1 110368633.442 1       143.197          45.000  
C10  36436352.705 1 189733613.942 1       317.764          43.000  
C23  22342456.055 1 116343002.033 1      1796.494          47.000  
C 9  37111941.628 1 193251577.543 1     -1604.775          40.000  
C 2  37907122.267 1 197392286.779 1        34.324          38.000  
C12  23401017.359 1 121855202.454 1     -2579.297          41.000  
C 4  38613838.505 1 201072369.879 1        57.776          38.000  
G 9  23253137.629 1 122196065.645 1     -2699.238          38.000  
C16  38950160.626 1 202823671.962 1     -1843.728          40.000  
C24  25672492.833 4 133683377.75323     -2887.373          28.000  
C 5  39732650.699 2 206898306.67431        33.259          34.000  
C 6  38515031.035 1 200557863.210 1     -1748.871          37.000  
G26  24889355.053 2 130794460.246 1     -2835.362          34.000  
G 4  24381821.692 2 128127343.014 1     -3315.181          35.000  
G 1  23708823.384 1 124590755.374 1      4017.114          38.000  
C28  25590567.341 1 133256777.528 1      3361.116          39.000  
> 2021  6  9  0 39  4.9990000  0 26                     
G 8  19738148.725 1 103724662.016 1      -322.976          48.000  
G27  20855495.572 1 109596364.652 1     -2405.478          45.000  
G 7  20591776.024 1 108210496.244 1      1730.072          45.000  
C 3  37291376.467 1 194185954.805 1        78.048          42.000  
C 1  37875633.725 1 197228330.316 1        39.682          42.000  
G16  22817095.471 1 119904633.853 1     -2590.120          42.000  
G21  21687087.514 1 113966406.535 1      2770.799          43.000  
G30  23316311.571 1 122528056.606 1      3266.528          37.000  
C 7  35730495.393 1 186058038.148 1       131.302          45.000  
C25  21755180.223 1 113284884.375 1     -1004.373          48.000  
C11  21195113.077 1 110368490.575 1       142.678          45.000  
C10  36436291.961 1 189733296.384 1       317.710          43.000  
C23  22342111.273 1 116341205.698 1      1796.061          47.000  
C 9  37112249.947 1 193253182.819 1     -1605.034          40.000  
C 2  37907115.985 1 197392252.767 1        33.981          38.000  
C12  23401512.692 1 121857782.106 1     -2579.797          41.000  
C 4  38613827.380 1 201072312.403 1        57.831          38.000  
G 9  23253651.495 1 122198765.306 1     -2699.645          38.000  
C16  38950514.734 1 202825515.889 1     -1843.894          40.000  
C24  25673045.368 4 133686265.76323     -2888.020          28.000  
C 5  39732644.391 2 206898273.07421        33.565          35.000  
C 6  38515367.162 2 200559612.283 1     -1748.706          37.000  
G26  24889894.614 2 130797294.828 1     -2834.847          34.000  
G 4  24382452.848 4 128130658.702 2     -3316.015          35.000  
G 1  23708059.196 1 124586738.701 1      4016.960          38.000  
C28  25589922.084 1 133253416.859 1      3360.274          40.000  
> 2021  6  9  0 39  5.9990000  0 26                     
G 8  19738210.289 1 103724985.324 1      -323.757          48.000  
G27  20855953.379 1 109598770.406 1     -2406.051          45.000  
G 7  20591447.044 1 108208766.593 1      1729.315          45.000  
C 3  37291361.861 1 194185876.672 1        78.157          42.000  
C 1  37875626.369 1 197228290.513 1        39.598          42.000  
G16  22817588.222 1 119907224.051 1     -2590.359          41.000  
G21  21686560.081 1 113963635.917 1      2770.347          43.000  
G30  23315689.828 1 122524790.245 1      3266.245          38.000  
C 7  35730470.073 1 186057906.941 1       131.130          45.000  
C25  21755373.057 1 113285889.094 1     -1004.921          48.000  
C11  21195085.479 1 110368348.202 1       141.982          45.000  
C10  36436230.597 1 189732978.755 1       317.553          43.000  
C23  22341766.405 1 116339409.595 1      1795.826          47.000  
C 9  37112558.196 1 193254788.151 1     -1605.154          40.000  
C 2  37907109.729 2 197392218.685 1        34.303          38.000  
C12  23402008.209 1 121860361.976 1     -2580.084          41.000  
C 4  38613816.317 1 201072254.900 1        57.532          38.000  
G 9  23254165.508 1 122201465.184 1     -2700.025          38.000  
C16  38950868.633 1 202827359.822 1     -1844.050          39.000  
C24  25673600.860 4 133689153.87723     -2888.232          29.000  
C 5  39732637.664 4 206898239.44722        33.684          34.000  
C 6  38515703.261 1 200561361.381 1     -1749.042          38.000  
G26  24890434.166 2 130800129.464 1     -2834.989          34.000  
G 4  24383083.726 4 128133974.206 2     -3315.237          35.000  
G 1  23707294.667 1 124582721.995 1      4016.698          38.000  
C28  25589276.784 1 133250056.200 1      3360.368          40.000  
> 2021  6  9  0 39  6.9990000  0 26                     
G 8  19738271.705 1 103725309.486 1      -324.947          48.000  
G27  20856411.011 1 109601176.841 1     -2407.140          45.000  
G 7  20591118.029 1 108207037.804 1      1728.058          45.000  
C 3  37291346.496 1 194185798.880 1        77.360          42.000  
C 1  37875618.717 1 197228251.080 1        39.064          42.000  
G16  22818081.208 1 119909814.702 1     -2590.931          41.000  
G21  21686032.936 1 113960866.046 1      2769.096          43.000  
G30  23315068.749 1 122521524.453 1      3265.292          38.000  
C 7  35730445.006 1 186057776.059 1       130.565          45.000  
C25  21755566.336 1 113286894.571 1     -1006.042          48.000  
C11  21195058.222 1 110368206.709 1       140.703          45.000  
C10  36436169.556 1 189732661.454 1       316.864          43.000  
C23  22341421.562 1 116337614.135 1      1794.907          47.000  
C 9  37112866.829 1 193256393.943 1     -1606.183          40.000  
C 2  37907103.281 2 197392184.995 1        33.041          38.000  
C12  23402503.830 1 121862942.456 1     -2581.073          41.000  
C 4  38613805.620 1 201072197.737 1        56.653          38.000  
G 9  23254679.409 1 122204165.643 1     -2701.122          38.000  
C16  38951222.821 1 202829204.134 1     -1844.789          40.000  
C24  25674155.149 2 133692042.42822     -2889.131          29.000  
C 5  39732631.347 4 206898206.14132        32.936          35.000  
C 6  38516039.108 1 200563110.827 1     -1749.616          38.000  
G26  24890973.395 4 130802964.472 2     -2835.592          33.000  
G 4  24383714.761 4 128137290.045 2     -3315.662          35.000  
G 1  23706530.208 1 124578705.635 1      4016.300          38.000  
C28  25588631.798 1 133246696.030 1      3359.685          40.000  
> 2021  6  9  0 39  7.9990000  0 26                     
G 8  19738333.287 1 103725634.864 1      -326.291          48.000  
G27  20856869.114 1 109603584.318 1     -2408.313          45.000  
G 7  20590789.485 1 108205310.188 1      1726.617          45.000  
C 3  37291331.506 1 194185721.781 1        76.471          42.000  
C 1  37875611.318 1 197228212.336 1        38.132          42.000  
G16  22818574.211 1 119912406.181 1     -2592.171          42.000  
G21  21685506.070 1 113958097.251 1      2767.873          43.000  
G30  23314447.661 1 122518259.571 1      3264.122          38.000  
C 7  35730420.218 1 186057645.843 1       129.428          45.000  
C25  21755759.449 1 113287901.136 1     -1007.413          48.000  
C11  21195031.462 1 110368066.437 1       139.255          45.000  
C10  36436108.751 1 189732344.814 1       315.910          43.000  
C23  22341077.165 1 116335819.650 1      1793.757          47.000  
C 9  37113175.201 1 193258000.537 1     -1607.359          41.000  
C 2  37907096.860 2 197392151.953 1        32.057          38.000  
C12  23402999.643 1 121865523.899 1     -2582.129          41.000  
C 4  38613794.678 1 201072141.281 1        55.609          38.000  
G 9  23255193.640 1 122206867.033 1     -2702.267          38.000  
C16  38951576.781 1 202831049.175 1     -1845.798          39.000  
C24  25674708.565 4 133694931.86423     -2889.955          29.000  
C 5  39732625.170 2 206898173.53521        32.074          35.000  
C 6  38516375.479 1 200564861.025 1     -1751.215          38.000  
G26  24891512.913 2 130805800.253 1     -2836.666          33.000  
G 4  24384345.342 4 128140606.575 2     -3317.292          34.000  
G 1  23705766.167 2 124574689.970 1      4015.043          38.000  
C28  25587986.724 1 133243336.627 1      3358.754          39.000  
> 2021  6  9  0 39  8.9990000  0 26                     
G 8  19738395.925 1 103725962.500 1      -328.522          48.000  
G27  20857327.697 1 109605993.857 1     -2410.350          45.000  
G 7  20590461.089 1 108203584.790 1      1724.817          45.000  
C 3  37291317.433 1 194185646.393 1        74.802          42.000  
C 1  37875604.050 1 197228175.308 1        36.455          42.000  
G16  22819067.599 1 119914999.468 1     -2594.069          41.000  
G21  21684979.710 1 113955330.568 1      2765.861          43.000  
G30  23313826.922 1 122514996.614 1      3262.041          38.000  
C 7  35730395.561 1 186057517.306 1       128.040          45.000  
C25  21755953.242 1 113288909.806 1     -1009.456          48.000  
C11  21195004.990 1 110367928.372 1       137.155          45.000  
C10  36436048.347 1 189732029.871 1       314.340          43.000  
C23  22340732.793 1 116334027.138 1      1791.788          47.000  
C 9  37113484.087 1 193259608.959 1     -1609.108          40.000  
C 2  37907090.787 2 197392120.622 1        30.795          38.000  
C12  23403495.726 1 121868107.316 1     -2583.984          41.000  
C 4  38613783.955 1 201072086.512 1        54.053          38.000  
G 9  23255708.064 1 122209570.386 1     -2703.973          38.000  
C16  38951931.500 1 202832895.961 1     -1847.361          39.000  
C24  25675261.537 4 133697823.11123     -2892.078          28.000  
C 5  39732619.542 2 206898142.64322        30.618          35.000  
C 6  38516711.858 1 200566612.926 1     -1752.533          38.000  
G26  24892052.752 2 130808637.796 2     -2838.570          33.000  
G 4  24384976.516 4 128143924.714 2     -3318.712          35.000  
G 1  23705002.232 1 124570676.047 1      4013.432          38.000  
C28  25587342.366 1 133239979.051 1      3356.670          40.000  
> 2021  6  9  0 39  9.9990000  0 26                     
G 8  19738458.641 1 103726291.403 1      -329.179          48.000  
G27  20857786.533 1 109608404.484 1     -2410.880          45.000  
G 7  20590132.903 1 108201860.672 1      1723.853          45.000  
C 3  37291302.827 1 194185571.735 1        74.574          42.000  
C 1  37875596.800 1 197228139.005 1        36.330          42.000  
G16  22819561.327 1 119917593.628 1     -2594.197          41.000  
G21  21684453.735 1 113952565.028 1      2765.289          44.000  
G30  23313206.514 1 122511734.592 1      3262.134          38.000  
C 7  35730371.008 1 186057389.503 1       127.794          45.000  
C25  21756147.175 1 113289919.624 1     -1010.055          48.000  
C11  21194978.632 1 110367791.584 1       136.506          45.000  
C10  36435987.917 1 189731715.631 1       314.407          43.000  
C23  22340388.736 1 116332235.649 1      1791.438          47.000  
C 9  37113793.122 1 193261218.220 1     -1609.387          41.000  
C 2  37907084.837 1 197392090.024 1        30.927          38.000  
C12  23403992.107 1 121870691.742 1     -2584.698          41.000  
C 4  38613773.503 1 201072032.500 1        53.973          38.000  
G 9  23256222.453 1 122212274.738 1     -2704.290          38.000  
C16  38952286.106 1 202834743.526 1     -1847.567          39.000  
C24  25675811.227 2 133700715.260 2     -2892.001          28.000  
C 5  39732613.626 4 206898112.45022        30.781          35.000  
C 6  38517048.307 1 200568365.632 1     -1752.631          37.000  
G26  24892592.968 2 130811476.103 1     -2838.199          34.000  
G 4  24385607.726 4 128147243.508 2     -3318.861          34.000  
G 1  23704238.497 1 124566662.876 1      4013.000          39.000  
C28  25586697.589 1 133236622.295 1      3356.699          40.000  
> 2021  6  9  0 39 10.9990000  0 26                     
G 8  19738521.357 1 103726620.659 1      -329.048          48.000  
G27  20858245.037 1 109610815.303 1     -2410.699          45.000  
G 7  20589804.665 1 108200136.863 1      1724.182          45.000  
C 3  37291288.596 1 194185496.913 1        75.313          42.000  
C 1  37875589.855 1 197228102.564 1        36.665          42.000  
G16  22820055.037 1 119920187.738 1     -2593.945          41.000  
G21  21683927.872 1 113949799.724 1      2765.506          43.000  
G30  23312585.967 1 122508472.639 1      3262.162          38.000  
C 7  35730346.325 1 186057261.506 1       128.424          45.000  
C25  21756341.056 1 113290929.676 1     -1009.858          48.000  
C11  21194952.631 1 110367655.167 1       136.490          45.000  
C10  36435927.469 1 189731401.227 1       314.878          43.000  
C23  22340044.705 1 116330444.280 1      1791.660          47.000  
C 9  37114102.174 1 193262827.437 1     -1608.867          41.000  
C 2  37907078.877 1 197392059.264 1        31.324          38.000  
C12  23404488.548 1 121873276.261 1     -2584.204          41.000  
C 4  38613763.216 1 201071978.331 1        54.462          38.000  
G 9  23256737.034 1 122214979.173 1     -2703.910          37.000  
C16  38952640.878 1 202836590.949 1     -1846.941          39.000  
C24  25676362.671 2 133703607.404 2     -2891.889          27.000  
C 5  39732607.781 4 206898082.14522        31.307          34.000  
C 6  38517385.279 1 200570118.182 1     -1752.368          38.000  
G26  24893133.061 2 130814314.344 1     -2838.261          34.000  
G 4  24386238.987 4 128150562.114 2     -3318.137          34.000  
G 1  23703474.753 1 124562649.548 1      4013.449          38.000  
C28  25586052.769 1 133233265.482 1      3357.346          39.000  
> 2021  6  9  0 39 11.9990000  0 26                     
G 8  19738584.082 1 103726949.954 1      -329.306          48.000  
G27  20858704.022 1 109613225.976 1     -2410.680          45.000  
G 7  20589476.426 1 108198413.093 1      1723.755          45.000  
C 3  37291274.025 1 194185421.620 1        75.443          42.000  
C 1  37875582.927 1 197228065.639 1        37.358          42.000  
G16  22820548.765 1 119922781.473 1     -2593.401          41.000  
G21  21683402.028 1 113947034.320 1      2765.408          43.000  
G30  23311965.132 1 122505210.418 1      3262.422          38.000  
C 7  35730321.633 1 186057133.011 1       128.770          45.000  
C25  21756535.006 1 113291939.668 1     -1009.974          48.000  
C11  21194926.395 1 110367518.789 1       136.344          45.000  
C10  36435866.847 1 189731086.323 1       315.112          43.000  
C23  22339700.918 1 116328652.723 1      1791.827          47.000  
C 9  37114411.052 1 193264436.296 1     -1608.931          41.000  
C 2  37907072.918 1 197392028.053 1        31.383          38.000  
C12  23404984.579 1 121875860.586 1     -2584.302          42.000  
C 4  38613752.711 1 201071923.684 1        54.724          38.000  
G 9  23257251.614 1 122217683.351 1     -2703.861          37.000  
C16  38952995.771 1 202838437.955 1     -1846.380          39.000  
C24  25676913.906 4 133706499.248 3     -2892.239          27.000  
C 5  39732601.603 4 206898051.37232        30.850          34.000  
C 6  38517721.754 1 200571870.301 1     -1751.886          38.000  
G26  24893673.319 2 130817152.120 1     -2837.677          33.000  
G 4  24386870.275 4 128153880.182 2     -3318.155          35.000  
G 1  23702710.582 1 124558635.739 1      4014.282          38.000  
C28  25585408.001 1 133229908.306 1      3357.625          39.000  
> 2021  6  9  0 39 12.9990000  0 25                     
G 8  19738646.737 1 103727279.406 1      -329.353          48.000  
G27  20859162.683 1 109615636.640 1     -2410.643          45.000  
G 7  20589148.467 1 108196689.452 1      1723.621          45.000  
C 3  37291259.053 1 194185345.972 1        76.011          42.000  
C 1  37875575.842 1 197228028.371 1        37.357          42.000  
G16  22821042.178 1 119925374.973 1     -2593.148          42.000  
G21  21682875.860 1 113944268.938 1      2765.400          44.000  
G30  23311343.956 1 122501948.046 1      3262.412          38.000  
C 7  35730296.923 1 186057004.156 1       129.243          45.000  
C25  21756729.087 1 113292949.705 1     -1010.025          48.000  
C11  21194900.158 1 110367382.599 1       136.187          45.000  
C10  36435806.548 1 189730771.034 1       315.562          43.000  
C23  22339356.643 1 116326861.098 1      1791.769          47.000  
C 9  37114719.929 1 193266044.920 1     -1608.439          41.000  
C 2  37907066.793 1 197391996.467 1        31.680          38.000  
C12  23405480.898 1 121878444.819 1     -2584.216          41.000  
C 4  38613742.083 1 201071868.679 1        55.145          38.000  
G 9  23257766.352 1 122220387.436 1     -2703.789          38.000  
C16  38953350.020 1 202840284.661 1     -1846.667          39.000  
C 5  39732595.539 4 206898020.21022        31.297          35.000  
C 6  38518058.439 1 200573622.087 1     -1751.203          38.000  
G26  24894213.072 2 130819989.600 1     -2837.216          34.000  
G 4  24387502.034 4 128157197.804 2     -3317.506          35.000  
G 1  23701946.681 1 124554621.588 1      4014.511          39.000  
C28  25584763.512 1 133226550.887 1      3358.101          40.000  
> 2021  6  9  0 39 13.9990000  0 25                     
G 8  19738709.060 1 103727608.914 1      -330.062          48.000  
G27  20859621.676 1 109618047.149 1     -2411.010          45.000  
G 7  20588820.385 1 108194965.860 1      1723.035          45.000  
C 3  37291244.997 1 194185269.886 1        75.720          42.000  
C 1  37875568.627 1 197227990.634 1        37.499          42.000  
G16  22821535.644 1 119927968.133 1     -2593.609          41.000  
G21  21682349.430 1 113941503.505 1      2764.852          44.000  
G30  23310722.903 1 122498685.414 1      3262.428          38.000  
C 7  35730271.943 1 186056874.849 1       129.037          45.000  
C25  21756922.889 1 113293959.701 1     -1010.536          48.000  
C11  21194874.175 1 110367246.477 1       135.684          45.000  
C10  36435745.978 1 189730455.286 1       315.547          43.000  
C23  22339012.385 1 116325069.301 1      1791.318          47.000  
C 9  37115028.781 1 193267653.217 1     -1608.531          41.000  
C 2  37907060.642 1 197391964.398 1        32.014          38.000  
C12  23405977.121 1 121881028.862 1     -2584.485          41.000  
C 4  38613731.491 1 201071813.239 1        55.249          38.000  
G 9  23258280.662 1 122223091.317 1     -2704.247          38.000  
C16  38953704.617 1 202842130.934 1     -1846.589          39.000  
C 5  39732589.379 2 206897988.60021        31.606          35.000  
C 6  38518394.888 1 200575373.500 1     -1751.715          38.000  
G26  24894752.868 2 130822826.679 1     -2836.946          33.000  
G 4  24388133.505 4 128160514.924 2     -3316.793          35.000  
G 1  23701182.527 2 124550607.007 1      4013.836          39.000  
C28  25584118.831 1 133223193.150 1      3357.267          40.000  
> 2021  6  9  0 39 14.9990000  0 25                     
G 8  19738772.020 1 103727939.047 1      -330.377          48.000  
G27  20860080.748 1 109620458.151 1     -2411.076          45.000  
G 7  20588492.731 1 108193242.883 1      1723.059          45.000  
C 3  37291230.251 1 194185193.894 1        76.064          42.000  
C 1  37875561.263 1 197227953.032 1        37.560          42.000  
G16  22822029.075 1 119930561.500 1     -2593.265          41.000  
G21  21681822.826 1 113938738.546 1      2764.997          43.000  
G30  23310101.684 1 122495423.140 1      3262.499          39.000  
C 7  35730247.426 1 186056745.619 1       129.293          45.000  
C25  21757116.901 1 113294970.204 1     -1010.653          48.000  
C11  21194848.139 1 110367111.001 1       135.259          45.000  
C10  36435685.330 1 189730139.633 1       315.820          43.000  
C23  22338668.694 1 116323277.907 1      1791.378          47.000  
C 9  37115337.684 1 193269261.715 1     -1608.280          41.000  
C 2  37907054.517 1 197391932.503 1        31.917          38.000  
C12  23406473.257 1 121883613.289 1     -2584.442          41.000  
C 4  38613721.108 1 201071757.883 1        55.511          38.000  
G 9  23258794.842 1 122225795.537 1     -2703.893          38.000  
C16  38954059.310 1 202843977.362 1     -1846.430          39.000  
C 5  39732583.315 2 206897957.10721        31.946          35.000  
C 6  38518730.909 1 200577125.019 1     -1751.245          37.000  
G26  24895292.830 2 130825663.923 1     -2837.228          34.000  
G 4  24388765.168 4 128163832.103 2     -3317.202          35.000  
G 1  23700418.539 1 124546592.515 1      4014.542          39.000  
C28  25583474.168 1 133219835.591 1      3357.651          40.000  
> 2021  6  9  0 39 15.9990000  0 25                     
G 8  19738835.129 1 103728269.734 1      -331.494          48.000  
G27  20860539.575 1 109622869.540 1     -2412.236          45.000  
G 7  20588165.086 1 108191520.429 1      1721.906          45.000  
C 3  37291215.776 1 194185117.934 1        75.492          42.000  
C 1  37875554.134 1 197227915.453 1        36.946          42.000  
G16  22822522.463 1 119933155.029 1     -2594.135          41.000  
G21  21681296.877 1 113935974.029 1      2763.676          44.000  
G30  23309480.683 1 122492161.095 1      3261.298          39.000  
C 7  35730222.760 1 186056616.401 1       128.595          45.000  
C25  21757310.974 1 113295981.145 1     -1011.655          48.000  
C11  21194822.129 1 110366976.079 1       134.003          45.000  
C10  36435624.551 1 189729823.987 1       315.152          43.000  
C23  22338324.646 1 116321486.808 1      1790.521          47.000  
C 9  37115646.771 1 193270870.383 1     -1609.250          41.000  
C 2  37907048.331 1 197391900.596 1        31.310          38.000  
C12  23406969.646 1 121886198.015 1     -2585.486          41.000  
C 4  38613710.560 1 201071702.590 1        54.590          38.000  
G 9  23259309.344 1 122228500.024 1     -2705.241          38.000  
C16  38954413.916 1 202845823.846 1     -1847.136          40.000  
C 5  39732577.295 2 206897925.66121        31.142          35.000  
C 6  38519067.332 1 200578876.598 1     -1751.880          37.000  
G26  24895832.600 2 130828501.256 1     -2838.226          34.000  
G 4  24389396.709 2 128167149.225 1     -3317.495          35.000  
G 1  23699654.455 1 124542578.067 1      4013.775          39.000  
C28  25582829.548 1 133216478.172 1      3357.016          40.000  
> 2021  6  9  0 39 16.9990000  0 25                     
G 8  19738898.055 1 103728601.500 1      -332.203          48.000  
G27  20860998.533 1 109625281.832 1     -2412.869          45.000  
G 7  20587837.458 1 108189799.050 1      1721.014          45.000  
C 3  37291201.284 1 194185042.535 1        75.140          42.000  
C 1  37875547.067 1 197227878.435 1        36.568          42.000  
G16  22823016.182 1 119935749.218 1     -2594.632          41.000  
G21  21680771.154 1 113933210.449 1      2763.182          44.000  
G30  23308859.857 1 122488899.808 1      3261.041          39.000  
C 7  35730197.902 1 186056487.721 1       128.438          45.000  
C25  21757505.448 1 113296993.042 1     -1012.322          49.000  
C11  21194796.696 1 110366842.232 1       133.210          45.000  
C10  36435564.060 1 189729508.865 1       315.092          43.000  
C23  22337980.632 1 116319696.553 1      1790.031          47.000  
C 9  37115955.640 1 193272479.673 1     -1609.477          41.000  
C 2  37907042.642 1 197391869.223 1        31.467          38.000  
C12  23407465.991 1 121888783.544 1     -2586.023          41.000  
C 4  38613700.072 1 201071647.856 1        54.535          38.000  
G 9  23259824.186 1 122231205.304 1     -2705.579          38.000  
C16  38954768.635 1 202847670.933 1     -1847.216          40.000  
C 5  39732571.301 2 206897894.71621        31.348          34.000  
C 6  38519403.728 2 200580628.799 1     -1752.380          37.000  
G26  24896372.946 2 130831339.168 1     -2838.143          34.000  
G 4  24390028.110 4 128170466.855 2     -3317.247          36.000  
G 1  23698890.590 1 124538564.186 1      4013.642          39.000  
C28  25582184.771 1 133213121.405 1      3356.695          40.000  
> 2021  6  9  0 39 17.9990000  0 25                     
G 8  19738961.146 1 103728933.959 1      -333.216          48.000  
G27  20861457.561 1 109627694.628 1     -2413.496          45.000  
G 7  20587510.022 1 108188078.339 1      1719.977          45.000  
C 3  37291186.512 1 194184967.304 1        74.531          42.000  
C 1  37875539.999 1 197227841.571 1        36.414          42.000  
G16  22823509.587 1 119938343.700 1     -2595.262          41.000  
G21  21680245.641 1 113930447.430 1      2762.264          44.000  
G30  23308239.283 1 122485638.880 1      3260.624          39.000  
C 7  35730173.105 1 186056359.196 1       128.044          45.000  
C25  21757699.904 1 113298005.520 1     -1013.298          49.000  
C11  21194771.149 1 110366709.070 1       132.402          45.000  
C10  36435503.743 1 189729193.911 1       314.396          43.000  
C23  22337636.811 1 116317906.747 1      1789.212          47.000  
C 9  37116264.814 1 193274089.286 1     -1610.259          41.000  
C 2  37907036.709 1 197391838.050 1        30.736          38.000  
C12  23407962.546 1 121891369.506 1     -2586.475          41.000  
C 4  38613689.811 1 201071593.292 1        54.150          38.000  
G 9  23260339.160 1 122233910.990 1     -2706.167          38.000  
C16  38955123.424 1 202849518.228 1     -1847.846          40.000  
C 5  39732565.211 4 206897861.97132        30.872          34.000  
C 6  38519740.291 2 200582381.176 1     -1752.612          37.000  
G26  24896913.336 2 130834177.295 1     -2838.363          35.000  
G 4  24390659.642 2 128173784.594 1     -3318.048          36.000  
G 1  23698126.863 1 124534550.501 1      4012.786          39.000  
C28  25581540.448 1 133209764.928 1      3355.958          40.000  
> 2021  6  9  0 39 18.9990000  0 25                     
G 8  19739024.595 1 103729267.787 1      -334.437          48.000  
G27  20861916.842 1 109630108.600 1     -2414.375          45.000  
G 7  20587182.822 1 108186358.992 1      1718.854          45.000  
C 3  37291172.369 1 194184892.898 1        73.975          42.000  
C 1  37875533.002 1 197227805.554 1        35.878          42.000  
G16  22824003.253 1 119940939.119 1     -2595.906          41.000  
G21  21679720.354 1 113927685.640 1      2761.352          44.000  
G30  23307619.233 1 122482379.056 1      3259.094          39.000  
C 7  35730148.876 1 186056231.469 1       127.652          45.000  
C25  21757894.500 1 113299019.216 1     -1014.105          49.000  
C11  21194745.820 1 110366577.287 1       131.155          45.000  
C10  36435443.260 1 189728879.752 1       313.857          43.000  
C23  22337293.460 1 116316118.070 1      1788.149          47.000  
C 9  37116573.997 1 193275699.824 1     -1610.832          41.000  
C 2  37907030.924 1 197391807.683 1        30.462          38.000  
C12  23408459.659 1 121893956.583 1     -2587.567          41.000  
C 4  38613679.411 1 201071539.557 1        53.528          38.000  
G 9  23260854.474 1 122236617.787 1     -2707.022          38.000  
C16  38955478.300 1 202851366.395 1     -1848.662          40.000  
C 5  39732559.566 4 206897832.07322        29.327          34.000  
C 6  38520077.132 2 200584134.439 1     -1753.778          37.000  
G26  24897453.743 2 130837016.341 1     -2839.043          35.000  
G 4  24391291.567 2 128177103.122 1     -3318.632          36.000  
G 1  23697363.242 1 124530537.640 1      4012.601          39.000  
C28  25580895.924 1 133206409.372 1      3355.234          40.000  
> 2021  6  9  0 39 19.9990000  0 25                     
G 8  19739088.541 1 103729602.672 1      -335.818          48.000  
G27  20862376.385 1 109632523.457 1     -2415.621          45.000  
G 7  20586855.700 1 108184640.675 1      1717.261          45.000  
C 3  37291158.016 1 194184819.037 1        73.361          42.000  
C 1  37875526.118 1 197227770.098 1        34.750          42.000  
G16  22824497.348 1 119943535.192 1     -2596.674          41.000  
G21  21679195.147 1 113924924.795 1      2759.931          44.000  
G30  23306999.437 1 122479119.956 1      3258.323          39.000  
C 7  35730124.297 1 186056104.297 1       126.623          45.000  
C25  21758089.288 1 113300033.872 1     -1015.406          48.000  
C11  21194720.726 1 110366446.556 1       129.836          45.000  
C10  36435383.101 1 189728566.122 1       313.062          43.000  
C23  22336950.066 1 116314330.201 1      1787.042          47.000  
C 9  37116883.538 1 193277311.045 1     -1611.701          40.000  
C 2  37907025.166 1 197391777.907 1        28.624          38.000  
C12  23408956.362 1 121896544.475 1     -2588.812          41.000  
C 4  38613669.002 2 201071486.389 1        52.423          38.000  
G 9  23261369.831 1 122239325.357 1     -2708.582          38.000  
C16  38955833.526 1 202853215.112 1     -1849.371          40.000  
C 5  39732553.676 4 206897801.73332        28.125          34.000  
C 6  38520413.677 1 200585888.268 1     -1754.578          37.000  
G26  24897993.984 2 130839855.936 1     -2840.071          35.000  
G 4  24391923.570 2 128180422.122 1     -3319.407          37.000  
G 1  23696599.620 1 124526525.348 1      4011.358          39.000  
C28  25580251.863 1 133203054.468 1      3354.697          40.000  
> 2021  6  9  0 39 20.9990000  0 26                     
G 8  19739152.714 1 103729939.446 1      -337.394          48.000  
G27  20862836.347 1 109634940.031 1     -2416.954          45.000  
G 7  20586529.233 1 108182924.185 1      1715.680          45.000  
C 3  37291144.082 1 194184746.531 1        72.131          42.000  
C 1  37875519.434 1 197227735.978 1        33.727          42.000  
G16  22824991.546 1 119946132.732 1     -2597.685          41.000  
G21  21678669.974 1 113922165.700 1      2758.655          44.000  
G30  23306379.919 1 122475862.444 1      3256.852          39.000  
C 7  35730100.137 1 186055978.451 1       125.597          45.000  
C25  21758284.591 1 113301050.288 1     -1016.918          48.000  
C11  21194695.834 1 110366317.703 1       128.253          45.000  
C10  36435323.151 1 189728253.838 1       311.749          43.000  
C23  22336607.274 1 116312543.976 1      1785.729          47.000  
C 9  37117193.332 1 193278923.732 1     -1613.171          40.000  
C 2  37907019.477 1 197391749.446 1        27.677          38.000  
C12  23409453.807 1 121899133.974 1     -2589.868          41.000  
C 4  38613658.977 2 201071434.537 1        51.495          38.000  
G 9  23261885.546 1 122242034.514 1     -2709.522          38.000  
C16  38956188.873 1 202855065.254 1     -1850.682          40.000  
C24  25681918.725 4 133732458.66113     -2896.405          27.000  
C 5  39732548.450 4 206897773.73122        26.840          34.000  
C 6  38520750.632 1 200587643.465 1     -1755.658          37.000  
G26  24898534.706 2 130842696.963 1     -2841.341          34.000  
G 4  24392555.504 2 128183742.442 1     -3320.405          37.000  
G 1  23695836.496 1 124522514.416 1      4010.478          39.000  
C28  25579607.819 1 133199701.026 1      3353.048          40.000  
> 2021  6  9  0 39 21.9990000  0 26                     
G 8  19739216.888 1 103730277.395 1      -338.922          48.000  
G27  20863296.457 1 109637357.630 1     -2418.375          45.000  
G 7  20586202.940 1 108181208.910 1      1714.429          45.000  
C 3  37291130.541 1 194184674.708 1        71.034          42.000  
C 1  37875513.135 1 197227702.519 1        32.850          42.000  
G16  22825486.007 1 119948731.093 1     -2599.054          41.000  
G21  21678145.054 1 113919407.676 1      2757.226          44.000  
G30  23305760.558 1 122472605.817 1      3255.734          39.000  
C 7  35730076.038 1 186055853.259 1       124.548          45.000  
C25  21758479.929 1 113302067.771 1     -1018.263          49.000  
C11  21194671.220 1 110366190.055 1       126.716          45.000  
C10  36435263.279 1 189727942.192 1       310.911          43.000  
C23  22336264.447 1 116310758.702 1      1784.447          47.000  
C 9  37117503.125 1 193280537.202 1     -1614.098          40.000  
C 2  37907014.285 1 197391721.649 1        27.285          38.000  
C12  23409951.304 1 121901724.410 1     -2591.229          41.000  
C 4  38613649.344 1 201071383.377 1        50.385          38.000  
G 9  23262401.496 1 122244744.611 1     -2710.713          38.000  
C16  38956544.195 1 202856916.080 1     -1851.148          40.000  
C24  25682476.390 4 133735355.371 3     -2897.029          27.000  
C 5  39732543.075 2 206897746.33321        26.445          34.000  
C 6  38521087.910 1 200589399.395 1     -1756.549          37.000  
G26  24899075.305 2 130845538.746 1     -2841.887          35.000  
G 4  24393187.376 2 128187063.364 1     -3321.396          37.000  
G 1  23695073.389 1 124518504.166 1      4009.606          39.000  
C28  25578964.133 1 133196348.360 1      3352.054          40.000  
> 2021  6  9  0 39 22.9990000  0 26                     
G 8  19739281.541 1 103730616.669 1      -339.530          48.000  
G27  20863756.689 1 109639776.363 1     -2418.764          45.000  
G 7  20585876.586 1 108179494.950 1      1713.794          45.000  
C 3  37291116.432 1 194184603.661 1        71.017          42.000  
C 1  37875507.167 1 197227669.878 1        32.823          42.000  
G16  22825980.686 1 119951330.343 1     -2599.117          41.000  
G21  21677620.421 1 113916650.860 1      2756.529          44.000  
G30  23305141.739 1 122469350.202 1      3255.424          39.000  
C 7  35730052.132 1 186055728.820 1       124.474          45.000  
C25  21758675.668 1 113303086.459 1     -1018.794          48.000  
C11  21194647.121 1 110366063.724 1       126.047          45.000  
C10  36435203.503 1 189727631.326 1       310.778          43.000  
C23  22335921.664 1 116308974.499 1      1784.077          47.000  
C 9  37117813.041 1 193282151.564 1     -1614.304          40.000  
C 2  37907009.076 1 197391694.666 1        27.191          38.000  
C12  23410449.254 1 121904315.904 1     -2591.400          41.000  
C 4  38613639.433 1 201071333.003 1        50.311          38.000  
G 9  23262917.368 1 122247455.744 1     -2711.088          38.000  
C16  38956899.542 1 202858767.775 1     -1851.979          40.000  
C24  25683030.740 4 133738253.140 3     -2897.504          27.000  
C 5  39732538.189 4 206897719.77522        26.564          34.000  
C 6  38521425.537 2 200591156.099 1     -1756.738          37.000  
G26  24899616.165 2 130848381.364 1     -2842.483          35.000  
G 4  24393819.789 2 128190385.056 1     -3321.937          37.000  
G 1  23694310.658 1 124514494.743 1      4009.517          39.000  
C28  25578320.473 1 133192996.583 1      3351.647          40.000  
> 2021  6  9  0 39 23.9990000  0 26                     
G 8  19739346.630 1 103730957.285 1      -341.101          48.000  
G27  20864217.270 1 109642196.275 1     -2420.319          45.000  
G 7  20585550.712 1 108177782.309 1      1712.060          45.000  
C 3  37291103.353 1 194184533.438 1        70.039          42.000  
C 1  37875501.243 1 197227638.058 1        31.694          42.000  
G16  22826475.286 1 119953930.542 1     -2600.370          41.000  
G21  21677095.920 1 113913895.234 1      2755.117          44.000  
G30  23304522.596 1 122466095.612 1      3254.415          39.000  
C 7  35730028.452 1 186055605.196 1       123.326          45.000  
C25  21758871.555 1 113304106.372 1     -1020.488          49.000  
C11  21194623.337 1 110365938.747 1       124.407          45.000  
C10  36435144.094 1 189727321.252 1       309.682          43.000  
C23  22335579.378 1 116307191.402 1      1782.759          47.000  
C 9  37118123.332 1 193283766.874 1     -1615.621          40.000  
C 2  37907004.033 2 197391668.513 1        25.473          38.000  
C12  23410947.100 1 121906908.497 1     -2592.981          41.000  
C 4  38613629.844 1 201071283.467 1        49.298          38.000  
G 9  23263433.904 1 122250167.930 1     -2712.667          38.000  
C16  38957255.518 1 202860620.284 1     -1852.478          40.000  
C24  25683587.899 4 133741151.834 3     -2899.232          27.000  
C 5  39732533.469 4 206897693.98022        26.416          34.000  
C 6  38521763.242 2 200592913.734 1     -1758.136          37.000  
G26  24900157.340 2 130851224.880 1     -2844.120          35.000  
G 4  24394452.412 2 128193707.468 1     -3322.636          37.000  
G 1  23693547.865 1 124510486.150 1      4008.324          39.000  
C28  25577677.162 1 133189645.741 1      3350.584          40.000  
> 2021  6  9  0 39 24.9990000  0 26                     
G 8  19739411.222 1 103731297.571 1      -339.396          48.000  
G27  20864677.668 1 109644615.664 1     -2418.586          45.000  
G 7  20585224.672 1 108176069.301 1      1713.892          45.000  
C 3  37291089.987 1 194184462.352 1        72.363          42.000  
C 1  37875494.603 1 197227605.383 1        33.967          42.000  
G16  22826970.166 1 119956529.991 1     -2598.438          41.000  
G21  21676571.663 1 113911139.139 1      2756.924          44.000  
G30  23303903.245 1 122462840.373 1      3256.343          39.000  
C 7  35730004.510 1 186055480.684 1       125.767          45.000  
C25  21759067.329 1 113305125.821 1     -1018.480          48.000  
C11  21194599.081 1 110365813.421 1       126.112          45.000  
C10  36435084.458 1 189727010.309 1       312.088          43.000  
C23  22335236.708 1 116305407.727 1      1784.592          47.000  
C 9  37118433.335 1 193285381.437 1     -1613.746          40.000  
C 2  37906999.278 1 197391641.466 1        27.908          38.000  
C12  23411444.658 1 121909500.472 1     -2590.778          41.000  
C 4  38613620.054 1 201071233.069 1        51.373          38.000  
G 9  23263950.011 1 122252879.512 1     -2710.282          38.000  
C16  38957611.031 1 202862471.989 1     -1850.255          40.000  
C24  25684138.707 4 133744049.780 3     -2896.802          27.000  
C 5  39732528.242 4 206897667.45422        27.513          34.000  
C 6  38522100.564 2 200594670.472 1     -1755.408          38.000  
G26  24900698.410 2 130854067.526 1     -2841.804          35.000  
G 4  24395084.677 2 128197028.935 1     -3320.370          37.000  
G 1  23692784.837 1 124506476.718 1      4010.491          39.000  
C28  25577033.502 1 133186294.129 1      3352.738          40.000  
> 2021  6  9  0 39 25.9990000  0 25                     
G 8  19739475.823 1 103731636.429 1      -338.424          48.000  
G27  20865137.751 1 109647033.437 1     -2417.172          45.000  
G 7  20584898.361 1 108174354.855 1      1714.819          45.000  
C 3  37291075.730 1 194184389.368 1        73.591          42.000  
C 1  37875487.841 1 197227570.781 1        35.476          42.000  
G16  22827464.513 1 119959127.606 1     -2596.873          41.000  
G21  21676047.136 1 113908381.510 1      2757.954          44.000  
G30  23303283.613 1 122459583.439 1      3257.217          39.000  
C 7  35729980.053 1 186055354.231 1       127.273          45.000  
C25  21759262.894 1 113306143.760 1     -1017.496          49.000  
C11  21194574.729 1 110365686.729 1       127.129          45.000  
C10  36435024.342 1 189726697.420 1       313.513          43.000  
C23  22334893.881 1 116303622.424 1      1785.912          47.000  
C 9  37118743.182 1 193286994.179 1     -1612.161          40.000  
C 2  37906993.511 1 197391612.500 1        29.712          38.000  
C12  23411942.042 1 121912090.831 1     -2589.819          41.000  
C 4  38613610.256 1 201071180.749 1        53.156          38.000  
G 9  23264465.281 1 122255589.374 1     -2708.851          38.000  
C16  38957966.091 1 202864321.811 1     -1848.769          40.000  
C 5  39732522.388 4 206897638.93722        29.144          34.000  
C 6  38522437.684 1 200596425.357 1     -1753.876          37.000  
G26  24901238.826 2 130856908.282 1     -2839.814          35.000  
G 4  24395716.707 2 128200348.467 1     -3318.788          37.000  
G 1  23692021.495 1 124502465.318 1      4012.124          39.000  
C28  25576389.641 1 133182940.706 1      3354.048          40.000  
> 2021  6  9  0 39 26.9990000  0 26                     
G 8  19739540.153 1 103731974.953 1      -338.683          48.000  
G27  20865597.713 1 109649450.716 1     -2417.219          45.000  
G 7  20584572.121 1 108172640.058 1      1714.783          45.000  
C 3  37291061.831 1 194184315.528 1        73.953          42.000  
C 1  37875480.957 1 197227535.346 1        35.683          42.000  
G16  22827958.747 1 119961724.479 1     -2596.661          41.000  
G21  21675522.486 1 113905623.408 1      2758.035          44.000  
G30  23302663.555 1 122456325.818 1      3257.764          39.000  
C 7  35729955.780 1 186055226.947 1       127.528          45.000  
C25  21759458.345 1 113307161.255 1     -1017.434          49.000  
C11  21194550.526 1 110365559.701 1       126.959          45.000  
C10  36434963.807 1 189726383.683 1       313.970          43.000  
C23  22334551.080 1 116301836.556 1      1785.849          47.000  
C 9  37119052.940 1 193288606.208 1     -1611.970          40.000  
C 2  37906987.447 1 197391582.681 1        30.234          38.000  
C12  23412439.582 1 121914680.588 1     -2589.667          41.000  
C 4  38613599.986 1 201071127.605 1        53.192          38.000  
G 9  23264981.022 1 122258298.669 1     -2709.179          38.000  
C16  38958321.098 1 202866170.845 1     -1848.580          40.000  
C24  25685251.402 2 133749812.45112     -2895.209          28.000  
C 5  39732516.865 4 206897609.05412        30.115          34.000  
C 6  38522774.596 1 200598179.470 1     -1754.279          37.000  
G26  24901779.190 2 130859748.271 1     -2839.592          35.000  
G 4  24396348.483 2 128203667.042 1     -3317.993          37.000  
G 1  23691258.100 1 124498453.095 1      4012.534          39.000  
C28  25575745.318 1 133179586.555 1      3354.482          40.000  
> 2021  6  9  0 39 27.9990000  0 26                     
G 8  19739604.780 1 103732313.769 1      -339.164          48.000  
G27  20866057.509 1 109651868.109 1     -2417.726          45.000  
G 7  20584245.863 1 108170925.549 1      1714.063          45.000  
C 3  37291047.251 1 194184241.460 1        74.028          42.000  
C 1  37875474.308 1 197227499.694 1        35.426          42.000  
G16  22828453.111 1 119964321.251 1     -2596.989          41.000  
G21  21674997.968 1 113902865.481 1      2757.500          44.000  
G30  23302043.540 1 122453068.205 1      3257.718          39.000  
C 7  35729931.341 1 186055099.410 1       127.371          45.000  
C25  21759653.613 1 113308178.943 1     -1018.003          49.000  
C11  21194526.278 1 110365432.993 1       126.243          45.000  
C10  36434903.464 1 189726069.678 1       313.911          43.000  
C23  22334208.340 1 116300050.754 1      1785.450          47.000  
C 9  37119362.429 1 193290218.117 1     -1612.079          41.000  
C 2  37906981.549 2 197391552.673 1        30.125          38.000  
C12  23412936.687 1 121917270.388 1     -2589.874          41.000  
C 4  38613589.534 2 201071074.231 1        53.424          38.000  
G 9  23265496.188 1 122261007.949 1     -2709.221          38.000  
C16  38958676.158 1 202868019.706 1     -1849.034          40.000  
C24  25685808.343 2 133752707.933 2     -2895.832          28.000  
C 5  39732511.412 2 206897581.96831        29.749          35.000  
C 6  38523111.341 1 200599933.317 1     -1754.016          37.000  
G26  24902319.693 2 130862588.064 1     -2840.240          35.000  
G 4  24396979.849 4 128206985.338 2     -3318.210          37.000  
G 1  23690494.662 1 124494440.676 1      4012.013          39.000  
C28  25575101.283 1 133176232.305 1      3353.568          40.000  
> 2021  6  9  0 39 28.9990000  0 26                     
G 8  19739669.529 1 103732654.574 1      -342.457          48.000  
G27  20866517.994 1 109654287.328 1     -2420.922          45.000  
G 7  20583920.111 1 108169213.006 1      1710.876          45.000  
C 3  37291033.326 1 194184168.859 1        71.305          42.000  
C 1  37875467.939 1 197227465.505 1        32.805          42.000  
G16  22828947.554 1 119966919.614 1     -2599.781          41.000  
G21  21674473.336 1 113900109.409 1      2754.488          44.000  
G30  23301423.944 1 122449812.285 1      3254.470          39.000  
C 7  35729907.094 1 186054973.303 1       124.964          45.000  
C25  21759849.413 1 113309198.491 1     -1021.111          49.000  
C11  21194502.145 1 110365308.256 1       123.142          45.000  
C10  36434843.174 1 189725757.124 1       311.214          43.000  
C23  22333865.723 1 116298266.680 1      1782.740          47.000  
C 9  37119672.432 1 193291831.600 1     -1615.116          41.000  
C 2  37906976.506 1 197391524.150 1        27.050          38.000  
C12  23413434.507 1 121919861.923 1     -2592.950          41.000  
C 4  38613579.753 1 201071022.331 1        50.543          38.000  
G 9  23266012.042 1 122263718.977 1     -2712.627          38.000  
C16  38959031.496 1 202869870.040 1     -1851.740          40.000  
C24  25686369.272 4 133755604.935 3     -2898.591          29.000  
C 5  39732505.950 2 206897553.85821        26.896          35.000  
C 6  38523448.671 1 200601688.705 1     -1756.702          37.000  
G26  24902860.597 2 130865429.370 1     -2842.516          35.000  
G 4  24397611.530 4 128210305.039 2     -3320.527          37.000  
G 1  23689731.398 1 124490429.723 1      4009.175          39.000  
C28  25574457.474 1 133172879.579 1      3351.217          40.000  
> 2021  6  9  0 39 29.9990000  0 26                     
G 8  19739734.705 1 103732997.755 1      -344.091          48.000  
G27  20866978.531 1 109656708.765 1     -2422.504          45.000  
G 7  20583594.586 1 108167502.828 1      1709.204          45.000  
C 3  37291020.055 1 194184098.126 1        69.852          42.000  
C 1  37875461.613 1 197227433.167 1        31.505          42.000  
G16  22829442.539 1 119969519.953 1     -2601.010          41.000  
G21  21673949.262 1 113897355.610 1      2752.935          44.000  
G30  23300804.513 1 122446558.456 1      3252.939          39.000  
C 7  35729883.309 1 186054849.053 1       123.456          45.000  
C25  21760045.676 1 113310220.301 1     -1022.835          48.000  
C11  21194478.526 1 110365185.913 1       121.195          45.000  
C10  36434783.625 1 189725446.399 1       309.899          43.000  
C23  22333523.559 1 116296484.758 1      1780.995          47.000  
C 9  37119982.479 1 193293447.051 1     -1616.059          40.000  
C 2  37906971.646 1 197391497.439 1        25.688          38.000  
C12  23413932.579 1 121922455.583 1     -2594.556          41.000  
C 4  38613570.312 1 201070972.282 1        49.481          38.000  
G 9  23266528.342 1 122266432.075 1     -2713.888          38.000  
C16  38959386.983 1 202871722.287 1     -1853.099          40.000  
C24  25686927.278 4 133758503.964 3     -2899.877          29.000  
C 5  39732500.915 4 206897527.58622        25.436          34.000  
C 6  38523785.941 1 200603445.981 1     -1758.105          37.000  
G26  24903401.728 2 130868272.622 1     -2843.785          35.000  
G 4  24398243.568 2 128213626.582 1     -3322.270          37.000  
G 1  23688968.780 1 124486420.652 1      4008.015          39.000  
C28  25573814.207 1 133169528.835 1      3349.871          40.000  
> 2021  6  9  0 39 30.9990000  0 26                     
G 8  19739800.327 1 103733342.520 1      -344.694          48.000  
G27  20867439.252 1 109659131.573 1     -2422.814          45.000  
G 7  20583269.480 1 108165794.227 1      1708.490          45.000  
C 3  37291006.217 1 194184028.431 1        69.657          42.000  
C 1  37875455.636 1 197227401.894 1        31.392          42.000  
G16  22829937.584 1 119972121.481 1     -2601.643          41.000  
G21  21673425.529 1 113894603.243 1      2752.375          44.000  
G30  23300185.144 1 122443305.884 1      3252.755          39.000  
C 7  35729859.333 1 186054725.820 1       123.469          45.000  
C25  21760242.078 1 113311243.552 1     -1023.249          48.000  
C11  21194455.404 1 110365065.125 1       120.930          45.000  
C10  36434724.294 1 189725136.715 1       310.164          43.000  
C23  22333181.578 1 116294704.163 1      1780.652          47.000  
C 9  37120292.979 1 193295063.678 1     -1616.658          41.000  
C 2  37906966.812 1 197391471.768 1        25.776          38.000  
C12  23414430.783 1 121925050.552 1     -2595.038          41.000  
C 4  38613561.090 1 201070923.293 1        49.353          38.000  
G 9  23267044.851 1 122269146.489 1     -2714.582          38.000  
C16  38959743.029 1 202873575.611 1     -1853.401          39.000  
C24  25687487.813 2 133761404.247 2     -2900.915          29.000  
C 5  39732496.204 2 206897502.35921        25.791          35.000  
C 6  38524123.646 2 200605204.339 1     -1758.337          37.000  
G26  24903943.104 1 130871117.008 1     -2844.741          35.000  
G 4  24398875.850 2 128216949.074 1     -3322.211          37.000  
G 1  23688206.179 1 124482412.642 1      4007.868          40.000  
C28  25573171.437 1 133166179.239 1      3349.489          40.000  
> 2021  6  9  0 39 31.9990000  0 26                     
G 8  19739866.079 1 103733687.870 1      -345.581          48.000  
G27  20867900.304 1 109661554.812 1     -2423.444          45.000  
G 7  20582944.382 1 108164086.170 1      1707.684          45.000  
C 3  37290992.850 1 194183958.786 1        69.761          42.000  
C 1  37875449.511 1 197227370.686 1        30.873          42.000  
G16  22830432.673 1 119974723.158 1     -2601.931          41.000  
G21  21672901.499 1 113891851.349 1      2751.425          44.000  
G30  23299565.906 1 122440053.598 1      3251.802          39.000  
C 7  35729835.705 1 186054602.633 1       123.106          45.000  
C25  21760438.620 1 113312267.280 1     -1024.106          48.000  
C11  21194432.239 1 110364944.949 1       119.554          45.000  
C10  36434664.806 1 189724827.070 1       309.496          43.000  
C23  22332839.755 1 116292923.916 1      1780.055          47.000  
C 9  37120603.558 1 193296680.491 1     -1617.158          41.000  
C 2  37906961.917 1 197391446.168 1        25.274          38.000  
C12  23414929.074 1 121927645.841 1     -2595.404          41.000  
C 4  38613551.632 2 201070874.363 1        48.834          38.000  
G 9  23267561.657 1 122271861.211 1     -2715.206          38.000  
C16  38960098.891 1 202875429.022 1     -1853.728          39.000  
C24  25688048.742 4 133764304.666 3     -2900.837          29.000  
C 5  39732491.231 4 206897477.16522        25.512          34.000  
C 6  38524461.281 1 200606962.795 1     -1758.557          37.000  
G26  24904484.593 2 130873961.436 1     -2844.383          36.000  
G 4  24399508.115 2 128220271.573 1     -3322.303          37.000  
G 1  23687443.535 1 124478404.708 1      4007.922          40.000  
C28  25572528.484 1 133162829.811 1      3349.065          40.000  
> 2021  6  9  0 39 32.9990000  0 26                     
G 8  19739931.867 1 103734034.714 1      -347.748          48.000  
G27  20868361.225 1 109663979.338 1     -2425.379          45.000  
G 7  20582619.642 1 108162379.581 1      1705.554          45.000  
C 3  37290979.850 1 194183890.096 1        68.064          42.000  
C 1  37875443.639 1 197227340.400 1        29.965          42.000  
G16  22830927.692 1 119977325.914 1     -2603.496          41.000  
G21  21672378.202 1 113889100.787 1      2749.652          44.000  
G30  23298947.226 1 122436802.451 1      3250.690          39.000  
C 7  35729812.313 1 186054480.381 1       121.632          45.000  
C25  21760635.580 1 113313292.352 1     -1025.789          48.000  
C11  21194409.598 1 110364826.237 1       117.678          45.000  
C10  36434605.667 1 189724518.324 1       308.223          43.000  
C23  22332498.088 1 116291144.901 1      1778.057          47.000  
C 9  37120914.102 1 193298298.332 1     -1618.409          41.000  
C 2  37906957.014 2 197391421.481 1        24.241          38.000  
C12  23415427.644 1 121930242.342 1     -2597.046          41.000  
C 4  38613542.366 2 201070826.404 1        47.113          38.000  
G 9  23268078.733 1 122274577.108 1     -2716.799          38.000  
C16  38960455.033 1 202877283.415 1     -1854.987          40.000  
C24  25688607.262 2 133767206.167 2     -2902.387          29.000  
C 5  39732486.554 4 206897452.01432        23.228          34.000  
C 6  38524798.996 2 200608722.210 1     -1760.114          37.000  
G26  24905025.881 2 130876806.902 1     -2845.950          36.000  
G 4  24400140.703 2 128223594.970 1     -3324.092          38.000  
G 1  23686680.908 1 124474397.740 1      4006.441          40.000  
C28  25571885.321 1 133159481.447 1      3347.215          40.000  
> 2021  6  9  0 39 33.9990000  0 26                     
G 8  19739998.038 1 103734383.160 1      -349.551          48.000  
G27  20868822.810 1 109666405.334 1     -2426.933          45.000  
G 7  20582295.190 1 108160674.614 1      1703.790          45.000  
C 3  37290966.605 1 194183822.513 1        66.986          42.000  
C 1  37875438.195 1 197227311.267 1        28.281          42.000  
G16  22831423.103 1 119979929.904 1     -2605.016          40.000  
G21  21671855.009 1 113886351.739 1      2748.031          44.000  
G30  23298328.825 1 122433552.670 1      3248.687          39.000  
C 7  35729789.000 1 186054359.221 1       120.342          45.000  
C25  21760832.724 1 113314318.951 1     -1027.627          48.000  
C11  21194387.061 1 110364709.163 1       115.809          45.000  
C10  36434546.572 1 189724210.700 1       306.865          43.000  
C23  22332156.718 1 116289367.282 1      1776.606          47.000  
C 9  37121225.021 1 193299917.404 1     -1619.982          41.000  
C 2  37906952.468 1 197391397.937 1        22.827          38.000  
C12  23415926.598 1 121932840.229 1     -2598.901          41.000  
C 4  38613533.475 1 201070779.515 1        46.405          38.000  
G 9  23268595.931 1 122277294.353 1     -2718.163          38.000  
C16  38960811.436 1 202879138.962 1     -1856.231          40.000  
C24  25689166.394 2 133770108.944 2     -2903.258          29.000  
C 5  39732482.183 4 206897428.88522        22.249          35.000  
C 6  38525137.050 2 200610482.780 1     -1761.536          37.000  
G26  24905567.641 2 130879653.533 1     -2847.389          35.000  
G 4  24400774.041 1 128226919.415 1     -3324.711          38.000  
G 1  23685918.700 1 124470391.908 1      4004.870          40.000  
C28  25571242.621 1 133156134.279 1      3346.416          40.000  
> 2021  6  9  0 39 34.9990000  0 26                     
G 8  19740064.671 1 103734733.407 1      -351.354          48.000  
G27  20869284.700 1 109668832.947 1     -2428.682          45.000  
G 7  20581971.009 1 108158971.419 1      1702.124          45.000  
C 3  37290954.215 1 194183756.212 1        65.567          42.000  
C 1  37875433.134 1 197227283.371 1        27.206          42.000  
G16  22831918.794 1 119982535.276 1     -2606.282          40.000  
G21  21671332.183 1 113883604.356 1      2746.422          44.000  
G30  23297710.756 1 122430304.343 1      3247.439          40.000  
C 7  35729765.582 1 186054239.292 1       119.047          45.000  
C25  21761030.165 1 113315347.209 1     -1029.372          48.000  
C11  21194364.742 1 110364593.873 1       114.219          45.000  
C10  36434487.730 1 189723904.296 1       305.585          43.000  
C23  22331816.090 1 116287591.205 1      1775.063          47.000  
C 9  37121536.473 1 193301537.853 1     -1621.273          40.000  
C 2  37906947.957 1 197391375.668 1        21.360          38.000  
C12  23416425.491 1 121935439.640 1     -2600.604          41.000  
C 4  38613524.409 1 201070733.932 1        44.843          38.000  
G 9  23269113.635 1 122280013.131 1     -2719.582          38.000  
C16  38961167.900 1 202880995.834 1     -1857.816          40.000  
C24  25689723.570 2 133773013.194 2     -2905.486          29.000  
C 5  39732477.768 2 206897406.04931        21.174          34.000  
C 6  38525475.453 1 200612244.650 1     -1762.518          37.000  
G26  24906109.627 2 130882501.488 1     -2848.767          36.000  
G 4  24401407.162 2 128230245.116 1     -3326.563          38.000  
G 1  23685156.701 1 124466387.361 1      4003.432          40.000  
C28  25570600.427 1 133152788.486 1      3345.146          40.000  
> 2021  6  9  0 39 35.9990000  0 26                     
G 8  19740131.916 1 103735085.650 1      -353.194          48.000  
G27  20869747.314 1 109671262.380 1     -2430.364          45.000  
G 7  20581647.063 1 108157270.214 1      1700.421          45.000  
C 3  37290941.791 1 194183691.368 1        64.152          42.000  
C 1  37875428.091 1 197227256.952 1        25.945          42.000  
G16  22832415.087 1 119985142.241 1     -2607.571          41.000  
G21  21670809.907 1 113880858.852 1      2744.590          44.000  
G30  23297093.227 1 122427057.740 1      3245.928          40.000  
C 7  35729742.922 1 186054120.828 1       117.660          45.000  
C25  21761227.911 1 113316377.334 1     -1030.983          48.000  
C11  21194343.095 1 110364480.579 1       112.284          45.000  
C10  36434429.159 1 189723599.363 1       304.493          43.000  
C23  22331475.139 1 116285816.874 1      1773.555          47.000  
C 9  37121847.924 1 193303159.906 1     -1622.803          40.000  
C 2  37906943.708 1 197391354.850 1        20.156          38.000  
C12  23416924.847 1 121938040.781 1     -2602.014          41.000  
C 4  38613515.850 1 201070689.810 1        43.329          38.000  
G 9  23269631.663 1 122282733.638 1     -2721.161          38.000  
C16  38961524.888 1 202882854.187 1     -1858.964          40.000  
C24  25690281.497 2 133775918.952 2     -2906.073          29.000  
C 5  39732473.972 2 206897385.67722        19.761          34.000  
C 6  38525814.110 2 200614008.015 1     -1763.953          37.000  
G26  24906652.093 2 130885350.994 1     -2850.282          35.000  
G 4  24402040.543 2 128233572.178 1     -3327.575          38.000  
G 1  23684395.017 1 124462384.298 1      4001.810          39.000  
C28  25569958.494 1 133149444.265 1      3343.706          40.000  
> 2021  6  9  0 39 36.9990000  0 26                     
G 8  19740199.064 1 103735439.092 1      -354.015          48.000  
G27  20870209.910 1 109673692.821 1     -2431.056          45.000  
G 7  20581323.798 1 108155570.187 1      1699.640          45.000  
C 3  37290928.904 1 194183627.200 1        63.590          42.000  
C 1  37875423.100 1 197227231.217 1        25.210          42.000  
G16  22832911.354 1 119987750.000 1     -2608.133          41.000  
G21  21670287.648 1 113878114.405 1      2744.003          44.000  
G30  23296475.568 1 122423812.007 1      3245.360          39.000  
C 7  35729720.176 1 186054002.996 1       117.566          45.000  
C25  21761426.032 1 113317408.542 1     -1031.700          48.000  
C11  21194321.744 1 110364368.484 1       111.438          45.000  
C10  36434370.814 1 189723295.097 1       303.717          43.000  
C23  22331134.737 1 116284043.510 1      1772.722          47.000  
C 9  37122159.524 1 193304782.711 1     -1623.203          40.000  
C 2  37906939.869 1 197391334.730 1        19.399          38.000  
C12  23417424.595 1 121940642.859 1     -2602.631          41.000  
C 4  38613507.509 1 201070646.349 1        43.195          38.000  
G 9  23270149.384 1 122285455.044 1     -2721.735          38.000  
C16  38961881.667 1 202884713.261 1     -1859.721          40.000  
C24  25690837.051 4 133778825.575 3     -2906.667          29.000  
C 5  39732470.186 2 206897366.99331        19.198          34.000  
C 6  38526152.888 2 200615772.088 1     -1764.038          37.000  
G26  24907194.289 2 130888201.194 1     -2850.657          35.000  
G 4  24402674.126 2 128236899.889 1     -3327.924          38.000  
G 1  23683633.620 1 124458381.892 1      4002.063          40.000  
C28  25569316.710 1 133146100.837 1      3342.998          40.000  
> 2021  6  9  0 39 37.9990000  0 26                     
G 8  19740266.501 1 103735793.801 1      -355.482          48.000  
G27  20870672.699 1 109676124.364 1     -2432.027          44.000  
G 7  20581000.724 1 108153871.432 1      1698.151          45.000  
C 3  37290917.168 1 194183563.758 1        63.169          42.000  
C 1  37875418.127 1 197227206.215 1        24.802          42.000  
G16  22833407.813 1 119990358.625 1     -2609.057          41.000  
G21  21669765.668 1 113875371.122 1      2742.728          44.000  
G30  23295858.153 1 122420567.261 1      3244.341          40.000  
C 7  35729697.849 1 186053885.912 1       116.812          45.000  
C25  21761624.065 1 113318440.909 1     -1032.945          48.000  
C11  21194300.237 1 110364257.679 1       110.057          45.000  
C10  36434312.312 1 189722991.547 1       303.253          43.000  
C23  22330794.301 1 116282271.155 1      1771.956          47.000  
C 9  37122471.403 1 193306406.402 1     -1623.895          40.000  
C 2  37906936.100 2 197391315.318 1        19.096          38.000  
C12  23417924.448 1 121943245.948 1     -2603.503          41.000  
C 4  38613499.368 1 201070603.667 1        42.126          38.000  
G 9  23270667.429 1 122288177.458 1     -2723.176          39.000  
C16  38962238.707 1 202886573.103 1     -1860.061          40.000  
C24  25691392.291 2 133781733.132 2     -2907.828          29.000  
C 5  39732466.800 2 206897348.04321        18.330          34.000  
C 6  38526491.693 2 200617536.947 1     -1765.155          37.000  
G26  24907736.816 2 130891052.214 1     -2851.302          35.000  
G 4  24403307.892 2 128240228.304 1     -3328.779          38.000  
G 1  23682872.197 1 124454380.289 1      4001.489          40.000  
C28  25568675.170 1 133142758.256 1      3342.189          40.000  
> 2021  6  9  0 39 38.9990000  0 26                     
G 8  19740334.077 1 103736149.361 1      -355.716          47.000  
G27  20871135.452 1 109678556.577 1     -2432.284          45.000  
G 7  20580677.459 1 108152173.513 1      1697.906          45.000  
C 3  37290905.337 1 194183500.658 1        63.198          42.000  
C 1  37875413.241 1 197227181.566 1        24.806          42.000  
G16  22833904.298 1 119992967.692 1     -2609.011          41.000  
G21  21669243.654 1 113872628.561 1      2742.466          44.000  
G30  23295240.581 1 122417323.060 1      3244.195          39.000  
C 7  35729674.989 1 186053769.154 1       116.688          45.000  
C25  21761822.492 1 113319474.016 1     -1033.231          48.000  
C11  21194279.105 1 110364147.719 1       109.808          45.000  
C10  36434253.958 1 189722688.321 1       303.394          43.000  
C23  22330454.057 1 116280499.442 1      1771.794          47.000  
C 9  37122783.256 1 193308030.534 1     -1624.043          40.000  
C 2  37906932.505 1 197391296.247 1        19.285          38.000  
C12  23418424.510 1 121945849.644 1     -2603.625          41.000  
C 4  38613491.141 1 201070561.303 1        42.480          38.000  
G 9  23271185.744 1 122290900.439 1     -2722.844          39.000  
C16  38962595.983 1 202888433.340 1     -1860.083          40.000  
C24  25691949.110 2 133784641.099 3     -2907.851          29.000  
C 5  39732463.336 2 206897331.43331        18.417          35.000  
C 6  38526830.829 2 200619302.189 1     -1765.387          37.000  
G26  24908279.413 2 130893903.602 1     -2851.478          35.000  
G 4  24403941.422 2 128243556.957 1     -3328.567          37.000  
G 1  23682110.687 1 124450379.038 1      4001.379          40.000  
C28  25568033.692 1 133139416.108 1      3342.029          39.000  
> 2021  6  9  0 39 39.9990000  0 26                     
G 8  19740401.609 1 103736504.884 1      -355.926          47.000  
G27  20871598.136 1 109680988.561 1     -2432.054          45.000  
G 7  20580354.456 1 108150475.520 1      1697.729          45.000  
C 3  37290892.651 1 194183436.995 1        63.523          42.000  
C 1  37875408.154 1 197227156.347 1        25.147          42.000  
G16  22834400.486 1 119995576.304 1     -2608.741          41.000  
G21  21668721.395 1 113869885.813 1      2742.454          44.000  
G30  23294623.201 1 122414078.500 1      3244.088          39.000  
C 7  35729652.818 1 186053651.799 1       117.252          45.000  
C25  21762020.683 1 113320506.950 1     -1033.334          48.000  
C11  21194257.859 1 110364037.721 1       109.639          45.000  
C10  36434196.102 1 189722384.486 1       303.598          43.000  
C23  22330113.577 1 116278727.436 1      1771.638          47.000  
C 9  37123095.187 1 193309654.208 1     -1623.860          40.000  
C 2  37906928.989 2 197391276.606 1        19.740          38.000  
C12  23418924.389 1 121948453.036 1     -2603.741          41.000  
C 4  38613482.677 1 201070518.365 1        43.011          38.000  
G 9  23271703.736 1 122293623.103 1     -2723.074          39.000  
C16  38962953.188 1 202890293.034 1     -1859.923          40.000  
C24  25692503.372 2 133787548.690 2     -2907.501          28.000  
C 5  39732459.497 2 206897312.21021        19.192          34.000  
C 6  38527169.555 2 200621066.870 1     -1764.917          37.000  
G26  24908821.661 1 130896754.469 1     -2851.134          36.000  
G 4  24404574.926 2 128246884.962 1     -3327.874          38.000  
G 1  23681349.177 1 124446377.212 1      4001.581          40.000  
C28  25567391.916 1 133136073.490 1      3342.575          39.000  
> 2021  6  9  0 39 40.9990000  0 26                     
G 8  19740469.700 1 103736861.568 1      -357.426          47.000  
G27  20872061.239 1 109683421.518 1     -2433.282          44.000  
G 7  20580031.539 1 108148778.690 1      1696.124          45.000  
C 3  37290880.662 1 194183373.976 1        62.686          42.000  
C 1  37875403.652 1 197227131.770 1        24.385          42.000  
G16  22834896.770 1 119998185.668 1     -2610.066          41.000  
G21  21668199.773 1 113867144.104 1      2740.993          44.000  
G30  23294005.612 1 122410834.781 1      3243.163          39.000  
C 7  35729630.334 1 186053535.042 1       116.424          45.000  
C25  21762219.118 1 113321540.919 1     -1034.575          48.000  
C11  21194237.050 1 110363928.879 1       108.104          45.000  
C10  36434137.923 1 189722081.267 1       302.777          43.000  
C23  22329773.507 1 116276956.350 1      1770.459          47.000  
C 9  37123407.014 1 193311278.612 1     -1624.565          40.000  
C 2  37906925.525 1 197391257.627 1        18.246          38.000  
C12  23419424.695 1 121951057.307 1     -2604.779          41.000  
C 4  38613474.580 1 201070476.111 1        41.516          38.000  
G 9  23272221.973 1 122296346.622 1     -2724.148          38.000  
C16  38963310.630 1 202892153.393 1     -1860.826          40.000  
C24  25693059.249 2 133790457.050 3     -2908.501          28.000  
C 5  39732455.754 2 206897293.67322        17.891          35.000  
C 6  38527508.386 2 200622832.223 1     -1765.588          37.000  
G26  24909364.363 2 130899606.053 1     -2852.171          35.000  
G 4  24405208.194 2 128250213.544 1     -3328.688          37.000  
G 1  23680587.815 1 124442376.039 1      4000.623          39.000  
C28  25566750.150 1 133132731.635 1      3341.176          39.000  
> 2021  6  9  0 39 41.9990000  0 26                     
G 8  19740537.747 1 103737218.835 1      -357.223          47.000  
G27  20872524.367 1 109685854.903 1     -2433.155          45.000  
G 7  20579708.920 1 108147082.425 1      1696.246          45.000  
C 3  37290868.805 1 194183311.031 1        63.201          42.000  
C 1  37875399.045 1 197227107.280 1        24.869          42.000  
G16  22835393.229 1 120000795.210 1     -2609.239          41.000  
G21  21667677.863 1 113864402.851 1      2741.428          44.000  
G30  23293388.668 1 122407591.347 1      3243.930          39.000  
C 7  35729607.875 1 186053418.338 1       117.205          45.000  
C25  21762418.024 1 113322575.373 1     -1034.360          48.000  
C11  21194216.214 1 110363820.638 1       108.279          45.000  
C10  36434079.552 1 189721778.100 1       303.411          43.000  
C23  22329433.219 1 116275185.631 1      1770.706          47.000  
C 9  37123719.129 1 193312903.243 1     -1624.205          40.000  
C 2  37906921.712 1 197391238.673 1        19.040          38.000  
C12  23419924.740 1 121953661.940 1     -2604.498          41.000  
C 4  38613466.789 1 201070433.876 1        42.505          38.000  
G 9  23272740.305 1 122299070.463 1     -2723.744          38.000  
C16  38963667.923 1 202894013.865 1     -1860.052          40.000  
C24  25693615.754 4 133793365.616 3     -2908.398          28.000  
C 5  39732452.229 2 206897275.19821        18.461          35.000  
C 6  38527847.234 2 200624597.660 1     -1765.082          37.000  
G26  24909907.039 2 130902457.720 1     -2851.083          35.000  
G 4  24405841.323 2 128253542.189 1     -3328.474          37.000  
G 1  23679826.296 1 124438374.949 1      4001.477          39.000  
C28  25566108.427 1 133129389.927 1      3342.166          39.000  
> 2021  6  9  0 39 42.9990000  0 26                     
G 8  19740605.907 1 103737576.736 1      -358.661          47.000  
G27  20872987.688 1 109688288.770 1     -2434.481          45.000  
G 7  20579386.344 1 108145386.786 1      1695.019          45.000  
C 3  37290856.337 1 194183248.201 1        62.574          42.000  
C 1  37875394.264 1 197227082.914 1        23.532          42.000  
G16  22835889.836 1 120003405.009 1     -2610.253          41.000  
G21  21667156.363 1 113861662.112 1      2740.361          44.000  
G30  23292771.367 1 122404348.255 1      3242.852          39.000  
C 7  35729585.635 1 186053301.773 1       116.292          45.000  
C25  21762616.765 1 113323610.358 1     -1035.593          48.000  
C11  21194195.649 1 110363713.039 1       107.091          45.000  
C10  36434021.295 1 189721475.044 1       302.740          43.000  
C23  22329093.245 1 116273415.304 1      1769.834          47.000  
C 9  37124031.147 1 193314528.083 1     -1625.195          40.000  
C 2  37906917.925 1 197391219.858 1        18.865          38.000  
C12  23420424.898 1 121956266.953 1     -2605.444          41.000  
C 4  38613458.753 1 201070391.801 1        41.699          38.000  
G 9  23273258.795 1 122301794.688 1     -2724.999          38.000  
C16  38964025.295 1 202895874.507 1     -1861.138          40.000  
C24  25694170.366 4 133796274.448 3     -2908.881          28.000  
C 5  39732448.635 2 206897256.84821        17.251          35.000  
C 6  38528186.345 2 200626363.280 1     -1765.991          37.000  
G26  24910449.828 2 130905309.594 1     -2852.175          36.000  
G 4  24406474.286 2 128256870.861 1     -3329.111          37.000  
G 1  23679065.258 1 124434374.006 1      4000.696          39.000  
C28  25565466.686 1 133126048.486 1      3341.081          39.000  
> 2021  6  9  0 39 43.9990000  0 26                     
G 8  19740674.042 1 103737935.668 1      -359.394          47.000  
G27  20873450.974 1 109690723.496 1     -2435.273          45.000  
G 7  20579063.803 1 108143692.188 1      1694.147          45.000  
C 3  37290844.680 1 194183185.916 1        62.159          42.000  
C 1  37875389.901 1 197227059.067 1        23.479          42.000  
G16  22836386.687 1 120006015.435 1     -2610.671          41.000  
G21  21666634.855 1 113858922.318 1      2739.302          44.000  
G30  23292154.519 1 122401105.936 1      3242.053          39.000  
C 7  35729563.290 1 186053185.725 1       115.754          45.000  
C25  21762815.610 1 113324646.281 1     -1036.420          48.000  
C11  21194175.215 1 110363606.514 1       106.022          45.000  
C10  36433963.177 1 189721172.490 1       302.480          43.000  
C23  22328753.603 1 116271645.807 1      1769.097          47.000  
C 9  37124343.489 1 193316153.563 1     -1625.707          40.000  
C 2  37906914.226 1 197391201.585 1        18.225          38.000  
C12  23420925.318 1 121958872.779 1     -2606.226          41.000  
C 4  38613450.822 1 201070350.239 1        41.437          38.000  
G 9  23273777.319 1 122304519.668 1     -2725.586          38.000  
C16  38964382.963 1 202897735.749 1     -1862.043          40.000  
C24  25694728.171 4 133799184.028 3     -2909.825          28.000  
C 5  39732445.389 2 206897238.99921        17.535          35.000  
C 6  38528525.158 1 200628129.462 1     -1766.089          37.000  
G26  24910992.591 2 130908162.028 1     -2852.562          36.000  
G 4  24407107.773 2 128260200.014 1     -3329.494          37.000  
G 1  23678303.826 1 124430373.596 1      4000.274          39.000  
C28  25564825.103 1 133122707.670 1      3340.352          39.000  
> 2021  6  9  0 39 44.9990000  0 26                     
G 8  19740742.778 1 103738295.664 1      -360.583          48.000  
G27  20873914.338 1 109693159.109 1     -2436.094          45.000  
G 7  20578741.794 1 108141998.618 1      1693.115          45.000  
C 3  37290833.084 1 194183124.152 1        61.398          42.000  
C 1  37875385.094 1 197227035.758 1        23.056          42.000  
G16  22836883.573 1 120008626.522 1     -2611.504          41.000  
G21  21666113.547 1 113856183.445 1      2738.053          44.000  
G30  23291537.523 1 122397864.344 1      3240.974          39.000  
C 7  35729541.276 1 186053070.155 1       115.223          45.000  
C25  21763014.883 1 113325683.123 1     -1037.330          48.000  
C11  21194154.798 1 110363501.034 1       104.847          45.000  
C10  36433905.286 1 189720870.459 1       301.813          43.000  
C23  22328413.987 1 116269877.109 1      1768.131          47.000  
C 9  37124655.900 1 193317779.689 1     -1626.495          40.000  
C 2  37906910.762 1 197391183.869 1        16.944          38.000  
C12  23421426.000 1 121961479.377 1     -2607.233          41.000  
C 4  38613442.777 1 201070309.227 1        40.686          38.000  
G 9  23274295.984 1 122307245.413 1     -2726.409          38.000  
C16  38964740.771 1 202899597.499 1     -1862.108          40.000  
C24  25695285.330 4 133802094.196 3     -2910.284          28.000  
C 5  39732442.021 2 206897221.69621        17.052          35.000  
C 6  38528864.416 2 200629896.226 1     -1766.992          37.000  
G26  24911535.720 2 130911015.048 1     -2852.847          36.000  
G 4  24407741.381 2 128263529.642 1     -3330.370          37.000  
G 1  23677542.412 1 124426373.743 1      3999.414          39.000  
C28  25564183.763 1 133119367.481 1      3339.827          39.000  
> 2021  6  9  0 39 45.9990000  0 26                     
G 8  19740811.576 1 103738656.820 1      -361.996          48.000  
G27  20874377.973 1 109695595.695 1     -2437.472          45.000  
G 7  20578420.090 1 108140306.210 1      1691.516          45.000  
C 3  37290820.895 1 194183063.012 1        60.608          42.000  
C 1  37875380.531 1 197227013.067 1        22.485          42.000  
G16  22837380.782 1 120011238.340 1     -2612.213          41.000  
G21  21665592.344 1 113853445.584 1      2737.156          44.000  
G30  23290920.885 1 122394623.587 1      3240.147          39.000  
C 7  35729519.315 1 186052955.212 1       114.338          45.000  
C25  21763214.042 1 113326721.020 1     -1038.782          48.000  
C11  21194134.783 1 110363396.714 1       103.514          45.000  
C10  36433847.578 1 189720569.050 1       300.704          43.000  
C23  22328074.214 1 116268109.339 1      1767.083          47.000  
C 9  37124968.189 1 193319406.584 1     -1627.546          40.000  
C 2  37906907.220 1 197391166.733 1        16.419          38.000  
C12  23421926.899 1 121964086.872 1     -2608.356          41.000  
C 4  38613435.143 1 201070268.850 1        39.709          38.000  
G 9  23274814.421 1 122309972.044 1     -2727.512          38.000  
C16  38965098.518 1 202901459.942 1     -1862.994          40.000  
C24  25695841.329 4 133805005.170 3     -2910.932          27.000  
C 5  39732439.002 2 206897204.54411        15.945          35.000  
C 6  38529203.832 1 200631663.630 1     -1767.621          37.000  
G26  24912078.963 2 130913868.779 1     -2854.202          36.000  
G 4  24408374.815 2 128266859.772 1     -3330.338          37.000  
G 1  23676781.757 1 124422374.529 1      3998.358          39.000  
C28  25563542.477 1 133116028.035 1      3338.680          39.000  
> 2021  6  9  0 39 46.9990000  0 26                     
G 8  19740880.652 1 103739019.471 1      -363.572          48.000  
G27  20874841.887 1 109698033.597 1     -2438.668          45.000  
G 7  20578098.518 1 108138615.287 1      1689.789          45.000  
C 3  37290809.265 1 194183002.861 1        59.418          42.000  
C 1  37875376.203 1 197226991.378 1        20.778          42.000  
G16  22837878.009 1 120013851.277 1     -2613.633          41.000  
G21  21665071.411 1 113850709.123 1      2735.479          43.000  
G30  23290304.063 1 122391384.060 1      3238.663          39.000  
C 7  35729497.215 1 186052841.222 1       112.988          45.000  
C25  21763413.603 1 113327760.290 1     -1040.282          48.000  
C11  21194115.055 1 110363293.899 1       101.702          45.000  
C10  36433789.652 1 189720268.575 1       299.835          43.000  
C23  22327735.252 1 116266342.826 1      1765.571          47.000  
C 9  37125280.862 1 193321034.556 1     -1628.814          40.000  
C 2  37906904.070 1 197391150.587 1        14.953          38.000  
C12  23422427.799 1 121966695.624 1     -2609.692          41.000  
C 4  38613427.543 1 201070229.427 1        39.014          38.000  
G 9  23275333.111 1 122312699.901 1     -2728.918          38.000  
C16  38965456.213 1 202903323.403 1     -1864.325          40.000  
C24  25696403.095 2 133807917.299 3     -2912.823          28.000  
C 5  39732436.027 4 206897188.847 2        14.871          35.000  
C 6  38529543.631 1 200633432.057 1     -1769.257          37.000  
G26  24912622.389 2 130916723.513 1     -2855.524          36.000  
G 4  24409008.590 2 128270190.887 1     -3331.704          36.000  
G 1  23676020.927 1 124418376.300 1      3997.528          39.000  
C28  25562901.260 1 133112689.681 1      3337.247          39.000  
> 2021  6  9  0 39 47.9990000  0 26                     
G 8  19740950.174 1 103739383.849 1      -365.177          48.000  
G27  20875306.080 1 109700473.043 1     -2440.049          45.000  
G 7  20577777.189 1 108136926.057 1      1688.312          45.000  
C 3  37290798.481 1 194182943.893 1        58.553          42.000  
C 1  37875372.521 1 197226970.870 1        20.019          42.000  
G16  22838375.741 1 120016465.525 1     -2615.180          41.000  
G21  21664550.828 1 113847974.254 1      2734.079          43.000  
G30  23289687.756 1 122388145.920 1      3237.527          39.000  
C 7  35729475.603 1 186052728.408 1       112.181          45.000  
C25  21763613.469 1 113328801.145 1     -1041.559          48.000  
C11  21194095.598 1 110363192.795 1       100.288          45.000  
C10  36433732.345 1 189719969.274 1       298.746          43.000  
C23  22327396.325 1 116264577.786 1      1764.393          47.000  
C 9  37125593.544 1 193322663.819 1     -1629.728          40.000  
C 2  37906901.190 1 197391135.643 1        14.061          38.000  
C12  23422928.961 1 121969305.817 1     -2610.986          41.000  
C 4  38613420.354 2 201070191.242 1        37.512          38.000  
G 9  23275852.648 1 122315429.173 1     -2730.065          38.000  
C16  38965814.396 1 202905188.108 1     -1865.650          40.000  
C24  25696963.186 4 133810830.733 3     -2913.521          28.000  
C 5  39732433.313 2 206897174.332 2        14.299          35.000  
C 6  38529883.457 2 200635201.697 1     -1770.166          37.000  
G26  24913166.102 2 130919579.520 1     -2856.742          37.000  
G 4  24409642.356 2 128273523.145 1     -3332.821          36.000  
G 1  23675260.325 1 124414379.317 1      3996.387          39.000  
C28  25562260.313 1 133109352.612 1      3336.203          39.000  
> 2021  6  9  0 39 48.9990000  0 26                     
G 8  19741019.670 1 103739749.676 1      -366.672          48.000  
G27  20875770.649 1 109702913.786 1     -2441.550          45.000  
G 7  20577456.123 1 108135238.291 1      1686.761          45.000  
C 3  37290787.199 1 194182885.880 1        57.369          42.000  
C 1  37875368.909 1 197226951.313 1        18.852          42.000  
G16  22838873.326 1 120019080.810 1     -2615.872          41.000  
G21  21664030.506 1 113845240.723 1      2732.640          43.000  
G30  23289071.458 1 122384908.957 1      3236.338          39.000  
C 7  35729453.825 1 186052616.515 1       111.242          45.000  
C25  21763813.658 1 113329843.353 1     -1043.094          48.000  
C11  21194076.333 1 110363093.165 1        98.643          45.000  
C10  36433674.969 1 189719670.882 1       297.835          43.000  
C23  22327057.293 1 116262813.975 1      1762.981          47.000  
C 9  37125906.540 1 193324294.167 1     -1630.927          40.000  
C 2  37906898.608 1 197391121.634 1        13.231          38.000  
C12  23423430.401 1 121971917.218 1     -2612.109          42.000  
C 4  38613413.164 1 201070153.965 1        36.499          38.000  
G 9  23276372.324 1 122318159.664 1     -2731.548          38.000  
C16  38966172.693 1 202907053.763 1     -1866.191          40.000  
C24  25697524.507 2 133813745.270 3     -2914.747          29.000  
C 5  39732431.202 4 206897160.818 2        12.495          35.000  
C 6  38530223.308 2 200636972.335 1     -1771.826          37.000  
G26  24913709.834 1 130922436.511 1     -2857.436          37.000  
G 4  24410276.523 2 128276856.272 1     -3333.600          36.000  
G 1  23674499.809 1 124410383.280 1      3995.306          39.000  
C28  25561619.489 1 133106016.577 1      3335.402          39.000  
> 2021  6  9  0 39 49.9990000  0 26                     
G 8  19741089.575 1 103740117.556 1      -368.858          48.000  
G27  20876235.575 1 109705356.385 1     -2443.446          45.000  
G 7  20577135.205 1 108133552.547 1      1684.753          45.000  
C 3  37290775.743 1 194182829.355 1        55.912          42.000  
C 1  37875365.654 1 197226933.259 1        17.503          42.000  
G16  22839371.512 1 120021697.750 1     -2617.687          41.000  
G21  21663510.865 1 113842509.097 1      2730.672          43.000  
G30  23288455.684 1 122381673.740 1      3234.266          39.000  
C 7  35729432.797 1 186052506.108 1       109.805          45.000  
C25  21764014.239 1 113330887.468 1     -1044.974          48.000  
C11  21194057.566 1 110362995.564 1        96.632          45.000  
C10  36433618.107 1 189719373.990 1       296.071          43.000  
C23  22326718.820 1 116261051.956 1      1761.132          47.000  
C 9  37126220.216 1 193325926.131 1     -1632.910          40.000  
C 2  37906896.235 2 197391109.136 1        11.500          38.000  
C12  23423932.374 1 121974530.381 1     -2614.233          41.000  
C 4  38613406.114 2 201070118.205 1        35.114          38.000  
G 9  23276892.401 1 122320891.879 1     -2732.813          38.000  
C16  38966531.164 1 202908920.976 1     -1868.047          40.000  
C24  25698086.875 2 133816661.486 2     -2916.632          29.000  
C 5  39732429.082 4 206897148.735 2        10.904          35.000  
C 6  38530563.570 2 200638744.470 1     -1773.047          37.000  
G26  24914254.036 1 130925295.080 1     -2859.399          37.000  
G 4  24410910.899 2 128280190.850 1     -3335.510          36.000  
G 1  23673739.966 1 124406388.776 1      3993.781          39.000  
C28  25560979.301 1 133102682.169 1      3333.491          39.000  
> 2021  6  9  0 39 50.9990000  0 26                     
G 8  19741159.838 1 103740487.671 1      -370.898          48.000  
G27  20876700.806 1 109707801.045 1     -2445.236          45.000  
G 7  20576814.661 1 108131869.039 1      1682.629          45.000  
C 3  37290765.639 1 194182774.566 1        54.104          42.000  
C 1  37875362.723 1 197226916.933 1        15.730          42.000  
G16  22839869.838 1 120024316.534 1     -2619.667          41.000  
G21  21662991.599 1 113839779.606 1      2728.751          43.000  
G30  23287840.354 1 122378440.467 1      3232.419          39.000  
C 7  35729412.014 1 186052397.413 1       108.271          45.000  
C25  21764215.109 1 113331933.714 1     -1046.891          48.000  
C11  21194039.295 1 110362900.208 1        94.540          45.000  
C10  36433561.516 1 189719078.775 1       294.775          43.000  
C23  22326380.914 1 116259291.941 1      1759.223          47.000  
C 9  37126533.823 1 193327559.916 1     -1634.578          40.000  
C 2  37906894.481 2 197391098.344 1         9.811          38.000  
C12  23424434.565 1 121977145.528 1     -2615.961          42.000  
C 4  38613399.457 2 201070084.183 1        33.545          38.000  
G 9  23277412.819 1 122323626.085 1     -2734.811          38.000  
C16  38966890.193 1 202910789.939 1     -1869.373          40.000  
C24  25698651.791 4 133819579.527 2     -2918.646          30.000  
C 5  39732426.865 2 206897138.375 1         9.616          35.000  
C 6  38530904.251 1 200640518.371 1     -1774.359          37.000  
G26  24914798.405 1 130928155.434 1     -2861.544          37.000  
G 4  24411545.363 2 128283527.092 1     -3336.528          36.000  
G 1  23672980.445 1 124402396.024 1      3992.053          39.000  
C28  25560339.306 1 133099349.608 1      3331.870          38.000  
> 2021  6  9  0 39 51.9990000  0 26                     
G 8  19741230.494 1 103740859.421 1      -372.116          48.000  
G27  20877166.466 1 109710247.181 1     -2446.474          45.000  
G 7  20576494.511 1 108130187.151 1      1681.598          45.000  
C 3  37290755.597 1 194182720.859 1        53.643          42.000  
C 1  37875359.913 1 197226901.711 1        15.130          42.000  
G16  22840368.399 1 120026936.535 1     -2620.190          41.000  
G21  21662472.167 1 113837051.631 1      2727.449          43.000  
G30  23287225.347 1 122375208.508 1      3231.392          39.000  
C 7  35729391.309 1 186052289.805 1       107.520          45.000  
C25  21764416.406 1 113332981.464 1     -1048.079          48.000  
C11  21194021.130 1 110362806.483 1        93.276          45.000  
C10  36433504.829 1 189718784.690 1       293.917          43.000  
C23  22326043.130 1 116257533.316 1      1758.234          47.000  
C 9  37126847.708 1 193329194.912 1     -1635.018          40.000  
C 2  37906892.684 1 197391088.638 1         9.668          38.000  
C12  23424936.905 1 121979762.040 1     -2616.638          42.000  
C 4  38613393.193 2 201070051.257 1        33.105          38.000  
G 9  23277933.604 1 122326361.670 1     -2736.031          38.000  
C16  38967249.144 1 202912660.061 1     -1870.521          40.000  
C24  25699214.011 8 133822498.889 2     -2920.443          31.000  
C 5  39732424.902 2 206897129.148 1         8.983          35.000  
C 6  38531245.263 1 200642293.438 1     -1775.324          38.000  
G26  24915343.139 1 130931016.935 1     -2861.614          37.000  
G 4  24412180.272 4 128286864.412 2     -3337.639          36.000  
G 1  23672221.055 1 124398404.396 1      3991.614          39.000  
C28  25559699.441 1 133096018.223 1      3330.942          38.000  
> 2021  6  9  0 39 52.9990000  0 26                     
G 8  19741301.447 1 103741231.678 1      -372.590          48.000  
G27  20877632.177 1 109712693.627 1     -2446.803          45.000  
G 7  20576174.500 1 108128505.776 1      1680.981          45.000  
C 3  37290744.935 1 194182667.146 1        53.646          42.000  
C 1  37875357.034 1 197226886.466 1        15.061          42.000  
G16  22840866.943 1 120029556.634 1     -2620.162          41.000  
G21  21661953.075 1 113834324.019 1      2727.146          43.000  
G30  23286610.157 1 122371976.758 1      3231.306          39.000  
C 7  35729370.709 1 186052182.142 1       107.677          45.000  
C25  21764617.973 1 113334029.608 1     -1048.443          48.000  
C11  21194003.357 1 110362713.257 1        92.885          45.000  
C10  36433448.395 1 189718490.556 1       293.983          43.000  
C23  22325705.268 1 116255774.944 1      1758.025          47.000  
C 9  37127161.655 1 193330830.002 1     -1634.888          40.000  
C 2  37906890.877 2 197391078.942 1         9.219          38.000  
C12  23425439.305 1 121982378.825 1     -2617.029          42.000  
C 4  38613386.849 2 201070018.324 1        32.965          38.000  
G 9  23278454.213 1 122329097.439 1     -2735.983          38.000  
C16  38967608.270 1 202914530.188 1     -1870.156          40.000  
C24  25699777.068 8 133825418.310 3     -2920.418          31.000  
C 5  39732423.402 2 206897119.894 2         8.833          35.000  
C 6  38531586.109 1 200644068.485 1     -1775.061          38.000  
G26  24915887.857 2 130933878.463 1     -2861.695          37.000  
G 4  24412814.927 4 128290201.589 2     -3336.872          36.000  
G 1  23671461.474 1 124394412.744 1      3991.681          39.000  
C28  25559059.716 1 133092686.937 1      3331.174          38.000  
> 2021  6  9  0 39 53.9990000  0 26                     
G 8  19741372.304 1 103741604.292 1      -372.831          47.000  
G27  20878097.941 1 109715140.257 1     -2446.692          45.000  
G 7  20575854.524 1 108126824.723 1      1680.933          45.000  
C 3  37290734.552 1 194182613.286 1        53.940          42.000  
C 1  37875354.207 1 197226871.079 1        15.697          42.000  
G16  22841365.382 1 120032176.703 1     -2620.031          41.000  
G21  21661434.359 1 113831596.640 1      2727.190          43.000  
G30  23285995.072 1 122368745.057 1      3231.569          39.000  
C 7  35729349.926 1 186052074.307 1       107.955          45.000  
C25  21764819.200 1 113335077.991 1     -1048.531          48.000  
C11  21193985.505 1 110362620.407 1        92.719          45.000  
C10  36433392.057 1 189718196.230 1       294.307          43.000  
C23  22325367.650 1 116254016.712 1      1758.046          47.000  
C 9  37127475.375 1 193332465.071 1     -1635.063          40.000  
C 2  37906889.185 1 197391069.086 1         9.727          38.000  
C12  23425942.020 1 121984995.701 1     -2616.925          42.000  
C 4  38613380.620 1 201069985.234 1        33.093          38.000  
G 9  23278975.198 1 122331833.305 1     -2736.156          38.000  
C16  38967967.229 1 202916400.199 1     -1869.898          40.000  
C24  25700332.229 4 133828337.738 2     -2919.826          31.000  
C 5  39732421.578 2 206897110.448 1         9.770          35.000  
C 6  38531926.973 1 200645843.437 1     -1774.957          38.000  
G26  24916432.574 2 130936739.890 1     -2861.381          37.000  
G 4  24413449.600 2 128293538.605 1     -3337.407          35.000  
G 1  23670701.918 1 124390420.962 1      3991.943          39.000  
C28  25558420.044 1 133089355.581 1      3331.806          38.000  
> 2021  6  9  0 39 54.9990000  0 26                     
G 8  19741443.265 1 103741977.376 1      -373.167          47.000  
G27  20878563.338 1 109717587.182 1     -2446.957          45.000  
G 7  20575534.418 1 108125144.119 1      1680.603          45.000  
C 3  37290724.553 1 194182559.369 1        53.870          42.000  
C 1  37875351.127 1 197226855.654 1        15.452          42.000  
G16  22841863.935 1 120034796.835 1     -2620.199          41.000  
G21  21660915.337 1 113828869.595 1      2727.159          43.000  
G30  23285380.240 1 122365513.510 1      3231.634          39.000  
C 7  35729329.466 1 186051966.409 1       107.960          45.000  
C25  21765020.733 1 113336126.731 1     -1048.849          48.000  
C11  21193967.749 1 110362528.041 1        92.301          45.000  
C10  36433335.440 1 189717901.842 1       294.423          43.000  
C23  22325029.788 1 116252258.713 1      1757.964          47.000  
C 9  37127789.287 1 193334100.185 1     -1635.208          40.000  
C 2  37906887.431 2 197391059.154 1        10.005          38.000  
C12  23426444.700 1 121987612.790 1     -2616.888          42.000  
C 4  38613374.259 2 201069952.084 1        33.496          38.000  
G 9  23279495.983 1 122334569.340 1     -2735.793          38.000  
C16  38968326.390 1 202918270.211 1     -1870.104          40.000  
C24  25700894.973 4 133831257.287 2     -2920.021          32.000  
C 5  39732419.624 2 206897101.003 1         9.399          35.000  
C 6  38532267.994 1 200647618.360 1     -1775.104          38.000  
G26  24916977.300 1 130939601.326 1     -2861.131          36.000  
G 4  24414084.474 2 128296875.464 2     -3336.719          35.000  
G 1  23669942.179 1 124386429.138 1      3992.090          39.000  
C28  25557780.345 1 133086024.327 1      3331.333          38.000  
> 2021  6  9  0 39 55.9990000  0 26                     
G 8  19741514.235 1 103742351.414 1      -374.618          47.000  
G27  20879029.137 1 109720034.885 1     -2448.099          45.000  
G 7  20575214.904 1 108123464.481 1      1678.955          45.000  
C 3  37290714.170 1 194182505.909 1        52.943          42.000  
C 1  37875347.855 1 197226840.659 1        14.526          42.000  
G16  22842362.409 1 120037417.521 1     -2620.973          41.000  
G21  21660396.612 1 113826143.418 1      2725.518          43.000  
G30  23284765.748 1 122362282.659 1      3230.191          39.000  
C 7  35729308.848 1 186051858.946 1       106.995          45.000  
C25  21765222.309 1 113337176.324 1     -1050.237          48.000  
C11  21193950.360 1 110362436.638 1        90.763          45.000  
C10  36433278.893 1 189717607.873 1       293.458          43.000  
C23  22324692.108 1 116250501.439 1      1756.693          47.000  
C 9  37128103.339 1 193335735.856 1     -1636.244          40.000  
C 2  37906885.450 1 197391049.704 1         8.694          38.000  
C12  23426947.502 1 121990230.585 1     -2618.323          42.000  
C 4  38613367.968 1 201069919.403 1        32.294          38.000  
G 9  23280016.872 1 122337306.076 1     -2737.364          38.000  
C16  38968685.646 1 202920140.699 1     -1870.889          40.000  
C24  25701453.860 4 133834177.395 2     -2920.754          32.000  
C 5  39732417.975 2 206897092.015 1         8.123          35.000  
C 6  38532608.893 1 200649393.758 1     -1775.849          38.000  
G26  24917522.113 1 130942463.255 1     -2862.752          36.000  
G 4  24414719.470 2 128300212.735 1     -3338.206          35.000  
G 1  23669182.658 1 124382437.783 1      3990.857          39.000  
C28  25557140.550 1 133082693.604 1      3329.896          38.000  
> 2021  6  9  0 39 56.9990000  0 26                     
G 8  19741585.371 1 103742726.649 1      -375.641          47.000  
G27  20879495.066 1 109722483.604 1     -2448.814          45.000  
G 7  20574895.548 1 108121786.011 1      1678.186          45.000  
C 3  37290703.578 1 194182453.091 1        52.689          42.000  
C 1  37875344.801 1 197226826.331 1        14.240          42.000  
G16  22842861.285 1 120040038.999 1     -2621.835          41.000  
G21  21659878.122 1 113823418.293 1      2724.758          43.000  
G30  23284151.474 1 122359052.662 1      3229.604          40.000  
C 7  35729288.370 1 186051752.123 1       106.839          45.000  
C25  21765423.859 1 113338226.984 1     -1050.961          48.000  
C11  21193932.858 1 110362346.417 1        89.893          45.000  
C10  36433222.467 1 189717314.540 1       293.177          43.000  
C23  22324354.961 1 116248745.112 1      1755.976          47.000  
C 9  37128417.539 1 193337372.311 1     -1636.774          40.000  
C 2  37906883.697 1 197391040.886 1         8.575          38.000  
C12  23427450.635 1 121992849.312 1     -2618.951          42.000  
C 4  38613361.800 1 201069887.388 1        31.561          38.000  
G 9  23280538.031 1 122340043.702 1     -2737.925          38.000  
C16  38969045.033 1 202922011.868 1     -1871.428          40.000  
C24  25702014.238 4 133837098.322 2     -2921.172          32.000  
C 5  39732416.413 4 206897083.648 2         7.590          35.000  
C 6  38532950.088 1 200651169.846 1     -1776.050          38.000  
G26  24918066.603 2 130945325.885 1     -2862.933          36.000  
G 4  24415354.868 4 128303550.556 2     -3338.443          35.000  
G 1  23668423.522 1 124378447.093 1      3990.582          39.000  
C28  25556501.331 1 133079363.632 1      3329.897          38.000  
> 2021  6  9  0 39 57.9990000  0 26                     
G 8  19741657.170 1 103743102.506 1      -375.999          47.000  
G27  20879961.502 1 109724932.758 1     -2449.208          45.000  
G 7  20574576.226 1 108120108.148 1      1677.631          45.000  
C 3  37290693.666 1 194182400.383 1        52.629          42.000  
C 1  37875342.027 1 197226812.112 1        14.276          42.000  
G16  22843360.108 1 120042660.665 1     -2621.449          41.000  
G21  21659359.946 1 113820693.649 1      2724.671          44.000  
G30  23283537.270 1 122355822.985 1      3229.713          40.000  
C 7  35729267.736 1 186051645.375 1       106.618          45.000  
C25  21765625.793 1 113339278.143 1     -1051.291          48.000  
C11  21193915.425 1 110362256.841 1        89.235          45.000  
C10  36433165.955 1 189717021.278 1       293.387          43.000  
C23  22324017.771 1 116246989.174 1      1755.766          47.000  
C 9  37128731.974 1 193339008.969 1     -1636.891          40.000  
C 2  37906881.899 1 197391032.147 1         9.158          38.000  
C12  23427953.445 1 121995468.391 1     -2619.122          42.000  
C 4  38613355.875 1 201069855.465 1        31.903          38.000  
G 9  23281059.042 1 122342781.690 1     -2738.302          38.000  
C16  38969404.359 1 202923883.178 1     -1871.270          40.000  
C24  25702575.987 4 133840019.501 2     -2921.437          32.000  
C 5  39732414.432 2 206897075.351 1         8.345          35.000  
C 6  38533291.161 1 200652946.071 1     -1776.019          38.000  
G26  24918611.548 2 130948188.692 1     -2863.090          36.000  
G 4  24415990.544 4 128306888.439 2     -3337.363          35.000  
G 1  23667664.079 1 124374456.514 1      3990.723          39.000  
C28  25555861.781 1 133076033.889 1      3329.608          38.000  
> 2021  6  9  0 39 58.9990000  0 26                     
G 8  19741728.794 1 103743478.632 1      -375.905          47.000  
G27  20880427.405 1 109727382.003 1     -2449.057          45.000  
G 7  20574256.643 1 108118430.531 1      1677.887          45.000  
C 3  37290683.876 1 194182347.416 1        53.250          42.000  
C 1  37875339.069 1 197226797.656 1        14.767          42.000  
G16  22843858.862 1 120045282.219 1     -2621.257          41.000  
G21  21658841.919 1 113817969.167 1      2724.549          44.000  
G30  23282922.813 1 122352593.272 1      3229.910          39.000  
C 7  35729247.467 1 186051538.343 1       107.301          45.000  
C25  21765827.605 1 113340329.460 1     -1051.263          48.000  
C11  21193898.254 1 110362167.527 1        89.363          45.000  
C10  36433109.625 1 189716727.758 1       293.932          43.000  
C23  22323680.676 1 116245233.268 1      1756.007          47.000  
C 9  37129046.209 1 193340645.491 1     -1636.456          40.000  
C 2  37906879.919 2 197391023.180 1         9.505          38.000  
C12  23428456.221 1 121998087.495 1     -2618.878          42.000  
C 4  38613349.750 1 201069823.277 1        33.075          38.000  
G 9  23281580.263 1 122345519.635 1     -2737.568          38.000  
C16  38969763.633 1 202925754.307 1     -1871.094          40.000  
C24  25703137.003 4 133842940.541 2     -2920.240          32.000  
C 5  39732412.617 4 206897066.877 2         8.345          35.000  
C 6  38533632.304 1 200654722.083 1     -1775.604          38.000  
G26  24919156.221 2 130951051.263 1     -2862.509          36.000  
G 4  24416625.549 4 128310225.988 2     -3336.602          34.000  
G 1  23666904.576 1 124370465.711 1      3991.022          39.000  
C28  25555222.239 1 133072703.987 1      3330.267          38.000  
> 2021  6  9  0 39 59.9990000  0 26                     
G 8  19741800.157 1 103743854.622 1      -376.046          47.000  
G27  20880893.387 1 109729830.931 1     -2448.827          45.000  
G 7  20573937.417 1 108116752.782 1      1677.863          45.000  
C 3  37290673.284 1 194182293.816 1        53.838          42.000  
C 1  37875336.259 1 197226782.540 1        15.325          42.000  
G16  22844357.746 1 120047903.219 1     -2620.669          41.000  
G21  21658323.334 1 113815244.420 1      2724.762          44.000  
G30  23282308.164 1 122349363.127 1      3230.342          39.000  
C 7  35729226.658 1 186051430.675 1       107.910          45.000  
C25  21766029.120 1 113341380.540 1     -1051.128          48.000  
C11  21193880.969 1 110362078.096 1        89.341          45.000  
C10  36433053.287 1 189716433.586 1       294.548          43.000  
C23  22323343.241 1 116243476.999 1      1756.337          47.000  
C 9  37129360.243 1 193342281.473 1     -1635.864          40.000  
C 2  37906877.929 1 197391013.555 1        10.007          38.000  
C12  23428959.241 1 122000706.221 1     -2618.567          42.000  
C 4  38613343.355 1 201069790.483 1        33.124          38.000  
G 9  23282101.248 1 122348257.188 1     -2737.544          38.000  
C16  38970123.073 1 202927624.795 1     -1870.121          40.000  
C24  25703697.931 4 133845861.131 2     -2920.189          33.000  
C 5  39732410.794 4 206897057.734 2         8.664          35.000  
C 6  38533973.447 1 200656497.489 1     -1775.336          38.000  
G26  24919700.633 2 130953913.238 1     -2861.904          36.000  
G 4  24417260.300 4 128313562.903 2     -3337.070          34.000  
G 1  23666145.029 1 124366474.243 1      3991.766          39.000  
C28  25554582.776 1 133069373.564 1      3330.466          38.000  
> 2021  6  9  0 40  0.9990000  0 26                     
G 8  19741872.008 1 103744231.158 1      -376.888          47.000  
G27  20881359.639 1 109732280.237 1     -2449.686          45.000  
G 7  20573618.331 1 108115075.555 1      1676.874          45.000  
C 3  37290662.901 1 194182240.247 1        53.279          42.000  
C 1  37875333.415 1 197226767.461 1        14.803          42.000  
G16  22844856.307 1 120050524.368 1     -2621.212          41.000  
G21  21657805.045 1 113812520.091 1      2724.036          44.000  
G30  23281693.777 1 122346133.205 1      3229.736          39.000  
C 7  35729206.215 1 186051322.987 1       107.482          45.000  
C25  21766230.993 1 113342432.040 1     -1051.881          48.000  
C11  21193863.973 1 110361989.212 1        88.530          45.000  
C10  36432996.897 1 189716139.404 1       294.159          43.000  
C23  22323006.033 1 116241721.050 1      1755.599          47.000  
C 9  37129674.504 1 193343917.610 1     -1636.382          40.000  
C 2  37906875.853 1 197391003.984 1         9.512          38.000  
C12  23429462.244 1 122003325.230 1     -2619.238          42.000  
C 4  38613337.081 1 201069757.698 1        32.660          38.000  
G 9  23282622.259 1 122350995.001 1     -2738.049          38.000  
C16  38970482.390 1 202929495.361 1     -1870.728          40.000  
C24  25704258.659 4 133848781.861 2     -2920.642          33.000  
C 5  39732408.883 2 206897048.577 1         9.036          35.000  
C 6  38534314.381 2 200658272.940 1     -1775.763          38.000  
G26  24920245.429 2 130956775.297 1     -2862.552          36.000  
G 4  24417894.878 4 128316899.694 2     -3336.504          34.000  
G 1  23665385.535 1 124362482.849 1      3991.125          39.000  
C28  25553943.147 1 133066043.242 1      3330.290          38.000  
> 2021  6  9  0 40  1.9990000  0 26                     
G 8  19741944.156 1 103744608.874 1      -378.741          48.000  
G27  20881825.883 1 109734730.528 1     -2451.106          45.000  
G 7  20573299.472 1 108113399.507 1      1674.756          45.000  
C 3  37290652.989 1 194182187.311 1        52.176          42.000  
C 1  37875330.649 1 197226753.043 1        13.397          42.000  
G16  22845355.383 1 120053146.278 1     -2622.481          41.000  
G21  21657286.782 1 113809796.823 1      2722.271          44.000  
G30  23281079.363 1 122342904.177 1      3228.318          39.000  
C 7  35729185.301 1 186051215.956 1       106.360          45.000  
C25  21766433.110 1 113343484.598 1     -1053.498          48.000  
C11  21193847.195 1 110361901.518 1        86.655          45.000  
C10  36432940.446 1 189715845.853 1       292.765          43.000  
C23  22322669.044 1 116239966.033 1      1754.150          47.000  
C 9  37129988.861 1 193345554.502 1     -1637.563          40.000  
C 2  37906874.047 1 197390995.037 1         8.205          38.000  
C12  23429965.237 1 122005945.140 1     -2620.477          42.000  
C 4  38613330.756 1 201069725.581 1        31.238          38.000  
G 9  23283143.165 1 122353733.723 1     -2739.818          38.000  
C16  38970841.638 1 202931366.606 1     -1871.922          40.000  
C24  25704819.919 4 133851703.430 2     -2922.386          33.000  
C 5  39732407.435 4 206897040.58232         8.322          35.000  
C 6  38534655.419 1 200660049.086 1     -1776.959          38.000  
G26  24920790.260 2 130959638.063 1     -2863.529          35.000  
G 4  24418529.795 4 128320237.088 2     -3337.937          34.000  
G 1  23664626.354 1 124358492.087 1      3990.198          39.000  
C28  25553303.823 2 133062713.725 1      3328.788          38.000  
> 2021  6  9  0 40  2.9990000  0 26                     
G 8  19742016.260 1 103744988.389 1      -380.471          48.000  
G27  20882292.676 1 109737182.465 1     -2452.611          45.000  
G 7  20572980.840 1 108111725.239 1      1673.334          45.000  
C 3  37290643.322 1 194182135.674 1        51.103          42.000  
C 1  37875328.363 1 197226739.890 1        12.519          42.000  
G16  22845854.687 1 120055769.612 1     -2624.110          41.000  
G21  21656769.052 1 113807075.236 1      2720.848          44.000  
G30  23280465.142 1 122339676.663 1      3226.842          39.000  
C 7  35729164.919 1 186051110.185 1       105.272          45.000  
C25  21766635.768 1 113344538.848 1     -1055.012          48.000  
C11  21193830.495 1 110361815.625 1        85.128          45.000  
C10  36432884.238 1 189715553.579 1       291.767          43.000  
C23  22322332.315 1 116238212.596 1      1752.722          47.000  
C 9  37130303.488 1 193347192.801 1     -1639.026          40.000  
C 2  37906872.494 1 197390987.390 1         6.871          38.000  
C12  23430468.423 1 122008566.634 1     -2622.363          42.000  
C 4  38613324.700 1 201069694.750 1        30.090          38.000  
G 9  23283664.386 1 122356473.933 1     -2740.636          38.000  
C16  38971201.557 1 202933239.193 1     -1873.245          40.000  
C24  25705381.153 4 133854626.410 2     -2923.477          33.000  
C 5  39732406.344 2 206897033.40121         6.740          35.000  
C 6  38534996.868 1 200661826.545 1     -1778.052          38.000  
G26  24921335.370 2 130962502.166 1     -2864.852          36.000  
G 4  24419165.044 4 128323575.724 2     -3339.155          34.000  
G 1  23663867.069 1 124354502.671 1      3988.660          39.000  
C28  25552664.613 1 133059385.584 1      3327.208          38.000  
> 2021  6  9  0 40  3.9990000  0 26                     
G 8  19742088.818 1 103745368.953 1      -380.940          48.000  
G27  20882759.461 1 109739635.261 1     -2452.850          45.000  
G 7  20572662.670 1 108110052.011 1      1672.961          45.000  
C 3  37290633.053 1 194182084.570 1        50.954          42.000  
C 1  37875326.217 1 197226727.298 1        12.571          42.000  
G16  22846354.522 1 120058393.576 1     -2624.232          41.000  
G21  21656251.417 1 113804354.594 1      2720.256          44.000  
G30  23279851.025 1 122336449.880 1      3226.611          39.000  
C 7  35729144.502 1 186051004.919 1       105.120          45.000  
C25  21766838.627 1 113345594.040 1     -1055.611          48.000  
C11  21193814.205 1 110361730.785 1        84.637          45.000  
C10  36432828.267 1 189715261.793 1       291.837          43.000  
C23  22321995.866 1 116236459.952 1      1752.411          47.000  
C 9  37130618.273 1 193348831.733 1     -1638.879          40.000  
C 2  37906870.906 1 197390980.268 1         6.948          38.000  
C12  23430971.949 1 122011188.886 1     -2622.382          42.000  
C 4  38613319.029 2 201069664.436 1        30.188          38.000  
G 9  23284185.886 1 122359214.941 1     -2740.970          37.000  
C16  38971561.154 1 202935112.334 1     -1873.182          40.000  
C24  25705942.570 4 133857550.094 2     -2924.943          33.000  
C 5  39732405.079 4 206897026.74022         6.797          35.000  
C 6  38535338.281 1 200663604.552 1     -1777.936          38.000  
G26  24921880.567 2 130965366.809 1     -2863.889          36.000  
G 4  24419800.511 4 128326914.819 2     -3338.415          34.000  
G 1  23663107.993 1 124350513.809 1      3988.604          39.000  
C28  25552025.272 1 133056058.060 1      3327.605          38.000  
> 2021  6  9  0 40  4.9990000  0 26                     
G 8  19742161.429 1 103745750.298 1      -381.682          48.000  
G27  20883226.307 1 109742088.677 1     -2453.749          45.000  
G 7  20572344.561 1 108108379.561 1      1672.150          45.000  
C 3  37290623.254 1 194182033.729 1        50.485          42.000  
C 1  37875323.948 1 197226714.951 1        12.167          42.000  
G16  22846853.807 1 120061017.916 1     -2624.570          41.000  
G21  21655733.809 1 113801634.596 1      2719.749          44.000  
G30  23279237.056 1 122333223.600 1      3225.794          39.000  
C 7  35729124.286 1 186050899.900 1       105.167          45.000  
C25  21767041.215 1 113346649.884 1     -1055.994          48.000  
C11  21193798.055 1 110361646.742 1        83.622          45.000  
C10  36432772.382 1 189714970.261 1       291.483          43.000  
C23  22321659.217 1 116234707.876 1      1751.742          47.000  
C 9  37130933.302 1 193350471.054 1     -1639.376          40.000  
C 2  37906869.728 1 197390973.420 1         6.518          38.000  
C12  23431475.711 1 122013811.672 1     -2623.083          42.000  
C 4  38613313.332 1 201069634.397 1        30.048          38.000  
G 9  23284707.185 1 122361956.451 1     -2741.832          37.000  
C16  38971920.864 1 202936985.756 1     -1873.407          40.000  
C24  25706504.232 4 133860474.148 2     -2924.783          32.000  
C 5  39732403.849 4 206897020.30622         7.288          34.000  
C 6  38535679.643 1 200665382.872 1     -1778.363          38.000  
G26  24922425.738 2 130968231.842 1     -2864.974          36.000  
G 4  24420436.240 4 128330254.138 2     -3339.241          34.000  
G 1  23662348.795 1 124346525.180 1      3988.464          39.000  
C28  25551386.193 1 133052730.941 1      3326.517          38.000  
> 2021  6  9  0 40  5.9990000  0 27                     
G 8  19742234.484 1 103746132.865 1      -383.296          48.000  
G27  20883693.484 1 109744543.115 1     -2455.117          45.000  
G 7  20572026.557 1 108106708.310 1      1670.642          45.000  
C 3  37290614.102 1 194181983.562 1        49.622          42.000  
C 1  37875322.064 1 197226703.292 1        11.132          42.000  
G16  22847353.233 1 120063643.078 1     -2625.701          41.000  
G21  21655216.218 1 113798915.695 1      2718.268          44.000  
G30  23278623.044 1 122329998.207 1      3224.580          39.000  
C 7  35729104.375 1 186050795.574 1       103.997          45.000  
C25  21767244.257 1 113347706.834 1     -1057.615          48.000  
C11  21193782.149 1 110361563.913 1        82.006          45.000  
C10  36432716.620 1 189714679.406 1       290.538          43.000  
C23  22321323.004 1 116232956.767 1      1750.456          47.000  
C 9  37131248.278 1 193352111.177 1     -1640.636          40.000  
C 2  37906868.663 1 197390967.219 1         6.068          38.000  
C12  23431979.621 1 122016435.409 1     -2624.304          42.000  
C 4  38613307.582 1 201069605.041 1        29.095          38.000  
G 9  23285228.946 1 122364698.885 1     -2742.817          37.000  
C16  38972280.818 1 202938859.918 1     -1874.378          40.000  
C24  25707065.754 4 133863399.018 2     -2925.631          32.000  
C 5  39732402.976 2 206897014.64122         4.952          35.000  
C 6  38536021.318 1 200667161.925 1     -1779.285          38.000  
C 8  40371780.743 9                      1987.226          28.000  
G26  24922971.092 2 130971097.585 1     -2866.416          36.000  
G 4  24421071.838 2 128333594.090 1     -3340.271          34.000  
G 1  23661590.086 1 124342537.279 1      3987.610          39.000  
C28  25550747.262 1 133049404.578 1      3325.925          38.000  
> 2021  6  9  0 40  6.9990000  0 27                     
G 8  19742307.548 1 103746516.846 1      -384.632          48.000  
G27  20884160.993 1 109746998.795 1     -2456.087          45.000  
G 7  20571708.841 1 108105038.478 1      1669.318          45.000  
C 3  37290604.652 1 194181934.296 1        49.128          42.000  
C 1  37875319.708 1 197226692.548 1        10.407          42.000  
G16  22847852.928 1 120066269.239 1     -2626.305          41.000  
G21  21654698.967 1 113796198.079 1      2717.203          44.000  
G30  23278009.538 1 122326773.928 1      3223.808          39.000  
C 7  35729084.534 1 186050692.115 1       103.209          45.000  
C25  21767447.508 1 113348765.077 1     -1058.698          48.000  
C11  21193766.644 1 110361482.508 1        80.789          45.000  
C10  36432660.893 1 189714389.428 1       289.568          43.000  
C23  22320986.947 1 116231206.842 1      1749.437          47.000  
C 9  37131563.490 1 193353752.315 1     -1641.585          40.000  
C 2  37906867.669 2 197390961.958 1         4.738          38.000  
C12  23432483.827 1 122019060.313 1     -2625.305          42.000  
C 4  38613301.902 1 201069576.617 1        28.186          38.000  
G 9  23285750.804 1 122367442.494 1     -2744.365          37.000  
C16  38972640.921 1 202940735.036 1     -1875.432          40.000  
C24  25707627.625 4 133866324.928 2     -2925.900          32.000  
C 5  39732401.955 2 206897009.82321         4.538          35.000  
C 6  38536363.080 1 200668941.904 1     -1780.432          38.000  
C 8  40371401.549 9 210224449.86735      1986.449          27.000  
G26  24923516.647 2 130973964.268 1     -2866.958          36.000  
G 4  24421707.506 4 128336934.873 2     -3340.959          35.000  
G 1  23660831.543 2 124338550.297 1      3987.122          40.000  
C28  25550108.427 2 133046079.227 1      3325.135          38.000  
> 2021  6  9  0 40  7.9990000  0 27                     
G 8  19742380.691 1 103746901.704 1      -384.823          48.000  
G27  20884628.379 1 109749455.186 1     -2456.234          45.000  
G 7  20571390.802 1 108103369.525 1      1668.988          45.000  
C 3  37290594.793 1 194181885.413 1        48.945          42.000  
C 1  37875317.745 1 197226682.168 1        10.596          42.000  
G16  22848352.598 1 120068895.893 1     -2626.243          41.000  
G21  21654181.839 1 113793481.241 1      2716.744          44.000  
G30  23277395.875 1 122323550.242 1      3223.878          39.000  
C 7  35729064.798 1 186050589.002 1       103.420          45.000  
C25  21767650.934 1 113349824.098 1     -1058.966          48.000  
C11  21193751.375 1 110361401.980 1        80.491          45.000  
C10  36432605.035 1 189714099.798 1       289.948          43.000  
C23  22320650.996 1 116229457.561 1      1749.458          47.000  
C 9  37131878.894 1 193355393.919 1     -1641.711          40.000  
C 2  37906867.067 1 197390957.043 1         5.409          38.000  
C12  23432988.226 1 122021685.857 1     -2625.623          42.000  
C 4  38613296.335 2 201069548.533 1        28.339          38.000  
G 9  23286273.194 1 122370186.656 1     -2743.960          37.000  
C16  38973001.015 1 202942610.550 1     -1875.537          40.000  
C24  25708189.452 4 133869251.403 2     -2926.292          32.000  
C 5  39732400.995 2 206897005.39321         4.014          35.000  
C 6  38536704.878 1 200670722.274 1     -1780.280          38.000  
C 8  40371015.812 9 210222463.54924      1986.373          27.000  
G26  24924062.420 2 130976831.398 1     -2867.229          36.000  
G 4  24422343.252 2 128340275.942 1     -3340.708          35.000  
G 1  23660073.069 1 124334563.723 1      3986.944          39.000  
C28  25549470.089 1 133042754.363 1      3324.862          37.000  
> 2021  6  9  0 40  8.9990000  0 27                     
G 8  19742453.781 1 103747286.506 1      -384.674          48.000  
G27  20885095.923 1 109751911.314 1     -2455.987          45.000  
G 7  20571072.894 1 108101700.473 1      1669.025          45.000  
C 3  37290585.178 1 194181835.917 1        49.653          42.000  
C 1  37875315.555 1 197226671.193 1        11.352          42.000  
G16  22848852.128 1 120071522.071 1     -2625.859          41.000  
G21  21653664.632 1 113790764.192 1      2716.977          44.000  
G30  23276782.003 1 122320326.196 1      3224.138          39.000  
C 7  35729044.661 1 186050485.281 1       104.117          45.000  
C25  21767854.229 1 113350882.931 1     -1058.806          48.000  
C11  21193735.880 1 110361321.401 1        80.676          45.000  
C10  36432549.325 1 189713809.550 1       290.388          43.000  
C23  22320315.149 1 116227707.981 1      1749.797          47.000  
C 9  37132194.228 1 193357035.044 1     -1641.062          40.000  
C 2  37906866.185 1 197390951.544 1         5.865          38.000  
C12  23433492.310 1 122024311.059 1     -2625.232          42.000  
C 4  38613290.769 1 201069519.868 1        28.955          38.000  
G 9  23286795.426 1 122372930.465 1     -2743.469          37.000  
C16  38973360.935 1 202944485.504 1     -1874.807          40.000  
C24  25708751.270 4 133872177.420 2     -2926.026          32.000  
C 5  39732400.132 4 206896999.81512         5.645          35.000  
C 6  38537046.841 1 200672502.088 1     -1779.578          38.000  
C 8  40370636.933 8 210220476.52923      1987.568          27.000  
G26  24924607.678 2 130979697.953 1     -2866.138          36.000  
G 4  24422979.199 4 128343616.334 2     -3340.321          35.000  
G 1  23659314.377 1 124330576.563 1      3987.067          39.000  
C28  25548831.393 1 133039429.022 1      3325.354          37.000  
> 2021  6  9  0 40  9.9990000  0 27                     
G 8  19742527.168 1 103747671.291 1      -384.944          48.000  
G27  20885563.092 1 109754367.267 1     -2456.014          45.000  
G 7  20570755.300 1 108100031.384 1      1669.067          45.000  
C 3  37290575.886 1 194181785.904 1        50.364          42.000  
C 1  37875313.042 1 197226659.710 1        11.849          42.000  
G16  22849351.754 1 120074147.835 1     -2625.767          41.000  
G21  21653147.442 1 113788047.009 1      2717.225          44.000  
G30  23276168.287 1 122317101.820 1      3224.370          39.000  
C 7  35729024.663 1 186050381.019 1       104.593          45.000  
C25  21768057.507 1 113351941.648 1     -1058.793          48.000  
C11  21193720.733 1 110361240.831 1        80.474          45.000  
C10  36432493.737 1 189713518.777 1       290.663          43.000  
C23  22319979.311 1 116225958.169 1      1749.863          47.000  
C 9  37132509.440 1 193358675.766 1     -1640.833          40.000  
C 2  37906865.121 1 197390945.539 1         6.051          38.000  
C12  23433996.473 1 122026935.979 1     -2624.786          42.000  
C 4  38613285.315 1 201069490.691 1        29.535          38.000  
G 9  23287317.545 1 122375674.001 1     -2743.656          37.000  
C16  38973720.662 1 202946359.951 1     -1874.235          40.000  
C24  25709312.818 4 133875103.036 2     -2925.534          32.000  
C 5  39732398.832 4 206896994.245 2         6.200          35.000  
C 6  38537388.490 1 200674281.411 1     -1779.205          38.000  
C 8  40370252.627 8 210218488.98123      1987.898          27.000  
G26  24925152.945 2 130982564.058 1     -2866.219          36.000  
G 4  24423615.207 4 128346956.190 2     -3340.197          35.000  
G 1  23658555.476 1 124326588.855 1      3987.848          39.000  
C28  25548192.585 1 133036103.245 1      3325.781          37.000  
> 2021  6  9  0 40 10.9990000  0 27                     
G 8  19742600.476 1 103748056.588 1      -385.428          48.000  
G27  20886030.644 1 109756823.565 1     -2456.517          45.000  
G 7  20570437.881 1 108098362.832 1      1668.323          45.000  
C 3  37290566.419 1 194181735.919 1        49.842          42.000  
C 1  37875311.079 1 197226648.234 1        11.554          42.000  
G16  22849851.406 1 120076773.709 1     -2626.044          41.000  
G21  21652630.584 1 113785330.237 1      2716.531          44.000  
G30  23275554.799 1 122313877.674 1      3224.011          39.000  
C 7  35729004.499 1 186050276.759 1       104.377          45.000  
C25  21768260.898 1 113353000.777 1     -1059.269          48.000  
C11  21193705.141 1 110361160.778 1        79.878          45.000  
C10  36432438.019 1 189713227.970 1       290.855          43.000  
C23  22319643.333 1 116224208.643 1      1749.569          47.000  
C 9  37132824.696 1 193360316.598 1     -1640.967          40.000  
C 2  37906864.039 2 197390939.521 1         6.150          38.000  
C12  23434500.628 1 122029561.191 1     -2625.220          42.000  
C 4  38613280.263 1 201069461.522 1        29.272          38.000  
G 9  23287839.874 1 122378417.776 1     -2743.594          37.000  
C16  38974080.573 1 202948234.484 1     -1874.597          40.000  
C24  25709874.741 4 133878028.842 2     -2925.728          32.000  
C 5  39732397.924 4 206896988.738 2         5.206          35.000  
C 6  38537730.043 1 200676060.788 1     -1779.559          38.000  
C 8  40369869.534 8 210216501.44923      1987.424          27.000  
G26  24925698.413 1 130985430.190 1     -2866.227          36.000  
G 4  24424251.015 2 128350295.919 2     -3339.847          35.000  
G 1  23657796.766 2 124322601.192 1      3987.463          39.000  
C28  25547553.942 2 133032777.582 1      3325.637          37.000  
> 2021  6  9  0 40 11.9990000  0 27                     
G 8  19742673.845 1 103748442.872 1      -386.636          48.000  
G27  20886498.109 1 109759280.660 1     -2457.636          45.000  
G 7  20570120.566 1 108096695.241 1      1667.157          45.000  
C 3  37290556.551 1 194181686.380 1        49.255          42.000  
C 1  37875308.828 1 197226637.224 1        10.959          42.000  
G16  22850351.328 1 120079400.141 1     -2626.599          41.000  
G21  21652113.656 1 113782614.323 1      2715.430          44.000  
G30  23274941.345 1 122310654.188 1      3223.403          39.000  
C 7  35728984.597 1 186050172.932 1       103.944          45.000  
C25  21768464.385 1 113354060.769 1     -1060.398          48.000  
C11  21193689.924 1 110361081.711 1        78.582          45.000  
C10  36432382.248 1 189712937.611 1       289.977          43.000  
C23  22319307.320 1 116222459.862 1      1748.521          47.000  
C 9  37133139.707 1 193361958.003 1     -1641.672          40.000  
C 2  37906863.062 2 197390933.981 1         4.883          38.000  
C12  23435005.122 1 122032187.128 1     -2626.306          42.000  
C 4  38613274.854 1 201069432.824 1        28.284          38.000  
G 9  23288362.011 1 122381162.262 1     -2744.768          37.000  
C16  38974440.614 1 202950109.478 1     -1875.117          40.000  
C24  25710436.542 4 133880955.219 2     -2926.459          32.000  
C 5  39732396.956 2 206896983.622 1         4.345          35.000  
C 6  38538071.806 1 200677840.613 1     -1779.803          38.000  
C 8  40369489.389 4 210214514.29723      1987.442          28.000  
G26  24926243.758 1 130988296.830 1     -2866.360          36.000  
G 4  24424886.953 4 128353636.070 2     -3340.363          35.000  
G 1  23657037.743 1 124318614.005 1      3986.987          39.000  
C28  25546915.386 1 133029452.532 1      3324.593          37.000  
> 2021  6  9  0 40 12.9990000  0 27                     
G 8  19742747.642 1 103748830.416 1      -388.223          48.000  
G27  20886965.976 1 109761738.823 1     -2458.689          45.000  
G 7  20569803.653 1 108095028.873 1      1665.778          45.000  
C 3  37290547.145 1 194181637.555 1        48.547          42.000  
C 1  37875306.734 1 197226626.937 1        10.042          42.000  
G16  22850851.513 1 120082027.436 1     -2628.004          41.000  
G21  21651597.322 1 113779899.529 1      2714.218          44.000  
G30  23274328.171 1 122307431.679 1      3221.890          39.000  
C 7  35728964.695 1 186050069.816 1       102.769          45.000  
C25  21768668.483 1 113355121.886 1     -1061.672          48.000  
C11  21193675.144 1 110361003.899 1        77.111          45.000  
C10  36432326.721 1 189712647.942 1       289.140          43.000  
C23  22318971.814 1 116220712.102 1      1747.132          47.000  
C 9  37133455.041 1 193363600.240 1     -1642.702          40.000  
C 2  37906862.154 1 197390929.135 1         4.472          38.000  
C12  23435509.573 1 122034814.047 1     -2627.643          42.000  
C 4  38613269.532 1 201069404.842 1        27.374          38.000  
G 9  23288884.025 1 122383907.694 1     -2745.930          37.000  
C16  38974800.857 1 202951985.254 1     -1876.196          40.000  
C24  25710997.052 4 133883882.456 3     -2927.661          32.000  
C 5  39732396.249 2 206896979.227 1         4.354          35.000  
C 6  38538413.978 1 200679621.224 1     -1781.098          38.000  
C 8  40369107.893 4 210212527.94723      1985.618          27.000  
G26  24926789.330 2 130991164.270 1     -2867.333          36.000  
G 4  24425522.952 4 128356976.876 2     -3340.827          35.000  
G 1  23656279.173 1 124314627.530 1      3986.340          40.000  
C28  25546276.917 2 133026128.253 1      3323.720          37.000  
> 2021  6  9  0 40 13.9990000  0 27                     
G 8  19742821.605 1 103749219.079 1      -389.418          48.000  
G27  20887433.956 1 109764197.945 1     -2459.765          45.000  
G 7  20569486.547 1 108093363.653 1      1664.435          45.000  
C 3  37290538.481 1 194181589.365 1        47.839          42.000  
C 1  37875304.491 1 197226617.270 1         9.413          42.000  
G16  22851351.557 1 120084655.469 1     -2628.582          41.000  
G21  21651080.926 1 113777185.763 1      2713.109          44.000  
G30  23273714.987 1 122304210.006 1      3220.938          39.000  
C 7  35728945.046 1 186049967.295 1       102.092          45.000  
C25  21768872.397 1 113356184.034 1     -1062.806          48.000  
C11  21193660.399 1 110360927.244 1        75.836          45.000  
C10  36432271.003 1 189712358.878 1       288.611          43.000  
C23  22318636.202 1 116218965.238 1      1746.272          47.000  
C 9  37133770.716 1 193365243.234 1     -1643.427          40.000  
C 2  37906860.942 1 197390924.906 1         3.924          38.000  
C12  23436014.294 1 122037441.847 1     -2628.406          42.000  
C 4  38613264.078 1 201069377.488 1        26.617          38.000  
G 9  23289406.511 1 122386653.995 1     -2746.915          37.000  
C16  38975161.230 1 202953861.678 1     -1876.801          40.000  
C24  25711556.122 4 133886810.514 2     -2928.523          32.000  
C 5  39732395.263 2 206896975.483 1         3.760          35.000  
C 6  38538756.081 1 200681402.480 1     -1781.604          38.000  
C 8  40368725.942 4 210210542.14223      1984.803          27.000  
G26  24927334.999 2 130994032.390 1     -2868.589          36.000  
G 4  24426159.187 2 128360318.269 1     -3342.090          35.000  
G 1  23655520.665 1 124310641.755 1      3985.352          40.000  
C28  25545638.265 2 133022804.739 1      3322.936          37.000  
> 2021  6  9  0 40 14.9990000  0 27                     
G 8  19742895.873 1 103749609.223 1      -391.060          48.000  
G27  20887902.049 1 109766658.391 1     -2461.348          45.000  
G 7  20569169.896 1 108091699.904 1      1662.842          45.000  
C 3  37290529.381 1 194181542.141 1        46.582          42.000  
C 1  37875302.895 1 197226608.583 1         7.936          42.000  
G16  22851851.986 1 120087284.577 1     -2629.770          41.000  
G21  21650564.740 1 113774473.370 1      2711.539          44.000  
G30  23273102.171 1 122300989.499 1      3219.797          39.000  
C 7  35728925.633 1 186049865.727 1       100.952          45.000  
C25  21769076.643 1 113357247.546 1     -1064.457          48.000  
C11  21193646.116 1 110360852.064 1        74.259          45.000  
C10  36432215.415 1 189712070.755 1       287.583          43.000  
C23  22318301.027 1 116217219.634 1      1744.833          47.000  
C 9  37134086.329 1 193366887.299 1     -1644.730          40.000  
C 2  37906860.531 1 197390921.647 1         2.819          38.000  
C12  23436519.365 1 122040070.864 1     -2629.816          42.000  
C 4  38613258.861 1 201069351.101 1        25.793          38.000  
G 9  23289929.101 1 122389401.521 1     -2748.583          37.000  
C16  38975521.839 1 202955739.106 1     -1877.897          40.000  
C24  25712120.759 4 133889739.614 2     -2929.120          32.000  
C 5  39732394.940 4 206896975.22632         1.931          35.000  
C 6  38539098.393 1 200683184.756 1     -1783.234          38.000  
C 8  40368343.975 4 210208557.22923      1984.061          27.000  
G26  24927880.623 1 130996901.527 1     -2870.272          36.000  
G 4  24426795.806 2 128363660.543 1     -3342.941          35.000  
G 1  23654762.496 1 124306656.930 1      3984.308          40.000  
C28  25544999.971 2 133019482.283 1      3321.807          37.000  
> 2021  6  9  0 40 15.9990000  0 27                     
G 8  19742970.552 1 103750001.080 1      -392.896          48.000  
G27  20888370.116 1 109769120.349 1     -2462.755          45.000  
G 7  20568853.558 1 108090037.850 1      1661.163          45.000  
C 3  37290520.019 1 194181496.096 1        45.397          42.000  
C 1  37875301.464 1 197226601.068 1         6.893          42.000  
G16  22852352.799 1 120089914.990 1     -2631.152          41.000  
G21  21650048.955 1 113771762.559 1      2709.949          44.000  
G30  23272489.624 1 122297770.408 1      3218.386          39.000  
C 7  35728906.438 1 186049765.318 1        99.831          45.000  
C25  21769281.142 1 113358312.649 1     -1065.996          48.000  
C11  21193631.885 1 110360778.588 1        72.561          45.000  
C10  36432160.438 1 189711783.797 1       286.388          43.000  
C23  22317966.219 1 116215475.484 1      1743.381          47.000  
C 9  37134402.431 1 193368532.666 1     -1646.271          40.000  
C 2  37906860.235 1 197390919.594 1         1.063          38.000  
C12  23437024.618 1 122042701.343 1     -2631.238          42.000  
C 4  38613253.861 1 201069325.903 1        24.420          38.000  
G 9  23290451.962 1 122392150.450 1     -2750.012          37.000  
C16  38975882.796 1 202957617.774 1     -1879.373          40.000  
C24  25712685.457 4 133892670.100 2     -2931.166          32.000  
C 5  39732394.932 4 206896975.60532         0.854          34.000  
C 6  38539441.063 1 200684968.237 1     -1784.296          38.000  
C 8  40367962.626 4 210206573.503 3      1983.539          27.000  
G26  24928426.815 1 130999771.889 1     -2871.185          36.000  
G 4  24427432.251 4 128367003.950 2     -3344.242          36.000  
G 1  23654004.154 1 124302673.338 1      3982.861          40.000  
C28  25544362.061 1 133016161.136 1      3320.115          37.000  
> 2021  6  9  0 40 16.9990000  0 27                     
G 8  19743045.300 1 103750394.540 1      -394.255          48.000  
G27  20888838.314 1 109771583.744 1     -2464.198          45.000  
G 7  20568537.412 1 108088377.390 1      1659.613          45.000  
C 3  37290511.582 1 194181451.106 1        44.618          42.000  
C 1  37875299.876 1 197226594.644 1         5.457          42.000  
G16  22852853.698 1 120092546.599 1     -2632.361          41.000  
G21  21649533.441 1 113769053.227 1      2708.537          44.000  
G30  23271877.349 1 122294552.625 1      3217.327          39.000  
C 7  35728887.303 1 186049665.976 1        98.705          45.000  
C25  21769486.025 1 113359379.218 1     -1067.339          48.000  
C11  21193618.108 1 110360706.739 1        71.002          45.000  
C10  36432105.671 1 189711497.902 1       285.325          43.000  
C23  22317631.680 1 116213732.699 1      1741.985          47.000  
C 9  37134718.594 1 193370179.195 1     -1647.223          41.000  
C 2  37906860.078 1 197390918.585 1         0.720          38.000  
C12  23437530.073 1 122045333.149 1     -2632.428          42.000  
C 4  38613249.211 1 201069301.769 1        23.694          38.000  
G 9  23290975.067 1 122394900.700 1     -2751.183          37.000  
C16  38976243.536 1 202959497.545 1     -1880.481          40.000  
C24  25713247.921 8 133895601.784 2     -2931.475          33.000  
C 5  39732395.150 4 206896975.02922         1.106          34.000  
C 6  38539783.899 1 200686752.819 1     -1785.046          38.000  
C 8  40367581.924 4 210204590.844 3      1982.639          28.000  
G26  24928972.998 2 131002643.400 1     -2872.273          36.000  
G 4  24428069.236 2 128370348.392 1     -3345.146          36.000  
G 1  23653246.378 1 124298690.824 1      3981.726          40.000  
C28  25543724.413 1 133012841.124 1      3319.474          37.000  
> 2021  6  9  0 40 17.9990000  0 27                     
G 8  19743120.536 1 103750789.313 1      -395.234          47.000  
G27  20889307.210 1 109774048.279 1     -2464.753          45.000  
G 7  20568221.703 1 108086718.245 1      1658.557          45.000  
C 3  37290503.319 1 194181406.946 1        44.023          42.000  
C 1  37875298.803 1 197226589.000 1         5.295          42.000  
G16  22853354.624 1 120095179.127 1     -2632.874          41.000  
G21  21649018.284 1 113766345.100 1      2707.822          44.000  
G30  23271265.151 1 122291335.886 1      3216.337          39.000  
C 7  35728868.300 1 186049567.404 1        98.290          45.000  
C25  21769691.109 1 113360447.003 1     -1068.024          48.000  
C11  21193604.497 1 110360636.189 1        70.100          45.000  
C10  36432051.200 1 189711212.774 1       285.099          43.000  
C23  22317297.692 1 116211991.003 1      1741.493          47.000  
C 9  37135035.036 1 193371826.649 1     -1647.859          40.000  
C 2  37906859.991 1 197390918.406 1        -0.065          38.000  
C12  23438035.326 1 122047966.014 1     -2633.148          42.000  
C 4  38613244.761 1 201069278.441 1        23.254          38.000  
G 9  23291498.382 1 122397651.988 1     -2751.531          37.000  
C16  38976604.633 1 202961378.125 1     -1880.809          40.000  
C24  25713813.238 4 133898534.412 2     -2932.890          33.000  
C 5  39732395.298 4 206896977.32832        -0.624          34.000  
C 6  38540126.726 1 200688538.214 1     -1785.492          38.000  
C 8  40367201.788 4 210202608.992 3      1981.718          28.000  
G26  24929519.408 2 131005515.733 1     -2872.163          36.000  
G 4  24428705.907 4 128373693.530 2     -3345.310          36.000  
G 1  23652488.532 1 124294709.133 1      3981.592          39.000  
C28  25543086.904 1 133009522.055 1      3318.851          37.000  
> 2021  6  9  0 40 18.9990000  0 27                     
G 8  19743195.991 1 103751185.331 1      -396.802          47.000  
G27  20889776.220 1 109776513.899 1     -2466.266          44.000  
G 7  20567906.055 1 108085060.330 1      1657.251          45.000  
C 3  37290494.917 1 194181363.509 1        42.966          42.000  
C 1  37875297.852 1 197226584.082 1         4.522          42.000  
G16  22853855.768 1 120097812.497 1     -2633.907          41.000  
G21  21648502.962 1 113763638.085 1      2706.455          44.000  
G30  23270653.033 1 122288120.076 1      3215.169          39.000  
C 7  35728849.541 1 186049469.536 1        97.415          45.000  
C25  21769896.481 1 113361515.922 1     -1069.594          48.000  
C11  21193591.121 1 110360566.907 1        68.480          45.000  
C10  36431996.406 1 189710928.370 1       283.885          43.000  
C23  22316963.328 1 116210250.324 1      1740.087          47.000  
C 9  37135351.505 1 193373474.928 1     -1648.633          40.000  
C 2  37906860.287 1 197390918.939 1        -1.281          38.000  
C12  23438541.164 1 122050599.872 1     -2634.552          42.000  
C 4  38613240.451 2 201069255.867 1        21.814          38.000  
G 9  23292021.880 1 122400404.255 1     -2752.934          37.000  
C16  38976966.272 1 202963259.490 1     -1882.059          40.000  
C24  25714379.079 4 133901467.917 2     -2934.115          33.000  
C 5  39732395.411 4 206896978.33822        -1.634          34.000  
C 6  38540469.928 1 200690324.392 1     -1786.450          38.000  
C 8  40366820.536 4 210200627.841 3      1980.680          28.000  
G26  24930066.054 2 131008388.895 1     -2874.094          36.000  
G 4  24429342.884 4 128377039.333 2     -3345.914          36.000  
G 1  23651731.027 1 124290728.187 1      3980.341          39.000  
C28  25542449.613 1 133006203.833 1      3317.377          37.000  
> 2021  6  9  0 40 19.9990000  0 27                     
G 8  19743271.638 1 103751582.762 1      -397.881          48.000  
G27  20890245.674 1 109778980.760 1     -2467.279          44.000  
G 7  20567590.939 1 108083403.840 1      1656.061          45.000  
C 3  37290486.637 1 194181320.973 1        41.972          42.000  
C 1  37875297.206 1 197226580.105 1         3.767          42.000  
G16  22854357.035 1 120100446.904 1     -2634.702          41.000  
G21  21647988.093 1 113760932.389 1      2705.312          44.000  
G30  23270041.306 1 122284905.365 1      3214.577          39.000  
C 7  35728830.992 1 186049372.558 1        96.628          45.000  
C25  21770102.027 1 113362586.137 1     -1070.586          48.000  
C11  21193578.103 1 110360499.015 1        67.621          45.000  
C10  36431941.979 1 189710644.844 1       283.269          43.000  
C23  22316629.497 1 116208510.821 1      1739.028          47.000  
C 9  37135668.296 1 193375124.252 1     -1649.562          40.000  
C 2  37906860.584 1 197390920.336 1        -1.269          38.000  
C12  23439047.186 1 122053234.884 1     -2635.370          42.000  
C 4  38613236.455 1 201069234.176 1        21.411          38.000  
G 9  23292545.605 1 122403157.666 1     -2753.685          36.000  
C16  38977327.605 1 202965141.786 1     -1882.494          40.000  
C24  25714940.191 4 133904402.509 2     -2935.436          33.000  
C 5  39732395.673 2 206896980.22021        -2.132          35.000  
C 6  38540813.331 1 200692111.482 1     -1787.195          38.000  
C 8  40366441.683 2 210198647.560 3      1980.119          28.000  
G26  24930612.883 2 131011262.980 1     -2874.633          36.000  
G 4  24429980.000 2 128380386.020 1     -3347.019          36.000  
G 1  23650973.400 1 124286748.174 1      3979.675          39.000  
C28  25541812.506 2 133002886.578 1      3317.154          37.000  
> 2021  6  9  0 40 20.9990000  0 27                     
G 8  19743347.319 1 103751981.524 1      -399.589          48.000  
G27  20890715.172 1 109781448.740 1     -2468.596          44.000  
G 7  20567276.146 1 108081748.650 1      1654.382          45.000  
C 3  37290478.226 1 194181279.189 1        41.398          42.000  
C 1  37875296.613 1 197226576.893 1         2.788          42.000  
G16  22854858.589 1 120103082.203 1     -2635.925          41.000  
G21  21647473.460 1 113758227.885 1      2703.995          44.000  
G30  23269429.737 1 122281691.723 1      3212.702          39.000  
C 7  35728812.459 1 186049276.333 1        95.708          45.000  
C25  21770307.625 1 113363657.548 1     -1072.180          48.000  
C11  21193565.356 1 110360432.489 1        65.691          45.000  
C10  36431887.534 1 189710362.069 1       282.216          43.000  
C23  22316295.535 1 116206772.397 1      1737.828          47.000  
C 9  37135985.113 1 193376774.484 1     -1651.061          40.000  
C 2  37906861.395 1 197390922.553 1        -2.502          38.000  
C12  23439553.356 1 122055870.961 1     -2636.768          42.000  
C 4  38613232.502 2 201069213.280 1        20.422          38.000  
G 9  23293069.547 2 122405912.102 1     -2755.082          36.000  
C16  38977689.269 1 202967024.904 1     -1883.543          40.000  
C24  25715505.770 4 133907337.956 2     -2936.359          33.000  
C 5  39732396.232 2 206896982.88121        -3.052          34.000  
C 6  38541156.481 1 200693899.415 1     -1788.428          38.000  
C 8  40366061.137 4 210196668.062 3      1979.242          28.000  
G26  24931159.746 2 131014137.905 1     -2875.659          36.000  
G 4  24430617.535 2 128383733.410 1     -3347.979          36.000  
G 1  23650215.921 1 124282768.971 1      3978.247          39.000  
C28  25541175.337 1 132999570.255 1      3315.590          38.000  
> 2021  6  9  0 40 21.9990000  0 27                     
G 8  19743423.263 1 103752381.800 1      -401.041          48.000  
G27  20891185.037 1 109783918.040 1     -2469.703          44.000  
G 7  20566961.187 1 108080094.946 1      1653.161          45.000  
C 3  37290470.661 1 194181238.412 1        40.408          42.000  
C 1  37875296.045 1 197226574.651 1         1.747          42.000  
G16  22855360.483 1 120105718.605 1     -2636.894          41.000  
G21  21646959.255 1 113755524.763 1      2702.496          44.000  
G30  23268818.369 1 122278479.247 1      3211.702          39.000  
C 7  35728794.416 1 186049181.075 1        94.928          45.000  
C25  21770513.773 1 113364730.343 1     -1073.473          48.000  
C11  21193552.870 1 110360367.441 1        64.354          45.000  
C10  36431833.412 1 189710080.258 1       281.165          43.000  
C23  22315962.009 1 116205035.241 1      1736.510          47.000  
C 9  37136302.385 1 193378425.768 1     -1651.772          40.000  
C 2  37906862.224 1 197390925.755 1        -3.626          38.000  
C12  23440060.171 1 122058508.257 1     -2637.878          42.000  
C 4  38613228.742 2 201069193.367 1        19.458          38.000  
G 9  23293593.761 2 122408667.771 1     -2756.327          37.000  
C16  38978051.370 1 202968909.038 1     -1884.799          40.000  
C24  25716069.647 4 133910274.555 2     -2937.018          34.000  
C 5  39732397.078 2 206896986.53021        -4.231          34.000  
C 6  38541500.093 1 200695688.350 1     -1789.325          38.000  
C 8  40365680.304 4 210194689.526 3      1978.053          28.000  
G26  24931706.845 2 131017013.879 1     -2876.146          36.000  
G 4  24431254.886 2 128387081.738 1     -3348.914          36.000  
G 1  23649458.634 1 124278790.736 1      3977.740          39.000  
C28  25540538.361 1 132996255.021 1      3314.538          37.000  
> 2021  6  9  0 40 22.9990000  0 27                     
G 8  19743499.677 1 103752783.341 1      -401.814          48.000  
G27  20891655.102 1 109786388.446 1     -2470.691          44.000  
G 7  20566646.585 1 108078442.512 1      1652.191          45.000  
C 3  37290463.245 1 194181198.369 1        40.209          42.000  
C 1  37875295.801 1 197226573.181 1         1.602          42.000  
G16  22855862.413 1 120108355.877 1     -2637.273          42.000  
G21  21646445.023 1 113752822.780 1      2701.959          44.000  
G30  23268206.983 1 122275267.753 1      3211.247          39.000  
C 7  35728776.041 1 186049086.553 1        94.518          45.000  
C25  21770720.000 1 113365804.283 1     -1074.052          48.000  
C11  21193540.638 1 110360303.662 1        63.632          45.000  
C10  36431779.570 1 189709799.163 1       281.255          43.000  
C23  22315628.893 1 116203299.108 1      1736.139          47.000  
C 9  37136619.586 1 193380077.917 1     -1652.210          40.000  
C 2  37906863.123 1 197390929.665 1        -3.914          38.000  
C12  23440566.934 1 122061146.564 1     -2638.324          42.000  
C 4  38613224.946 1 201069174.195 1        19.061          38.000  
G 9  23294118.131 2 122411424.413 1     -2756.800          37.000  
C16  38978413.401 1 202970793.939 1     -1884.572          40.000  
C24  25716632.391 4 133913212.065 2     -2937.284          34.000  
C 5  39732398.011 4 206896990.94222        -4.748          35.000  
C 6  38541843.627 1 200697478.065 1     -1789.923          37.000  
C 8  40365300.473 4 210192711.719 3      1977.720          28.000  
G26  24932254.241 2 131019890.650 1     -2876.876          36.000  
G 4  24431892.160 2 128390430.686 2     -3348.150          36.000  
G 1  23648701.469 1 124274813.292 1      3977.423          39.000  
C28  25539901.873 1 132992940.602 1      3314.425          37.000  
> 2021  6  9  0 40 23.9990000  0 27                     
G 8  19743576.048 1 103753185.800 1      -402.800          47.000  
G27  20892125.298 1 109788859.583 1     -2471.466          44.000  
G 7  20566332.176 1 108076790.988 1      1651.147          45.000  
C 3  37290455.723 1 194181158.759 1        39.312          42.000  
C 1  37875295.705 1 197226572.116 1         0.862          42.000  
G16  22856364.464 1 120110993.681 1     -2638.149          42.000  
G21  21645930.835 1 113750121.621 1      2700.697          44.000  
G30  23267595.833 1 122272056.865 1      3210.685          38.000  
C 7  35728758.032 1 186048992.403 1        94.115          45.000  
C25  21770926.419 1 113366879.041 1     -1075.113          48.000  
C11  21193528.344 1 110360240.818 1        62.355          45.000  
C10  36431725.553 1 189709518.468 1       280.520          43.000  
C23  22315295.620 1 116201563.684 1      1735.082          47.000  
C 9  37136936.752 1 193381730.602 1     -1652.845          40.000  
C 2  37906863.707 1 197390934.023 1        -4.683          38.000  
C12  23441073.540 1 122063785.558 1     -2639.349          42.000  
C 4  38613221.247 2 201069155.447 1        18.738          38.000  
G 9  23294642.588 1 122414181.689 1     -2757.379          37.000  
C16  38978775.510 1 202972679.314 1     -1885.636          40.000  
C24  25717196.783 4 133916150.103 2     -2937.892          34.000  
C 5  39732398.963 2 206896995.71322        -4.874          35.000  
C 6  38542187.178 1 200699268.230 1     -1790.729          37.000  
C 8  40364919.684 2 210190734.264 3      1977.617          28.000  
G26  24932801.908 2 131022767.879 1     -2877.459          36.000  
G 4  24432529.573 2 128393780.054 1     -3349.785          35.000  
G 1  23647944.836 2 124270836.299 1      3976.538          39.000  
C28  25539265.254 1 132989626.725 1      3313.799          37.000  
> 2021  6  9  0 40 24.9990000  0 27                     
G 8  19743652.628 1 103753588.987 1      -403.470          47.000  
G27  20892595.904 1 109791331.291 1     -2471.924          45.000  
G 7  20566017.906 1 108075140.210 1      1650.330          45.000  
C 3  37290447.853 1 194181119.359 1        39.199          42.000  
C 1  37875295.478 1 197226571.264 1         0.890          42.000  
G16  22856866.542 1 120113631.811 1     -2638.065          42.000  
G21  21645416.891 1 113747421.060 1      2700.367          44.000  
G30  23266984.639 1 122268846.443 1      3210.332          39.000  
C 7  35728739.945 1 186048898.479 1        93.984          45.000  
C25  21771133.003 1 113367954.429 1     -1075.602          48.000  
C11  21193516.434 1 110360178.722 1        61.865          45.000  
C10  36431671.501 1 189709237.967 1       280.540          43.000  
C23  22314962.364 1 116199828.758 1      1734.839          47.000  
C 9  37137254.198 1 193383383.598 1     -1653.064          40.000  
C 2  37906864.501 1 197390938.582 1        -4.721          38.000  
C12  23441580.451 1 122066425.024 1     -2639.746          42.000  
C 4  38613217.512 1 201069136.916 1        18.585          38.000  
G 9  23295167.421 1 122416939.455 1     -2758.053          37.000  
C16  38979137.864 1 202974564.941 1     -1885.714          40.000  
C24  25717761.079 2 133919088.557 1     -2938.546          34.000  
C 5  39732399.818 2 206897000.28211        -5.434          35.000  
C 6  38542530.973 1 200701058.635 1     -1790.265          37.000  
C 8  40364539.164 2 210188757.065 2      1976.396          28.000  
G26  24933349.565 2 131025645.369 1     -2877.561          36.000  
G 4  24433166.811 4 128397129.519 2     -3349.105          35.000  
G 1  23647188.011 1 124266859.515 1      3976.648          39.000  
C28  25538628.661 1 132986313.175 1      3313.642          37.000  
> 2021  6  9  0 40 25.9990000  0 27                     
G 8  19743729.531 1 103753992.922 1      -404.542          47.000  
G27  20893066.450 1 109793803.561 1     -2472.698          45.000  
G 7  20565703.776 1 108073490.158 1      1649.414          45.000  
C 3  37290439.940 1 194181080.189 1        38.837          42.000  
C 1  37875295.504 1 197226570.655 1         0.301          42.000  
G16  22857368.785 1 120116270.303 1     -2639.020          42.000  
G21  21644903.052 1 113744721.141 1      2699.482          44.000  
G30  23266373.846 1 122265636.465 1      3209.365          39.000  
C 7  35728721.980 1 186048804.776 1        93.371          45.000  
C25  21771339.710 1 113369030.453 1     -1076.660          48.000  
C11  21193504.760 1 110360117.385 1        60.906          45.000  
C10  36431617.885 1 189708957.685 1       279.960          43.000  
C23  22314629.397 1 116198094.359 1      1733.737          47.000  
C 9  37137571.731 1 193385036.977 1     -1653.869          40.000  
C 2  37906865.278 1 197390943.365 1        -5.373          38.000  
C12  23442087.110 1 122069064.986 1     -2640.247          42.000  
C 4  38613214.005 1 201069118.605 1        18.121          38.000  
G 9  23295692.324 1 122419697.660 1     -2758.638          37.000  
C16  38979500.139 1 202976450.835 1     -1886.539          40.000  
C24  25718325.524 2 133922027.359 1     -2939.421          34.000  
C 5  39732400.612 2 206897005.505 1        -5.164          34.000  
C 6  38542874.629 1 200702849.305 1     -1791.248          37.000  
C 8  40364159.744 4 210186780.006 3      1976.621          28.000  
G26  24933897.275 2 131028523.153 1     -2878.156          36.000  
G 4  24433803.883 4 128400479.211 2     -3350.208          35.000  
G 1  23646431.335 1 124262882.992 1      3976.001          39.000  
C28  25537992.191 1 132982999.965 1      3313.064          37.000  
> 2021  6  9  0 40 26.9990000  0 27                     
G 8  19743806.749 1 103754398.054 1      -405.526          47.000  
G27  20893537.291 1 109796276.886 1     -2473.622          45.000  
G 7  20565390.170 1 108071841.328 1      1648.474          45.000  
C 3  37290433.029 1 194181041.710 1        38.305          42.000  
C 1  37875295.487 1 197226570.744 1        -0.033          42.000  
G16  22857871.055 1 120118909.598 1     -2639.604          42.000  
G21  21644389.544 1 113742022.318 1      2698.561          44.000  
G30  23265763.194 1 122262427.393 1      3208.855          39.000  
C 7  35728704.128 1 186048711.730 1        92.878          45.000  
C25  21771546.399 1 113370107.577 1     -1077.431          48.000  
C11  21193493.452 1 110360057.274 1        59.840          45.000  
C10  36431564.234 1 189708678.074 1       279.705          43.000  
C23  22314296.403 1 116196360.944 1      1733.160          47.000  
C 9  37137889.377 1 193386691.144 1     -1654.505          40.000  
C 2  37906866.299 2 197390948.851 1        -5.449          38.000  
C12  23442594.204 1 122071705.894 1     -2641.162          42.000  
C 4  38613210.829 1 201069101.011 1        17.676          38.000  
G 9  23296217.671 1 122422456.801 1     -2759.065          37.000  
C16  38979862.633 1 202978337.447 1     -1886.915          40.000  
C24  25718890.108 2 133924966.975 1     -2939.229          34.000  
C 5  39732401.676 2 206897011.480 2        -6.024          35.000  
C 6  38543218.634 1 200704640.704 1     -1791.174          37.000  
C 8  40363781.362 4 210184803.654 3      1976.363          28.000  
G26  24934445.011 1 131031401.680 1     -2878.610          36.000  
G 4  24434441.113 2 128403829.474 1     -3350.021          34.000  
G 1  23645674.711 1 124258907.177 1      3975.800          39.000  
C28  25537355.799 2 132979687.558 1      3312.369          37.000  
> 2021  6  9  0 40 27.9990000  0 27                     
G 8  19743884.053 1 103754804.328 1      -406.954          47.000  
G27  20894008.159 1 109798751.168 1     -2474.753          45.000  
G 7  20565076.807 1 108070193.631 1      1647.027          45.000  
C 3  37290426.049 1 194181003.862 1        37.434          42.000  
C 1  37875295.757 1 197226571.464 1        -1.071          42.000  
G16  22858373.612 1 120121549.637 1     -2640.526          42.000  
G21  21643876.045 1 113739324.528 1      2697.308          44.000  
G30  23265152.741 1 122259219.192 1      3207.868          39.000  
C 7  35728686.643 1 186048619.275 1        91.883          45.000  
C25  21771753.419 1 113371185.731 1     -1078.754          48.000  
C11  21193482.188 1 110359998.299 1        58.435          45.000  
C10  36431510.365 1 189708399.080 1       278.655          43.000  
C23  22313963.706 1 116194628.427 1      1731.915          47.000  
C 9  37138207.189 1 193388346.054 1     -1655.371          40.000  
C 2  37906867.564 1 197390954.949 1        -6.379          38.000  
C12  23443101.386 1 122074347.705 1     -2642.291          42.000  
C 4  38613207.775 1 201069084.054 1        16.681          38.000  
G 9  23296742.975 2 122425216.820 1     -2760.536          37.000  
C16  38980225.039 1 202980224.723 1     -1887.559          40.000  
C24  25719454.545 4 133927907.418 2     -2940.978          34.000  
C 5  39732402.653 2 206897015.55931        -6.930          35.000  
C 6  38543562.883 2 200706432.756 1     -1792.395          37.000  
C 8  40363401.768 4 210182827.935 3      1975.449          28.000  
G26  24934992.983 1 131034280.916 1     -2879.695          36.000  
G 4  24435078.491 4 128407180.328 2     -3351.008          34.000  
G 1  23644918.462 2 124254932.028 1      3974.963          39.000  
C28  25536719.730 2 132976375.909 1      3311.172          37.000  
> 2021  6  9  0 40 28.9990000  0 27                     
G 8  19743961.410 1 103755211.625 1      -408.227          47.000  
G27  20894479.368 1 109801226.279 1     -2475.865          45.000  
G 7  20564763.628 1 108068546.920 1      1645.782          45.000  
C 3  37290418.799 1 194180966.482 1        36.940          42.000  
C 1  37875295.906 1 197226572.677 1        -1.888          42.000  
G16  22858876.214 1 120124190.273 1     -2641.476          42.000  
G21  21643362.721 1 113736627.626 1      2696.083          44.000  
G30  23264542.272 1 122256011.674 1      3206.900          39.000  
C 7  35728668.888 1 186048527.308 1        91.223          45.000  
C25  21771960.649 1 113372264.763 1     -1079.771          48.000  
C11  21193470.863 1 110359940.359 1        57.102          45.000  
C10  36431456.750 1 189708120.530 1       278.007          43.000  
C23  22313631.105 1 116192896.676 1      1731.019          47.000  
C 9  37138525.036 1 193390001.566 1     -1656.188          40.000  
C 2  37906868.820 1 197390961.554 1        -7.173          38.000  
C12  23443608.673 1 122076990.250 1     -2643.329          42.000  
C 4  38613204.704 1 201069067.576 1        15.759          38.000  
G 9  23297268.305 2 122427977.562 1     -2761.540          37.000  
C16  38980587.672 1 202982112.538 1     -1888.450          40.000  
C24  25720019.094 2 133930848.462 2     -2941.163          34.000  
C 5  39732403.892 2 206897022.64621        -8.415          35.000  
C 6  38543907.141 1 200708225.341 1     -1793.481          37.000  
C 8  40363021.754 4 210180852.647 3      1975.144          28.000  
G26  24935541.243 2 131037160.654 1     -2880.482          35.000  
G 4  24435716.000 4 128410531.611 2     -3352.369          34.000  
G 1  23644161.856 1 124250957.379 1      3974.115          39.000  
C28  25536083.521 2 132973064.809 1      3310.371          37.000  
> 2021  6  9  0 40 29.9990000  0 27                     
G 8  19744039.238 1 103755620.589 1      -409.524          47.000  
G27  20894950.759 1 109803702.878 1     -2477.025          45.000  
G 7  20564450.563 1 108066901.875 1      1644.446          45.000  
C 3  37290411.452 1 194180930.248 1        36.250          42.000  
C 1  37875296.316 1 197226575.006 1        -2.463          42.000  
G16  22859378.937 1 120126832.168 1     -2642.291          42.000  
G21  21642849.650 1 113733932.266 1      2695.025          43.000  
G30  23263932.578 1 122252805.526 1      3206.062          39.000  
C 7  35728651.499 1 186048436.457 1        90.555          45.000  
C25  21772168.194 1 113373345.335 1     -1080.828          48.000  
C11  21193460.070 1 110359884.049 1        55.907          45.000  
C10  36431403.622 1 189707843.125 1       277.304          43.000  
C23  22313298.660 1 116191166.366 1      1729.944          47.000  
C 9  37138843.067 1 193391658.321 1     -1657.292          40.000  
C 2  37906869.754 2 197390969.289 1        -7.917          38.000  
C12  23444116.561 1 122079634.186 1     -2644.067          42.000  
C 4  38613201.755 1 201069052.220 1        15.210          38.000  
G 9  23297793.662 2 122430739.681 1     -2762.149          37.000  
C16  38980950.383 1 202984001.510 1     -1889.159          40.000  
C24  25720583.896 4 133933790.812 2     -2942.739          34.000  
C 5  39732405.297 2 206897030.81621        -8.336          35.000  
C 6  38544251.573 2 200710019.063 1     -1793.738          37.000  
C 8  40362642.552 4 210178878.572 3      1973.680          28.000  
G26  24936089.380 2 131040041.603 1     -2881.257          35.000  
G 4  24436353.587 4 128413883.934 2     -3352.598          33.000  
G 1  23643405.703 1 124246983.891 1      3973.322          39.000  
C28  25535447.652 2 132969754.986 1      3309.523          37.000  
> 2021  6  9  0 40 30.9990000  0 27                     
G 8  19744117.013 1 103756030.470 1      -410.483          47.000  
G27  20895422.063 1 109806180.218 1     -2477.797          45.000  
G 7  20564137.802 1 108065257.734 1      1643.695          45.000  
C 3  37290404.106 1 194180894.442 1        35.624          42.000  
C 1  37875296.674 1 197226577.774 1        -3.201          42.000  
G16  22859881.992 1 120129474.586 1     -2642.623          42.000  
G21  21642336.648 1 113731237.733 1      2693.868          43.000  
G30  23263322.816 1 122249600.029 1      3205.378          39.000  
C 7  35728633.987 1 186048345.990 1        90.385          45.000  
C25  21772375.781 1 113374426.744 1     -1081.874          48.000  
C11  21193449.652 1 110359828.704 1        54.714          45.000  
C10  36431350.617 1 189707566.118 1       276.884          43.000  
C23  22312966.461 1 116189436.750 1      1729.169          47.000  
C 9  37139161.228 1 193393315.597 1     -1657.567          40.000  
C 2  37906871.002 2 197390977.423 1        -8.265          38.000  
C12  23444624.511 1 122082278.811 1     -2644.855          42.000  
C 4  38613199.181 1 201069037.292 1        14.862          38.000  
G 9  23298319.594 1 122433502.450 1     -2763.308          37.000  
C16  38981313.269 1 202985890.937 1     -1889.685          40.000  
C24  25721149.283 4 133936733.659 2     -2943.166          34.000  
C 5  39732406.867 2 206897039.42622        -8.664          35.000  
C 6  38544596.084 1 200711813.289 1     -1794.928          37.000  
C 8  40362263.813 4 210176904.806 3      1973.383          28.000  
G26  24936637.684 2 131042923.011 1     -2881.418          35.000  
G 4  24436991.096 4 128417236.641 3     -3352.843          32.000  
G 1  23642649.698 1 124243010.818 1      3972.931          39.000  
C28  25534811.985 2 132966445.677 1      3308.987          37.000  
> 2021  6  9  0 40 31.9990000  0 27                     
G 8  19744195.330 1 103756441.505 1      -411.262          47.000  
G27  20895893.350 1 109808658.526 1     -2478.159          45.000  
G 7  20563825.252 1 108063614.736 1      1642.682          45.000  
C 3  37290397.309 1 194180859.265 1        35.316          42.000  
C 1  37875297.319 1 197226581.165 1        -3.320          42.000  
G16  22860384.986 1 120132117.770 1     -2643.363          42.000  
G21  21641823.909 1 113728544.208 1      2693.343          43.000  
G30  23262713.149 1 122246395.367 1      3204.868          39.000  
C 7  35728616.991 1 186048256.124 1        90.282          45.000  
C25  21772583.823 1 113375509.168 1     -1082.490          48.000  
C11  21193439.112 1 110359774.483 1        54.032          45.000  
C10  36431297.525 1 189707289.677 1       276.688          43.000  
C23  22312634.540 1 116187708.052 1      1728.692          47.000  
C 9  37139479.563 1 193394973.630 1     -1658.174          40.000  
C 2  37906872.424 2 197390986.168 1        -8.669          38.000  
C12  23445132.496 1 122084924.314 1     -2645.374          42.000  
C 4  38613196.546 1 201069023.013 1        14.606          38.000  
G 9  23298845.665 1 122436266.050 1     -2763.357          37.000  
C16  38981676.321 1 202987781.050 1     -1890.334          40.000  
C24  25721714.644 2 133939677.370 1     -2944.393          34.000  
C 5  39732408.612 2 206897048.69121        -9.461          35.000  
C 6  38544940.840 1 200713608.122 1     -1794.769          37.000  
C 8  40361884.995 2 210174931.638 3      1973.377          28.000  
G26  24937186.126 2 131045805.130 1     -2882.135          35.000  
G 4  24437628.378 4 128420589.917 2     -3352.857          32.000  
G 1  23641893.606 1 124239038.425 1      3972.400          39.000  
C28  25534176.456 2 132963137.107 1      3308.791          37.000  
> 2021  6  9  0 40 32.9990000  0 27                     
G 8  19744273.664 1 103756852.396 1      -410.629          47.000  
G27  20896364.951 1 109811136.528 1     -2477.428          45.000  
G 7  20563512.675 1 108061971.601 1      1643.561          45.000  
C 3  37290390.966 1 194180823.420 1        36.500          42.000  
C 1  37875297.677 1 197226583.923 1        -2.384          42.000  
G16  22860887.997 1 120134760.378 1     -2641.906          42.000  
G21  21641310.890 1 113725850.436 1      2694.248          43.000  
G30  23262103.708 1 122243190.278 1      3205.518          39.000  
C 7  35728599.462 1 186048165.620 1        91.074          45.000  
C25  21772791.568 1 113376591.356 1     -1081.816          48.000  
C11  21193428.660 1 110359720.158 1        54.498          45.000  
C10  36431244.424 1 189707012.625 1       277.432          43.000  
C23  22312302.375 1 116185978.989 1      1729.495          47.000  
C 9  37139797.942 1 193396631.100 1     -1656.472          40.000  
C 2  37906873.558 1 197390994.284 1        -7.487          38.000  
C12  23445640.515 1 122087569.428 1     -2644.495          42.000  
C 4  38613193.379 1 201069008.083 1        15.588          38.000  
G 9  23299371.458 1 122439029.259 1     -2762.713          37.000  
C16  38982039.085 1 202989670.534 1     -1889.229          40.000  
C24  25722279.778 4 133942620.491 2     -2942.494          34.000  
C 5  39732410.323 2 206897057.27921        -8.290          35.000  
C 6  38545285.752 2 200715402.350 1     -1793.494          37.000  
C 8  40361505.819 2 210172957.838 2      1974.387          28.000  
G26  24937734.343 2 131048686.605 1     -2880.837          34.000  
G 4  24438265.293 4 128423942.481 3     -3352.348          32.000  
G 1  23641137.576 1 124235065.370 1      3973.663          39.000  
C28  25533540.693 2 132959827.989 1      3309.289          37.000  
> 2021  6  9  0 40 33.9990000  0 27                     
G 8  19744351.832 1 103757263.080 1      -410.859          47.000  
G27  20896836.342 1 109813614.129 1     -2477.417          45.000  
G 7  20563199.801 1 108060328.240 1      1643.127          45.000  
C 3  37290384.151 1 194180786.858 1        36.807          42.000  
C 1  37875297.843 1 197226585.947 1        -2.032          42.000  
G16  22861390.406 1 120137402.399 1     -2641.964          42.000  
G21  21640798.132 1 113723156.328 1      2694.334          43.000  
G30  23261493.858 1 122239984.661 1      3205.723          39.000  
C 7  35728581.855 1 186048074.386 1        91.287          45.000  
C25  21772999.234 1 113377673.228 1     -1081.865          48.000  
C11  21193418.259 1 110359665.619 1        54.465          45.000  
C10  36431190.965 1 189706734.795 1       278.019          43.000  
C23  22311970.350 1 116184249.485 1      1729.556          47.000  
C 9  37140116.121 1 193398287.983 1     -1656.840          40.000  
C 2  37906874.876 1 197391001.684 1        -7.098          38.000  
C12  23446148.299 1 122090214.104 1     -2644.946          42.000  
C 4  38613190.264 1 201068992.437 1        15.521          38.000  
G 9  23299896.928 1 122441791.992 1     -2762.850          37.000  
C16  38982401.971 1 202991559.317 1     -1888.783          40.000  
C24  25722844.799 4 133945563.101 2     -2942.527          33.000  
C 5  39732411.788 2 206897065.12821        -7.792          35.000  
C 6  38545630.245 1 200717195.907 1     -1793.445          37.000  
C 8  40361127.542 2 210170983.256 2      1975.101          29.000  
G26  24938282.279 2 131051567.441 1     -2880.978          34.000  
G 4  24438902.366 8 128427294.185 3     -3351.239          31.000  
G 1  23640381.440 1 124231091.616 1      3973.883          40.000  
C28  25532904.632 1 132956518.233 1      3309.929          37.000  
> 2021  6  9  0 40 34.9990000  0 27                     
G 8  19744430.114 1 103757674.209 1      -411.642          47.000  
G27  20897308.144 1 109816092.023 1     -2478.407          45.000  
G 7  20562887.006 1 108058685.334 1      1642.200          45.000  
C 3  37290377.128 1 194180750.250 1        36.381          42.000  
C 1  37875298.157 1 197226587.891 1        -2.165          42.000  
G16  22861892.955 1 120140044.446 1     -2642.433          42.000  
G21  21640285.428 1 113720462.559 1      2693.378          43.000  
G30  23260883.589 1 122236779.196 1      3205.242          39.000  
C 7  35728564.291 1 186047983.049 1        91.125          45.000  
C25  21773206.866 1 113378755.432 1     -1082.670          48.000  
C11  21193407.493 1 110359611.554 1        53.536          45.000  
C10  36431137.681 1 189706456.865 1       277.599          43.000  
C23  22311637.949 1 116182520.206 1      1728.864          47.000  
C 9  37140434.326 1 193399944.883 1     -1656.973          40.000  
C 2  37906876.219 2 197391009.050 1        -7.661          38.000  
C12  23446656.179 1 122092858.943 1     -2645.404          42.000  
C 4  38613187.071 1 201068976.707 1        15.302          38.000  
G 9  23300422.720 1 122444554.838 1     -2763.149          37.000  
C16  38982764.325 1 202993448.075 1     -1888.984          40.000  
C24  25723410.073 4 133948505.751 2     -2942.573          33.000  
C 5  39732413.071 2 206897069.89231        -7.686          35.000  
C 6  38545974.678 2 200718989.430 1     -1793.939          37.000  
C 8  40360748.698 2 210169008.633 2      1974.439          29.000  
G26  24938830.190 2 131054448.184 1     -2880.860          34.000  
G 4  24439533.209 8 128430645.852 3     -3352.611          31.000  
G 1  23639625.392 1 124227117.791 1      3973.706          40.000  
C28  25532269.130 2 132953208.571 1      3309.157          36.000  
> 2021  6  9  0 40 35.9990000  0 27                     
G 8  19744508.640 1 103758086.590 1      -413.077          47.000  
G27  20897779.727 1 109818570.952 1     -2479.554          45.000  
G 7  20562574.420 1 108057043.647 1      1641.052          45.000  
C 3  37290369.624 1 194180714.352 1        35.388          42.000  
C 1  37875298.907 1 197226590.578 1        -3.118          42.000  
G16  22862395.573 1 120142687.338 1     -2643.377          42.000  
G21  21639772.897 1 113717769.909 1      2692.058          43.000  
G30  23260273.826 1 122233574.698 1      3203.828          39.000  
C 7  35728547.024 1 186047892.419 1        90.086          45.000  
C25  21773414.820 1 113379838.760 1     -1083.879          48.000  
C11  21193397.564 1 110359558.729 1        52.120          45.000  
C10  36431084.589 1 189706179.634 1       276.710          43.000  
C23  22311306.125 1 116180791.937 1      1727.751          47.000  
C 9  37140752.548 1 193401602.653 1     -1658.501          40.000  
C 2  37906877.676 1 197391017.080 1        -8.480          38.000  
C12  23447164.364 1 122095504.770 1     -2646.338          42.000  
C 4  38613184.017 1 201068961.733 1        14.111          38.000  
G 9  23300948.434 1 122447318.687 1     -2764.316          37.000  
C16  38983127.150 1 202995337.600 1     -1890.144          40.000  
C24  25723975.582 4 133951449.249 2     -2943.290          33.000  
C 5  39732414.432 2 206897078.46421        -8.824          35.000  
C 6  38546319.005 1 200720783.665 1     -1794.391          37.000  
C 8  40360370.778 2 210167034.669 3      1973.964          29.000  
G26  24939378.581 2 131057329.761 1     -2882.070          34.000  
G 4  24440170.028 8 128433998.061 4     -3352.547          31.000  
G 1  23638868.969 1 124223144.727 1      3972.809          40.000  
C28  25531633.523 1 132949899.709 1      3308.202          36.000  
> 2021  6  9  0 40 36.9990000  0 27                     
G 8  19744587.480 1 103758500.187 1      -414.210          48.000  
G27  20898251.651 1 109821050.945 1     -2480.376          45.000  
G 7  20562262.384 1 108055403.207 1      1639.777          45.000  
C 3  37290362.810 1 194180679.160 1        34.754          42.000  
C 1  37875299.675 1 197226593.992 1        -3.777          42.000  
G16  22862898.812 1 120145331.060 1     -2643.829          42.000  
G21  21639260.960 1 113715078.379 1      2690.996          43.000  
G30  23259664.028 1 122230371.127 1      3203.227          39.000  
C 7  35728529.766 1 186047802.478 1        89.704          45.000  
C25  21773623.123 1 113380923.211 1     -1084.812          48.000  
C11  21193387.826 1 110359507.154 1        51.210          45.000  
C10  36431031.304 1 189705903.090 1       276.482          43.000  
C23  22310974.483 1 116179064.676 1      1726.775          47.000  
C 9  37141070.953 1 193403261.226 1     -1658.932          40.000  
C 2  37906879.613 1 197391025.873 1        -9.302          38.000  
C12  23447672.523 1 122098151.577 1     -2647.180          42.000  
C 4  38613181.042 1 201068947.441 1        14.197          38.000  
G 9  23301474.506 1 122450083.498 1     -2765.515          37.000  
C16  38983490.228 1 202997227.888 1     -1890.643          40.000  
C24  25724540.786 4 133954393.686 2     -2944.995          32.000  
C 5  39732416.055 2 206897085.67631        -9.438          35.000  
C 6  38546663.612 2 200722578.688 1     -1795.258          37.000  
C 8  40359990.835 2 210165061.455 2      1972.917          29.000  
G26  24939926.893 2 131060212.093 1     -2883.012          34.000  
G 4  24440811.341 8 128437351.025 3     -3354.547          31.000  
G 1  23638113.287 1 124219172.378 1      3972.540          40.000  
C28  25530998.030 2 132946591.656 1      3307.833          36.000  
> 2021  6  9  0 40 37.9990000  0 27                     
G 8  19744666.329 1 103758914.620 1      -414.847          48.000  
G27  20898723.767 1 109823531.616 1     -2481.375          45.000  
G 7  20561950.226 1 108053763.573 1      1639.276          45.000  
C 3  37290356.397 1 194180644.286 1        34.821          42.000  
C 1  37875300.644 1 197226597.706 1        -3.938          42.000  
G16  22863401.927 1 120147975.222 1     -2644.367          42.000  
G21  21638749.198 1 113712387.565 1      2690.328          43.000  
G30  23259054.353 1 122227168.079 1      3202.968          39.000  
C 7  35728512.796 1 186047712.838 1        89.595          45.000  
C25  21773831.566 1 113382008.395 1     -1085.524          48.000  
C11  21193378.028 1 110359456.415 1        50.311          45.000  
C10  36430978.064 1 189705626.872 1       275.939          43.000  
C23  22310642.729 1 116177338.005 1      1726.345          47.000  
C 9  37141389.559 1 193404920.221 1     -1659.061          40.000  
C 2  37906881.620 1 197391034.936 1        -9.281          38.000  
C12  23448181.005 1 122100798.962 1     -2647.583          42.000  
C 4  38613178.311 1 201068933.508 1        13.605          38.000  
G 9  23302000.726 1 122452848.845 1     -2766.038          37.000  
C16  38983853.087 1 202999118.501 1     -1890.775          40.000  
C24  25725106.033 4 133957338.522 2     -2945.126          32.000  
C 5  39732417.879 2 206897095.25821        -9.780          35.000  
C 6  38547008.359 1 200724374.056 1     -1795.673          37.000  
C 8  40359610.856 2 210163088.536 2      1972.770          29.000  
G26  24940475.562 2 131063094.758 1     -2882.599          34.000  
G 4  24441452.610 8 128440704.221 4     -3354.520          31.000  
G 1  23637357.588 1 124215200.417 1      3971.979          40.000  
C28  25530362.607 2 132943284.057 1      3307.232          36.000  
> 2021  6  9  0 40 38.9990000  0 27                     
G 8  19744745.474 1 103759330.209 1      -415.593          48.000  
G27  20899196.109 1 109826013.225 1     -2481.650          45.000  
G 7  20561638.512 1 108052125.101 1      1638.605          45.000  
C 3  37290350.403 1 194180610.036 1        34.698          42.000  
C 1  37875301.455 1 197226602.061 1        -3.956          42.000  
G16  22863905.061 1 120150620.135 1     -2644.681          42.000  
G21  21638237.383 1 113709697.780 1      2689.814          43.000  
G30  23258444.703 1 122223965.913 1      3202.289          39.000  
C 7  35728495.686 1 186047623.814 1        89.326          45.000  
C25  21774040.148 1 113383094.602 1     -1086.146          48.000  
C11  21193368.744 1 110359406.830 1        49.565          45.000  
C10  36430925.207 1 189705351.267 1       275.930          43.000  
C23  22310311.428 1 116175612.263 1      1725.789          47.000  
C 9  37141708.471 1 193406579.972 1     -1659.625          40.000  
C 2  37906883.653 1 197391044.613 1        -9.241          38.000  
C12  23448689.382 1 122103447.224 1     -2647.864          42.000  
C 4  38613175.798 1 201068920.158 1        13.892          38.000  
G 9  23302527.216 1 122455615.025 1     -2765.917          37.000  
C16  38984216.200 1 203001009.801 1     -1890.930          40.000  
C24  25725671.760 4 133960284.133 2     -2945.649          32.000  
C 5  39732420.034 2 206897105.44021       -10.202          35.000  
C 6  38547353.123 2 200726170.067 1     -1795.850          37.000  
C 8  40359233.556 2 210161116.235 2      1972.141          29.000  
G26  24941024.476 2 131065978.149 1     -2882.877          34.000  
G 4  24442093.269 8 128444057.881 3     -3353.501          31.000  
G 1  23636601.994 1 124211229.069 1      3972.040          40.000  
C28  25529727.637 2 132939977.179 1      3307.343          36.000  
> 2021  6  9  0 40 39.9990000  0 27                     
G 8  19744824.541 1 103759745.111 1      -414.682          48.000  
G27  20899668.137 1 109828493.984 1     -2480.287          45.000  
G 7  20561326.450 1 108050485.945 1      1639.319          45.000  
C 3  37290343.632 1 194180574.627 1        35.798          42.000  
C 1  37875302.205 1 197226605.237 1        -2.751          42.000  
G16  22864408.116 1 120153263.962 1     -2643.497          42.000  
G21  21637725.297 1 113707007.202 1      2690.931          43.000  
G30  23257835.123 1 122220762.765 1      3203.417          39.000  
C 7  35728478.366 1 186047533.584 1        90.785          45.000  
C25  21774248.757 1 113384180.036 1     -1085.197          48.000  
C11  21193358.815 1 110359356.593 1        50.406          45.000  
C10  36430871.993 1 189705074.458 1       277.421          43.000  
C23  22309979.612 1 116173885.618 1      1726.918          47.000  
C 9  37142026.972 1 193408238.660 1     -1658.071          40.000  
C 2  37906885.363 1 197391053.138 1        -8.078          38.000  
C12  23449197.777 1 122106094.597 1     -2647.284          42.000  
C 4  38613173.355 1 201068905.667 1        14.880          38.000  
G 9  23303053.541 1 122458380.291 1     -2764.862          37.000  
C16  38984579.043 1 203002899.952 1     -1889.817          40.000  
C24  25726237.287 4 133963228.732 2     -2944.201          31.000  
C 5  39732421.761 2 206897114.42021        -8.450          35.000  
C 6  38547697.878 2 200727964.942 1     -1794.574          37.000  
C 8  40358854.049 2 210159142.675 2      1973.777          29.000  
G26  24941573.207 2 131068860.368 1     -2881.303          34.000  
G 4  24442731.947 8 128447410.387 2     -3352.962          32.000  
G 1  23635846.120 1 124207256.553 1      3973.151          40.000  
C28  25529092.362 2 132936669.263 1      3308.184          36.000  
> 2021  6  9  0 40 40.9990000  0 27                     
G 8  19744903.390 1 103760159.870 1      -414.711          48.000  
G27  20900140.009 1 109830974.416 1     -2480.085          45.000  
G 7  20561014.615 1 108048846.644 1      1639.215          45.000  
C 3  37290336.224 1 194180538.543 1        36.453          42.000  
C 1  37875302.519 1 197226607.764 1        -2.184          42.000  
G16  22864911.371 1 120155907.237 1     -2643.005          42.000  
G21  21637213.003 1 113704316.363 1      2691.010          43.000  
G30  23257225.360 1 122217559.155 1      3203.734          39.000  
C 7  35728460.846 1 186047442.679 1        91.205          45.000  
C25  21774457.051 1 113385265.213 1     -1085.139          48.000  
C11  21193349.270 1 110359306.215 1        50.646          45.000  
C10  36430818.866 1 189704796.983 1       277.802          43.000  
C23  22309648.049 1 116172158.613 1      1727.133          47.000  
C 9  37142345.657 1 193409896.807 1     -1657.884          40.000  
C 2  37906887.248 1 197391061.017 1        -7.530          38.000  
C12  23449706.067 1 122108741.552 1     -2646.844          42.000  
C 4  38613170.598 1 201068890.527 1        15.100          38.000  
G 9  23303579.848 1 122461145.109 1     -2764.698          38.000  
C16  38984941.902 1 203004789.467 1     -1889.229          40.000  
C24  25726802.604 4 133966172.818 2     -2944.662          31.000  
C 5  39732423.244 2 206897122.76721        -8.318          35.000  
C 6  38548042.232 2 200729759.180 1     -1794.013          36.000  
C 8  40358476.295 2 210157168.434 3      1974.942          29.000  
G26  24942121.764 2 131071742.000 1     -2881.190          34.000  
G 4  24443367.554 8 128450762.119 3     -3352.672          32.000  
G 1  23635090.308 1 124203283.394 1      3973.688          40.000  
C28  25528457.017 2 132933360.744 1      3309.119          36.000  
> 2021  6  9  0 40 41.9990000  0 27                     
G 8  19744982.387 1 103760574.530 1      -414.589          48.000  
G27  20900611.967 1 109833454.589 1     -2480.022          45.000  
G 7  20560702.535 1 108047207.211 1      1639.563          45.000  
C 3  37290329.105 1 194180501.840 1        37.241          42.000  
C 1  37875302.877 1 197226609.679 1        -1.600          42.000  
G16  22865414.164 1 120158550.002 1     -2642.512          42.000  
G21  21636701.074 1 113701625.313 1      2691.238          43.000  
G30  23256615.702 1 122214355.153 1      3204.285          39.000  
C 7  35728443.003 1 186047351.141 1        91.846          45.000  
C25  21774665.346 1 113386350.190 1     -1084.905          48.000  
C11  21193339.332 1 110359255.762 1        50.557          45.000  
C10  36430765.625 1 189704518.858 1       278.459          43.000  
C23  22309316.451 1 116170431.277 1      1727.577          47.000  
C 9  37142663.940 1 193411554.458 1     -1657.457          40.000  
C 2  37906888.670 1 197391068.277 1        -7.209          38.000  
C12  23450214.444 1 122111388.143 1     -2646.246          42.000  
C 4  38613167.675 1 201068874.762 1        16.034          38.000  
G 9  23304106.252 1 122463909.548 1     -2764.375          38.000  
C16  38985304.614 1 203006678.419 1     -1888.485          40.000  
C24  25727368.009 4 133969116.395 3     -2943.772          31.000  
C 5  39732424.789 2 206897130.53121        -7.839          35.000  
C 6  38548386.586 1 200731552.825 1     -1793.140          36.000  
C 8  40358096.805 2 210155193.634 2      1975.311          29.000  
G26  24942670.093 2 131074623.031 1     -2880.199          34.000  
G 4  24444002.253 8 128454113.074 3     -3350.657          32.000  
G 1  23634333.945 1 124199309.647 1      3974.023          40.000  
C28  25527821.410 2 132930051.765 1      3309.348          36.000  
> 2021  6  9  0 40 42.9990000  0 27                     
G 8  19745061.166 1 103760988.823 1      -414.430          48.000  
G27  20901083.769 1 109835934.191 1     -2479.720          45.000  
G 7  20560390.482 1 108045567.402 1      1639.819          45.000  
C 3  37290322.002 1 194180464.283 1        37.795          42.000  
C 1  37875303.296 1 197226610.719 1        -0.781          42.000  
G16  22865916.731 1 120161191.991 1     -2641.788          42.000  
G21  21636188.684 1 113698933.771 1      2691.305          43.000  
G30  23256006.236 1 122211150.481 1      3204.771          39.000  
C 7  35728425.422 1 186047258.704 1        92.594          45.000  
C25  21774873.745 1 113387434.682 1     -1084.584          48.000  
C11  21193329.499 1 110359204.934 1        50.735          45.000  
C10  36430712.027 1 189704239.834 1       279.182          43.000  
C23  22308984.818 1 116168703.350 1      1727.975          47.000  
C 9  37142982.119 1 193413211.334 1     -1656.655          40.000  
C 2  37906890.214 1 197391074.643 1        -6.341          38.000  
C12  23450722.533 1 122114034.127 1     -2645.959          42.000  
C 4  38613164.734 1 201068858.120 1        16.669          38.000  
G 9  23304632.236 1 122466673.308 1     -2763.649          38.000  
C16  38985667.247 1 203008566.535 1     -1887.943          40.000  
C24  25727932.925 4 133972059.290 3     -2943.217          31.000  
C 5  39732426.106 2 206897137.33521        -6.530          35.000  
C 6  38548730.695 2 200733345.649 1     -1792.737          36.000  
C 8  40357716.173 8 210153217.946 4      1975.654          29.000  
G26  24943218.239 2 131077503.276 1     -2879.785          34.000  
G 4  24444639.038 8 128457463.202 4     -3350.786          32.000  
G 1  23633577.217 1 124195335.002 1      3974.969          40.000  
C28  25527185.437 2 132926741.988 1      3310.209          36.000  
> 2021  6  9  0 40 43.9990000  0 27                     
G 8  19745139.875 1 103761403.899 1      -415.318          47.000  
G27  20901555.649 1 109838414.412 1     -2480.353          45.000  
G 7  20560078.733 1 108043928.404 1      1638.684          45.000  
C 3  37290315.241 1 194180427.008 1        37.157          42.000  
C 1  37875303.488 1 197226612.038 1        -1.167          42.000  
G16  22866419.594 1 120163834.391 1     -2642.516          42.000  
G21  21635676.520 1 113696242.907 1      2690.632          43.000  
G30  23255396.778 1 122207946.322 1      3204.096          39.000  
C 7  35728407.344 1 186047166.549 1        92.167          45.000  
C25  21775082.066 1 113388519.869 1     -1085.390          48.000  
C11  21193320.032 1 110359154.926 1        49.709          45.000  
C10  36430658.681 1 189703961.066 1       278.833          43.000  
C23  22308653.203 1 116166975.999 1      1727.317          47.000  
C 9  37143300.262 1 193414868.613 1     -1657.495          40.000  
C 2  37906891.689 1 197391081.284 1        -6.648          38.000  
C12  23451230.954 1 122116680.650 1     -2646.625          42.000  
C 4  38613161.515 1 201068841.752 1        16.522          38.000  
G 9  23305158.465 1 122469437.601 1     -2764.354          38.000  
C16  38986029.976 1 203010454.979 1     -1888.479          40.000  
C24  25728498.225 4 133975002.525 3     -2943.302          31.000  
C 5  39732427.581 2 206897143.97111        -7.315          35.000  
C 6  38549074.848 2 200735138.796 1     -1793.311          36.000  
C 8  40357338.646 4 210151242.475 3      1975.409          29.000  
G26  24943766.089 2 131080383.816 1     -2880.639          34.000  
G 4  24445278.483 8 128460813.508 3     -3351.256          31.000  
G 1  23632821.046 1 124191360.690 1      3974.273          40.000  
C28  25526550.039 2 132923432.673 1      3308.710          35.000  
> 2021  6  9  0 40 44.9990000  0 27                     
G 8  19745218.951 1 103761819.228 1      -415.212          47.000  
G27  20902027.642 1 109840894.714 1     -2480.094          45.000  
G 7  20559766.828 1 108042289.640 1      1638.904          45.000  
C 3  37290308.112 1 194180389.466 1        37.895          42.000  
C 1  37875303.401 1 197226613.125 1        -0.789          42.000  
G16  22866922.256 1 120166476.641 1     -2642.114          42.000  
G21  21635164.914 1 113693552.203 1      2690.726          44.000  
G30  23254787.216 1 122204742.134 1      3204.423          39.000  
C 7  35728389.850 1 186047074.121 1        92.841          45.000  
C25  21775290.404 1 113389605.205 1     -1085.222          48.000  
C11  21193311.002 1 110359105.193 1        49.746          45.000  
C10  36430605.083 1 189703682.026 1       279.367          43.000  
C23  22308321.309 1 116165248.678 1      1727.568          47.000  
C 9  37143618.380 1 193416525.739 1     -1656.930          40.000  
C 2  37906893.076 2 197391087.688 1        -5.688          38.000  
C12  23451739.471 1 122119327.196 1     -2646.369          42.000  
C 4  38613158.365 1 201068825.167 1        17.029          38.000  
G 9  23305684.807 1 122472201.874 1     -2764.044          38.000  
C16  38986392.609 1 203012343.195 1     -1887.947          40.000  
C24  25729063.088 4 133977945.723 3     -2942.856          31.000  
C 5  39732429.064 2 206897150.828 2        -5.880          35.000  
C 6  38549418.862 2 200736931.729 1     -1792.853          36.000  
C 8  40356962.070 4 210149266.690 3      1976.104          29.000  
G26  24944314.148 2 131083264.139 1     -2879.510          34.000  
G 4  24445920.957 8 128464163.428 3     -3349.911          32.000  
G 1  23632064.893 1 124187386.124 1      3974.866          40.000  
C28  25525914.372 2 132920123.123 1      3310.088          35.000  
> 2021  6  9  0 40 45.9990000  0 27                     
G 8  19745297.739 1 103762234.640 1      -415.365          47.000  
G27  20902499.906 1 109843374.901 1     -2479.887          45.000  
G 7  20559454.845 1 108040650.946 1      1638.953          45.000  
C 3  37290300.565 1 194180351.491 1        38.326          42.000  
C 1  37875303.619 1 197226613.759 1        -0.398          42.000  
G16  22867424.674 1 120169118.551 1     -2641.507          41.000  
G21  21634653.029 1 113690861.450 1      2690.741          44.000  
G30  23254177.889 1 122201537.715 1      3204.701          39.000  
C 7  35728371.920 1 186046981.232 1        93.220          45.000  
C25  21775498.733 1 113390690.507 1     -1085.142          48.000  
C11  21193301.404 1 110359055.526 1        49.797          45.000  
C10  36430551.354 1 189703402.516 1       279.747          43.000  
C23  22307989.571 1 116163521.205 1      1727.602          47.000  
C 9  37143936.689 1 193418182.530 1     -1656.595          40.000  
C 2  37906894.097 1 197391093.659 1        -5.601          38.000  
C12  23452247.900 1 122121973.545 1     -2646.094          42.000  
C 4  38613155.041 1 201068808.137 1        17.334          38.000  
G 9  23306210.783 1 122474965.920 1     -2763.651          38.000  
C16  38986755.285 1 203014231.004 1     -1887.599          40.000  
C24  25729627.777 8 133980888.615 3     -2942.620          30.000  
C 5  39732430.277 2 206897157.286 1        -6.020          35.000  
C 6  38549763.111 2 200738724.212 1     -1792.303          36.000  
C 8  40356575.085 4 210147290.501 2      1976.510          29.000  
G26  24944862.154 2 131086144.102 1     -2879.962          34.000  
G 4  24446559.216 8 128467512.844 2     -3348.540          32.000  
G 1  23631308.479 1 124183411.136 1      3975.153          40.000  
C28  25525278.948 2 132916813.288 1      3310.373          35.000  
> 2021  6  9  0 40 46.9990000  0 27                     
G 8  19745376.727 1 103762649.927 1      -415.418          47.000  
G27  20902971.839 1 109845854.785 1     -2480.096          45.000  
G 7  20559143.123 1 108039012.130 1      1638.739          45.000  
C 3  37290292.651 1 194180312.875 1        38.764          42.000  
C 1  37875303.628 1 197226613.746 1         0.237          42.000  
G16  22867927.223 1 120171759.940 1     -2641.499          41.000  
G21  21634140.682 1 113688170.449 1      2690.716          44.000  
G30  23253568.397 1 122198332.866 1      3204.758          39.000  
C 7  35728353.981 1 186046887.686 1        93.552          45.000  
C25  21775707.211 1 113391775.569 1     -1085.221          48.000  
C11  21193291.693 1 110359005.755 1        49.667          46.000  
C10  36430497.598 1 189703122.352 1       280.295          43.000  
C23  22307657.590 1 116161793.381 1      1727.847          47.000  
C 9  37144254.737 1 193419838.811 1     -1656.329          40.000  
C 2  37906895.022 1 197391098.969 1        -5.026          38.000  
C12  23452755.929 1 122124619.526 1     -2646.106          42.000  
C 4  38613151.254 1 201068790.453 1        17.950          38.000  
G 9  23306736.881 1 122477729.553 1     -2763.439          38.000  
C16  38987117.805 1 203016118.210 1     -1887.197          40.000  
C24  25730192.580 4 133983831.040 3     -2942.954          30.000  
C 5  39732431.123 4 206897163.082 2        -5.802          35.000  
C 6  38550107.186 2 200740516.097 1     -1791.541          36.000  
C 8  40356200.133 4 210145313.625 2      1977.255          29.000  
G26  24945409.934 2 131089023.416 1     -2879.143          34.000  
G 4  24447196.611 8 128470861.621 3     -3349.349          32.000  
G 1  23630551.846 1 124179435.510 1      3975.836          40.000  
C28  25524643.202 2 132913502.921 1      3310.375          35.000  
> 2021  6  9  0 40 47.9990000  0 27                     
G 8  19745455.864 1 103763065.637 1      -416.073          47.000  
G27  20903443.954 1 109848334.884 1     -2480.070          45.000  
G 7  20558831.313 1 108037373.687 1      1638.263          45.000  
C 3  37290284.982 1 194180274.140 1        38.791          42.000  
C 1  37875303.505 1 197226613.644 1         0.162          42.000  
G16  22868429.510 1 120174401.304 1     -2641.218          41.000  
G21  21633628.588 1 113685479.710 1      2690.594          44.000  
G30  23252958.721 1 122195128.104 1      3204.714          39.000  
C 7  35728335.842 1 186046793.994 1        93.737          45.000  
C25  21775915.706 1 113392860.922 1     -1085.430          48.000  
C11  21193282.148 1 110358956.406 1        49.065          46.000  
C10  36430443.791 1 189702842.047 1       280.352          43.000  
C23  22307325.713 1 116160065.725 1      1727.554          47.000  
C 9  37144572.845 1 193421495.083 1     -1656.337          40.000  
C 2  37906896.069 1 197391104.156 1        -5.327          38.000  
C12  23453264.061 1 122127265.643 1     -2646.338          42.000  
C 4  38613147.572 1 201068772.660 1        18.011          38.000  
G 9  23307262.717 1 122480493.301 1     -2763.545          37.000  
C16  38987480.298 1 203018005.313 1     -1886.654          40.000  
C24  25730756.501 8 133986773.495 3     -2942.567          29.000  
C 5  39732432.694 2 206897168.758 1        -5.845          35.000  
C 6  38550451.199 2 200742307.924 1     -1791.614          36.000  
C 8  40355822.274 4 210143336.659 3      1976.872          29.000  
G26  24945957.705 2 131091902.714 1     -2879.516          34.000  
G 4  24447831.878 8 128474210.132 3     -3347.903          32.000  
G 1  23629795.257 1 124175459.803 1      3975.659          39.000  
C28  25524007.516 2 132910192.526 1      3310.797          35.000  
> 2021  6  9  0 40 48.9990000  0 27                     
G 8  19745535.262 1 103763482.577 1      -417.624          47.000  
G27  20903916.341 1 109850816.038 1     -2481.564          45.000  
G 7  20558519.504 1 108035736.483 1      1636.560          45.000  
C 3  37290278.080 1 194180236.130 1        37.520          42.000  
C 1  37875303.689 1 197226614.244 1        -0.977          42.000  
G16  22868932.355 1 120177043.511 1     -2642.577          41.000  
G21  21633116.712 1 113682790.091 1      2689.110          44.000  
G30  23252348.862 1 122191924.297 1      3203.017          39.000  
C 7  35728317.981 1 186046700.992 1        92.543          45.000  
C25  21776124.402 1 113393947.397 1     -1087.146          48.000  
C11  21193272.978 1 110358908.280 1        47.358          46.000  
C10  36430389.887 1 189702562.451 1       279.253          43.000  
C23  22306994.115 1 116158339.070 1      1726.077          47.000  
C 9  37144890.980 1 193423152.177 1     -1657.602          40.000  
C 2  37906897.090 1 197391110.063 1        -6.430          38.000  
C12  23453772.465 1 122129912.739 1     -2647.742          42.000  
C 4  38613144.187 1 201068755.609 1        16.595          38.000  
G 9  23307788.684 1 122483258.008 1     -2765.298          37.000  
C16  38987842.949 1 203019893.201 1     -1888.162          40.000  
C24  25731314.437 4 133989716.783 3     -2943.856          29.000  
C 5  39732434.194 4 206897175.128 2        -6.173          35.000  
C 6  38550795.379 2 200744100.464 1     -1792.645          36.000  
C 8  40355442.243 4 210141360.358 2      1976.031          29.000  
G26  24946505.668 4 131094782.732 2     -2880.403          34.000  
G 4  24448463.951 8 128477559.345 2     -3349.116          32.000  
G 1  23629038.842 2 124171484.815 1      3974.805          40.000  
C28  25523371.822 2 132906882.987 1      3308.577          35.000  
> 2021  6  9  0 40 49.9990000  0 27                     
G 8  19745615.010 1 103763900.700 1      -418.935          47.000  
G27  20904388.770 1 109853298.204 1     -2482.763          45.000  
G 7  20558208.358 1 108034100.447 1      1635.309          45.000  
C 3  37290271.030 1 194180198.776 1        36.790          42.000  
C 1  37875303.706 1 197226615.502 1        -1.657          42.000  
G16  22869435.070 1 120179686.498 1     -2643.214          41.000  
G21  21632605.142 1 113680101.560 1      2687.738          44.000  
G30  23251738.837 1 122188721.390 1      3202.046          39.000  
C 7  35728300.234 1 186046608.646 1        91.732          45.000  
C25  21776333.072 1 113395034.938 1     -1088.199          48.000  
C11  21193264.043 1 110358861.354 1        46.118          45.000  
C10  36430336.585 1 189702283.498 1       278.186          43.000  
C23  22306662.857 1 116156613.368 1      1724.952          47.000  
C 9  37145209.447 1 193424810.045 1     -1658.237          40.000  
C 2  37906898.207 1 197391116.623 1        -6.926          38.000  
C12  23454280.886 1 122132560.746 1     -2648.456          42.000  
C 4  38613141.063 1 201068739.205 1        15.924          38.000  
G 9  23308314.878 1 122486023.612 1     -2766.096          37.000  
C16  38988205.713 1 203021781.794 1     -1889.292          40.000  
C24  25731876.456 4 133992660.899 2     -2944.778          30.000  
C 5  39732435.634 2 206897182.242 2        -8.147          34.000  
C 6  38551139.619 2 200745893.718 1     -1793.359          36.000  
C 8  40355061.087 4 210139384.732 3      1974.920          29.000  
G26  24947053.832 4 131097663.483 2     -2880.867          33.000  
G 4  24449102.873 8 128480909.155 3     -3350.665          32.000  
G 1  23628282.437 1 124167510.539 1      3973.492          39.000  
C28  25522736.477 2 132903574.183 1      3308.526          35.000  
> 2021  6  9  0 40 50.9990000  0 27                     
G 8  19745694.862 1 103764319.974 1      -419.732          47.000  
G27  20904861.689 1 109855781.372 1     -2483.599          45.000  
G 7  20557897.474 1 108032465.589 1      1634.497          45.000  
C 3  37290263.727 1 194180162.069 1        36.647          42.000  
C 1  37875304.134 1 197226617.437 1        -1.963          42.000  
G16  22869938.125 1 120182330.275 1     -2644.120          41.000  
G21  21632093.911 1 113677414.070 1      2687.165          44.000  
G30  23251129.153 1 122185519.337 1      3201.732          39.000  
C 7  35728282.732 1 186046516.926 1        91.463          45.000  
C25  21776542.126 1 113396123.542 1     -1089.049          48.000  
C11  21193255.030 1 110358815.597 1        45.468          45.000  
C10  36430283.161 1 189702005.155 1       278.343          43.000  
C23  22306331.460 1 116154888.614 1      1724.345          47.000  
C 9  37145527.887 1 193426468.680 1     -1658.838          40.000  
C 2  37906899.952 1 197391123.848 1        -7.335          38.000  
C12  23454789.778 1 122135209.686 1     -2649.200          42.000  
C 4  38613138.149 1 201068723.456 1        15.717          38.000  
G 9  23308841.115 1 122488790.113 1     -2766.755          38.000  
C16  38988568.764 1 203023671.065 1     -1889.707          40.000  
C24  25732449.992 8 133995605.776 3     -2945.383          30.000  
C 5  39732437.126 4 206897189.914 2        -7.864          34.000  
C 6  38551484.174 2 200747687.682 1     -1794.257          36.000  
C 8  40354682.958 4 210137409.707 2      1975.211          29.000  
G26  24947602.205 4 131100544.966 2     -2881.623          33.000  
G 4  24449742.633 8 128484259.499 3     -3350.745          33.000  
G 1  23627526.249 1 124163536.915 1      3973.236          40.000  
C28  25522101.167 4 132900266.143 2      3307.997          35.000  
> 2021  6  9  0 40 51.9990000  0 27                     
G 8  19745774.706 1 103764739.584 1      -419.332          47.000  
G27  20905334.433 1 109858264.676 1     -2482.774          45.000  
G 7  20557586.467 1 108030831.063 1      1634.814          45.000  
C 3  37290256.285 1 194180125.195 1        37.751          42.000  
C 1  37875304.474 1 197226619.203 1        -1.216          42.000  
G16  22870441.075 1 120184973.958 1     -2642.952          41.000  
G21  21631582.777 1 113674726.817 1      2687.678          44.000  
G30  23250519.425 1 122182317.340 1      3202.706          39.000  
C 7  35728265.011 1 186046425.039 1        92.500          45.000  
C25  21776751.319 1 113397212.376 1     -1088.416          48.000  
C11  21193246.427 1 110358770.192 1        45.767          45.000  
C10  36430229.511 1 189701726.624 1       279.189          43.000  
C23  22306000.194 1 116153163.972 1      1724.948          47.000  
C 9  37145846.476 1 193428127.252 1     -1658.226          40.000  
C 2  37906901.470 1 197391130.912 1        -6.241          38.000  
C12  23455298.321 1 122137858.698 1     -2648.541          42.000  
C 4  38613135.296 1 201068707.529 1        16.565          38.000  
G 9  23309367.457 1 122491556.674 1     -2766.032          38.000  
C16  38988931.502 1 203025560.174 1     -1888.301          40.000  
C24  25733008.844 8 133998550.683 3     -2944.302          30.000  
C 5  39732438.697 2 206897202.95231        -6.855          34.000  
C 6  38551828.763 2 200749481.467 1     -1793.414          36.000  
C 8  40354305.266 4 210135434.537 3      1975.586          29.000  
G26  24948150.561 2 131103426.289 2     -2880.293          33.000  
G 4  24450381.163 4 128487609.593 2     -3348.565          32.000  
G 1  23626769.965 1 124159563.152 1      3974.090          39.000  
C28  25521465.534 4 132896958.073 2      3308.176          34.000  
> 2021  6  9  0 40 52.9990000  0 27                     
G 8  19745854.523 1 103765159.298 1      -419.981          48.000  
G27  20905806.609 1 109860747.914 1     -2483.332          45.000  
G 7  20557275.426 1 108029196.623 1      1634.009          45.000  
C 3  37290249.296 1 194180087.919 1        37.172          42.000  
C 1  37875305.006 1 197226620.541 1        -1.348          42.000  
G16  22870944.383 1 120187617.348 1     -2643.243          41.000  
G21  21631071.416 1 113672039.537 1      2687.033          44.000  
G30  23249909.505 1 122179115.155 1      3201.959          39.000  
C 7  35728247.378 1 186046332.713 1        92.274          45.000  
C25  21776960.355 1 113398301.196 1     -1089.042          48.000  
C11  21193237.859 1 110358724.887 1        45.165          45.000  
C10  36430175.904 1 189701447.675 1       278.854          43.000  
C23  22305669.006 1 116151439.199 1      1724.606          47.000  
C 9  37146164.960 1 193429785.525 1     -1658.442          40.000  
C 2  37906902.517 1 197391137.528 1        -6.315          38.000  
C12  23455807.300 1 122140507.569 1     -2649.188          42.000  
C 4  38613132.364 1 201068691.214 1        16.248          38.000  
G 9  23309894.096 1 122494323.032 1     -2766.386          38.000  
C16  38989294.475 1 203027448.947 1     -1888.989          40.000  
C24  25733578.847 8 134001495.253 3     -2944.673          30.000  
C 5  39732440.023 2 206897210.05621        -7.377          34.000  
C 6  38552173.152 2 200751274.857 1     -1793.231          36.000  
C 8  40353924.101 4 210133458.897 3      1975.533          29.000  
G26  24948698.812 4 131106307.291 2     -2881.224          33.000  
G 4  24451017.712 4 128490959.255 2     -3349.351          33.000  
G 1  23626013.926 1 124155588.966 1      3974.249          39.000  
C28  25520830.006 2 132893649.692 1      3308.615          34.000  
> 2021  6  9  0 40 53.9990000  0 27                     
G 8  19745934.497 1 103765578.951 1      -419.225          48.000  
G27  20906279.213 1 109863230.921 1     -2482.489          45.000  
G 7  20556964.480 1 108027562.137 1      1634.808          45.000  
C 3  37290242.412 1 194180050.072 1        38.255          42.000  
C 1  37875304.945 1 197226621.337 1        -0.318          42.000  
G16  22871447.403 1 120190260.294 1     -2642.325          41.000  
G21  21630560.011 1 113669352.099 1      2687.945          44.000  
G30  23249299.681 1 122175912.611 1      3203.120          39.000  
C 7  35728229.378 1 186046239.800 1        93.569          45.000  
C25  21777169.365 1 113399389.871 1     -1088.217          48.000  
C11  21193228.820 1 110358679.560 1        45.857          45.000  
C10  36430122.209 1 189701168.156 1       280.115          43.000  
C23  22305337.548 1 116149714.165 1      1725.552          47.000  
C 9  37146483.234 1 193431443.348 1     -1657.154          40.000  
C 2  37906903.887 1 197391143.613 1        -5.311          38.000  
C12  23456315.956 1 122143156.117 1     -2648.053          42.000  
C 4  38613129.258 1 201068674.336 1        17.548          38.000  
G 9  23310420.412 1 122497089.077 1     -2765.865          38.000  
C16  38989657.169 1 203029337.177 1     -1887.599          40.000  
C24  25734143.902 4 134004439.481 3     -2943.689          29.000  
C 5  39732441.288 2 206897216.62321        -5.792          35.000  
C 6  38552517.462 2 200753067.775 1     -1792.480          36.000  
C 8  40353544.916 4 210131482.692 2      1976.790          29.000  
G26  24949247.106 2 131109187.752 1     -2880.909          33.000  
G 4  24451656.224 4 128494308.288 2     -3348.637          33.000  
G 1  23625257.241 1 124151614.241 1      3975.519          39.000  
C28  25520194.539 4 132890340.825 2      3309.909          34.000  
> 2021  6  9  0 40 54.9990000  0 27                     
G 8  19746014.236 1 103765998.142 1      -419.654          48.000  
G27  20906751.582 1 109865713.288 1     -2482.588          45.000  
G 7  20556653.308 1 108025927.184 1      1634.625          45.000  
C 3  37290235.161 1 194180011.261 1        38.692          42.000  
C 1  37875304.858 1 197226621.167 1        -0.024          42.000  
G16  22871950.388 1 120192902.367 1     -2642.242          41.000  
G21  21630048.746 1 113666664.089 1      2687.674          44.000  
G30  23248689.997 1 122172709.318 1      3203.085          39.000  
C 7  35728210.977 1 186046145.900 1        93.799          45.000  
C25  21777378.453 1 113400477.982 1     -1088.421          48.000  
C11  21193219.816 1 110358633.809 1        45.288          45.000  
C10  36430068.358 1 189700887.644 1       280.596          43.000  
C23  22305006.212 1 116147988.447 1      1725.536          47.000  
C 9  37146801.378 1 193433100.335 1     -1657.424          40.000  
C 2  37906904.724 1 197391148.735 1        -5.158          38.000  
C12  23456824.394 1 122145803.987 1     -2648.157          42.000  
C 4  38613125.646 1 201068656.481 1        17.657          38.000  
G 9  23310946.667 1 122499854.367 1     -2765.931          38.000  
C16  38990019.401 1 203031224.485 1     -1887.665          40.000  
C24  25734711.165 8 134007382.874 3     -2943.989          30.000  
C 5  39732442.108 2 206897221.21931        -5.472          34.000  
C 6  38552861.450 1 200754859.720 1     -1791.840          37.000  
C 8  40353164.344 4 210129505.480 2      1977.471          29.000  
G26  24949795.061 2 131112067.251 1     -2879.878          33.000  
G 4  24452293.419 4 128497656.239 2     -3348.303          33.000  
G 1  23624500.940 1 124147638.598 1      3975.385          39.000  
C28  25519558.775 4 132887031.195 2      3309.313          34.000  
> 2021  6  9  0 40 55.9990000  0 27                     
G 8  19746093.914 1 103766417.849 1      -420.188          48.000  
G27  20907224.134 1 109868195.981 1     -2482.767          45.000  
G 7  20556342.258 1 108024292.743 1      1634.161          45.000  
C 3  37290227.597 1 194179972.457 1        38.863          42.000  
C 1  37875304.570 1 197226621.005 1         0.303          42.000  
G16  22872453.233 1 120195544.562 1     -2642.481          41.000  
G21  21629537.341 1 113663976.488 1      2687.171          44.000  
G30  23248080.530 1 122169506.264 1      3202.867          39.000  
C 7  35728193.099 1 186046051.978 1        94.014          45.000  
C25  21777587.699 1 113401566.512 1     -1088.777          48.000  
C11  21193211.082 1 110358588.575 1        44.843          45.000  
C10  36430014.541 1 189700607.149 1       280.356          43.000  
C23  22304674.667 1 116146263.027 1      1725.169          47.000  
C 9  37147119.783 1 193434757.431 1     -1657.363          40.000  
C 2  37906905.666 1 197391153.856 1        -5.078          38.000  
C12  23457332.903 1 122148452.107 1     -2648.260          42.000  
C 4  38613122.339 1 201068638.658 1        17.859          38.000  
G 9  23311473.062 1 122502619.863 1     -2765.175          38.000  
C16  38990381.502 1 203033111.825 1     -1887.415          40.000  
C24  25735275.374 8 134010326.375 3     -2944.305          30.000  
C 5  39732443.225 4 206897226.85922        -6.284          34.000  
C 6  38553205.629 1 200756651.716 1     -1792.108          37.000  
C 8  40352786.704 4 210127528.276 3      1977.650          29.000  
G26  24950343.102 2 131114946.829 1     -2879.160          33.000  
G 4  24452930.352 4 128501004.089 2     -3347.400          33.000  
G 1  23623744.202 1 124143662.941 1      3975.732          39.000  
C28  25518923.352 2 132883721.593 1      3309.595          34.000  
> 2021  6  9  0 40 56.9990000  0 27                     
G 8  19746174.158 1 103766838.566 1      -421.246          48.000  
G27  20907696.660 1 109870679.543 1     -2484.045          45.000  
G 7  20556031.487 1 108022659.328 1      1632.935          45.000  
C 3  37290220.041 1 194179934.155 1        38.038          42.000  
C 1  37875304.779 1 197226621.352 1        -0.750          42.000  
G16  22872956.306 1 120198187.361 1     -2642.997          41.000  
G21  21629025.936 1 113661289.776 1      2686.364          44.000  
G30  23247471.230 1 122166303.908 1      3202.063          39.000  
C 7  35728175.212 1 186045958.553 1        93.082          45.000  
C25  21777796.936 1 113402655.927 1     -1089.775          48.000  
C11  21193202.871 1 110358544.349 1        43.867          45.000  
C10  36429960.908 1 189700327.094 1       279.733          43.000  
C23  22304343.444 1 116144538.388 1      1724.276          47.000  
C 9  37147438.084 1 193436415.134 1     -1658.183          40.000  
C 2  37906906.618 2 197391159.481 1        -5.920          38.000  
C12  23457841.323 1 122151100.977 1     -2649.237          42.000  
C 4  38613118.875 1 201068621.326 1        17.090          38.000  
G 9  23311999.840 1 122505386.128 1     -2766.638          38.000  
C16  38990744.065 1 203034999.715 1     -1888.475          40.000  
C24  25735843.693 8 134013270.537 3     -2945.333          30.000  
C 5  39732444.228 2 206897232.92021        -6.129          34.000  
C 6  38553549.913 2 200758444.231 1     -1792.859          37.000  
C 8  40352406.063 4 210125551.595 2      1976.309          29.000  
G26  24950891.144 2 131117826.970 1     -2880.457          33.000  
G 4  24453567.546 4 128504352.435 3     -3348.729          33.000  
G 1  23622987.674 1 124139687.827 1      3974.817          39.000  
C28  25518287.815 2 132880412.634 1      3308.411          34.000  
> 2021  6  9  0 40 57.9990000  0 27                     
G 8  19746254.456 1 103767260.449 1      -422.332          47.000  
G27  20908169.334 1 109873164.075 1     -2485.136          45.000  
G 7  20555720.830 1 108021027.057 1      1631.921          45.000  
C 3  37290212.694 1 194179896.502 1        37.247          42.000  
C 1  37875304.989 1 197226622.330 1        -1.281          42.000  
G16  22873459.518 1 120200830.934 1     -2644.126          41.000  
G21  21628514.933 1 113658604.125 1      2685.160          44.000  
G30  23246862.409 1 122163102.428 1      3201.348          39.000  
C 7  35728157.570 1 186045865.736 1        92.767          45.000  
C25  21778006.522 1 113403746.408 1     -1090.945          48.000  
C11  21193194.556 1 110358501.312 1        42.688          45.000  
C10  36429907.083 1 189700047.666 1       279.067          43.000  
C23  22304012.457 1 116142814.698 1      1723.192          47.000  
C 9  37147756.681 1 193438073.588 1     -1658.682          40.000  
C 2  37906907.455 2 197391165.741 1        -6.379          38.000  
C12  23458350.050 1 122153750.761 1     -2649.976          42.000  
C 4  38613115.429 1 201068604.636 1        16.553          38.000  
G 9  23312526.671 1 122508153.268 1     -2767.371          38.000  
C16  38991106.733 1 203036888.266 1     -1888.745          40.000  
C24  25736411.898 8 134016215.499 3     -2945.772          29.000  
C 5  39732445.555 2 206897239.66121        -7.218          34.000  
C 6  38553894.529 2 200760237.442 1     -1793.414          37.000  
C 8  40352028.126 8 210123575.510 4      1975.160          29.000  
G26  24951439.421 4 131120707.789 2     -2881.341          33.000  
G 4  24454204.758 4 128507701.350 2     -3348.611          33.000  
G 1  23622231.321 1 124135713.350 1      3974.676          39.000  
C28  25517652.418 2 132877104.413 1      3307.969          34.000  
> 2021  6  9  0 40 58.9990000  0 27                     
G 8  19746334.831 1 103767683.348 1      -423.526          47.000  
G27  20908642.217 1 109875649.424 1     -2485.789          45.000  
G 7  20555410.748 1 108019395.819 1      1630.499          45.000  
C 3  37290205.941 1 194179859.333 1        36.777          42.000  
C 1  37875305.102 1 197226623.828 1        -1.978          42.000  
G16  22873962.825 1 120203475.098 1     -2644.646          41.000  
G21  21628003.895 1 113655919.371 1      2684.097          44.000  
G30  23246253.824 1 122159901.688 1      3200.482          39.000  
C 7  35728139.762 1 186045773.414 1        91.938          45.000  
C25  21778216.003 1 113404837.786 1     -1091.937          48.000  
C11  21193186.521 1 110358459.286 1        41.505          45.000  
C10  36429853.493 1 189699768.703 1       278.466          43.000  
C23  22303681.584 1 116141091.781 1      1722.267          47.000  
C 9  37148075.130 1 193439732.654 1     -1659.380          40.000  
C 2  37906908.781 1 197391172.502 1        -7.178          38.000  
C12  23458859.247 1 122156401.312 1     -2651.184          42.000  
C 4  38613112.506 1 201068588.459 1        15.741          38.000  
G 9  23313053.764 1 122510921.146 1     -2768.516          38.000  
C16  38991469.462 1 203038777.366 1     -1889.454          40.000  
C24  25736978.629 8 134019161.104 4     -2945.774          29.000  
C 5  39732447.029 4 206897246.90622        -7.574          34.000  
C 6  38554239.083 2 200762031.181 1     -1794.263          37.000  
C 8  40351649.290 8 210121599.866 3      1975.448          29.000  
G26  24951987.488 4 131123589.174 2     -2881.789          32.000  
G 4  24454842.049 8 128511050.714 3     -3349.952          33.000  
G 1  23621475.124 1 124131739.433 1      3973.700          39.000  
C28  25517017.099 2 132873796.798 2      3307.209          34.000  
> 2021  6  9  0 40 59.9990000  0 27                     
G 8  19746415.451 1 103768107.624 1      -425.003          47.000  
G27  20909115.624 1 109878135.980 1     -2487.064          45.000  
G 7  20555100.605 1 108017765.932 1      1629.279          45.000  
C 3  37290199.301 1 194179823.018 1        35.894          42.000  
C 1  37875305.687 1 197226626.155 1        -2.775          42.000  
G16  22874465.959 1 120206120.254 1     -2645.699          41.000  
G21  21627493.537 1 113653235.877 1      2682.789          44.000  
G30  23245645.265 1 122156702.011 1      3199.151          39.000  
C 7  35728122.164 1 186045681.947 1        91.052          45.000  
C25  21778425.789 1 113405930.411 1     -1093.190          48.000  
C11  21193178.511 1 110358418.661 1        39.845          45.000  
C10  36429800.148 1 189699490.603 1       277.423          43.000  
C23  22303350.972 1 116139370.011 1      1721.112          47.000  
C 9  37148393.998 1 193441392.706 1     -1660.456          40.000  
C 2  37906910.020 1 197391180.122 1        -8.205          38.000  
C12  23459368.436 1 122159052.954 1     -2652.228          42.000  
C 4  38613109.469 1 201068573.122 1        15.125          38.000  
G 9  23313581.170 1 122513690.095 1     -2769.475          38.000  
C16  38991832.156 1 203040667.350 1     -1890.442          40.000  
C24  25737544.531 8 134022107.709 3     -2947.580          29.000  
C 5  39732448.347 2 206897254.99621        -8.600          34.000  
C 6  38554583.839 1 200763825.779 1     -1795.294          37.000  
C 8  40351268.945 4 210119625.082 3      1974.121          29.000  
G26  24952535.905 4 131126471.440 2     -2882.401          32.000  
G 4  24455479.418 4 128514400.813 3     -3350.387          33.000  
G 1  23620718.840 1 124127766.394 1      3972.449          39.000  
C28  25516381.745 2 132870490.175 1      3306.358          34.000  
> 2021  6  9  0 41  0.9990000  0 27                     
G 8  19746496.813 1 103768533.435 1      -426.265          48.000  
G27  20909588.961 1 109880623.888 1     -2488.150          45.000  
G 7  20554790.654 1 108016137.575 1      1628.088          45.000  
C 3  37290192.365 1 194179787.726 1        35.063          42.000  
C 1  37875306.332 1 197226629.509 1        -3.692          42.000  
G16  22874969.616 1 120208766.533 1     -2646.532          41.000  
G21  21626983.257 1 113650553.803 1      2681.579          44.000  
G30  23245036.863 1 122153503.580 1      3198.169          39.000  
C 7  35728104.495 1 186045591.451 1        90.232          45.000  
C25  21778635.864 1 113407024.465 1     -1094.496          48.000  
C11  21193171.321 1 110358379.537 1        38.846          45.000  
C10  36429746.829 1 189699213.466 1       276.870          43.000  
C23  22303020.770 1 116137649.517 1      1720.266          47.000  
C 9  37148712.901 1 193443053.880 1     -1661.718          40.000  
C 2  37906911.504 1 197391188.729 1        -9.045          38.000  
C12  23459878.069 1 122161705.856 1     -2653.082          42.000  
C 4  38613106.459 1 201068558.810 1        14.130          38.000  
G 9  23314108.411 1 122516460.318 1     -2770.840          38.000  
C16  38992195.173 1 203042558.380 1     -1891.289          40.000  
C24  25738115.441 4 134025055.445 3     -2947.705          29.000  
C 5  39732449.996 4 206897262.08832        -9.134          34.000  
C 6  38554928.960 2 200765621.430 1     -1795.746          37.000  
C 8  40350884.430 4 210117651.298 2      1973.560          29.000  
G26  24953084.365 4 131129354.784 2     -2882.970          32.000  
G 4  24456117.058 4 128517751.879 2     -3351.352          33.000  
G 1  23619962.880 1 124123794.384 1      3971.606          39.000  
C28  25515746.950 4 132867184.648 2      3305.030          34.000  
> 2021  6  9  0 41  1.9990000  0 27                     
G 8  19746578.183 1 103768960.323 1      -427.247          48.000  
G27  20910062.552 1 109883112.691 1     -2488.929          45.000  
G 7  20554480.965 1 108014510.293 1      1626.917          45.000  
C 3  37290185.236 1 194179752.995 1        34.206          42.000  
C 1  37875306.961 1 197226633.435 1        -4.277          42.000  
G16  22875473.124 1 120211413.485 1     -2647.194          41.000  
G21  21626473.205 1 113647872.689 1      2680.876          44.000  
G30  23244428.837 1 122150305.939 1      3197.289          39.000  
C 7  35728087.551 1 186045501.480 1        89.951          45.000  
C25  21778846.279 1 113408119.471 1     -1095.339          48.000  
C11  21193163.940 1 110358341.522 1        37.573          45.000  
C10  36429693.798 1 189698936.853 1       276.473          43.000  
C23  22302690.499 1 116135929.901 1      1719.243          47.000  
C 9  37149032.048 1 193444715.701 1     -1662.211          40.000  
C 2  37906913.414 1 197391197.918 1        -9.302          38.000  
C12  23460387.825 1 122164359.595 1     -2654.077          42.000  
C 4  38613103.807 1 201068545.061 1        13.495          38.000  
G 9  23314635.608 1 122519231.282 1     -2770.865          38.000  
C16  38992558.155 1 203044449.987 1     -1891.405          40.000  
C24  25738682.643 4 134028003.887 2     -2948.377          29.000  
C 5  39732451.741 4 206897271.75722       -10.321          34.000  
C 6  38555273.942 1 200767417.682 1     -1796.704          37.000  
C 8  40350510.323 4 210115678.012 2      1973.114          29.000  
G26  24953632.983 4 131132238.745 2     -2883.962          32.000  
G 4  24456754.794 4 128521103.441 2     -3351.803          33.000  
G 1  23619207.303 1 124119822.934 1      3971.368          39.000  
C28  25515112.416 2 132863879.767 1      3305.423          34.000  
> 2021  6  9  0 41  2.9990000  0 27                     
G 8  19746659.632 1 103769388.287 1      -428.392          48.000  
G27  20910536.421 1 109885602.393 1     -2489.973          45.000  
G 7  20554171.695 1 108012884.096 1      1625.647          45.000  
C 3  37290178.675 1 194179718.803 1        34.029          42.000  
C 1  37875307.850 1 197226637.909 1        -4.741          42.000  
G16  22875976.842 1 120214061.115 1     -2647.661          41.000  
G21  21625962.978 1 113645192.549 1      2679.783          44.000  
G30  23243820.435 1 122147109.079 1      3196.606          39.000  
C 7  35728070.371 1 186045412.075 1        89.393          45.000  
C25  21779056.772 1 113409215.445 1     -1096.312          48.000  
C11  21193156.716 1 110358304.582 1        36.508          45.000  
C10  36429640.723 1 189698660.819 1       276.049          43.000  
C23  22302360.384 1 116134211.118 1      1718.419          47.000  
C 9  37149351.020 1 193446378.199 1     -1662.631          40.000  
C 2  37906915.238 1 197391207.631 1        -9.511          38.000  
C12  23460897.572 1 122167014.145 1     -2654.974          42.000  
C 4  38613101.294 1 201068531.868 1        13.239          38.000  
G 9  23315162.971 1 122522003.080 1     -2772.022          38.000  
C16  38992921.486 1 203046342.205 1     -1892.246          40.000  
C24  25739251.014 4 134030953.057 2     -2949.221          29.000  
C 5  39732453.460 4 206897279.96532       -10.513          34.000  
C 6  38555618.916 2 200769214.518 1     -1796.991          37.000  
C 8  40350132.282 4 210113705.298 2      1972.741          29.000  
G26  24954181.766 4 131135123.354 2     -2885.033          31.000  
G 4  24457392.573 4 128524455.476 2     -3351.844          33.000  
G 1  23618451.534 1 124115852.087 1      3970.624          39.000  
C28  25514478.136 4 132860575.634 2      3303.878          34.000  
