     3.03           OBSERVATION DATA    M: Mixed            RINEX VERSION / TYPE
RTKCONV 2.4.3 Emlid                     20210225 025858 UTC PGM / RUN BY / DATE 
log: D:\SHMILY\RTK\blox\COM8_210225_025158.ubx              COMMENT             
format: u-blox                                              COMMENT             
PING                                                        MARKER NAME         
NIE                                                         MARKER NUMBER       
                                                            MARKER TYPE         
                                                            OBSERVER / AGENCY   
                                                            REC # / TYPE / VERS 
                                                            ANT # / TYPE        
 -2168783.9853  4386829.6042  4076914.4720                  APPROX POSITION XYZ 
        0.0000        0.0000        0.0000                  ANTENNA: DELTA H/E/N
G    4 C1C L1C D1C S1C                                      SYS / # / OBS TYPES 
E    4 C1C L1C D1C S1C                                      SYS / # / OBS TYPES 
C    4 C1I L1I D1I S1I                                      SYS / # / OBS TYPES 
     1.000                                                  INTERVAL            
  2021     2    25     2    52    8.9940000     GPS         TIME OF FIRST OBS   
  2021     2    25     2    58   55.9980000     GPS         TIME OF LAST OBS    
G                                                           SYS / PHASE SHIFT   
E                                                           SYS / PHASE SHIFT   
C                                                           SYS / PHASE SHIFT   
  0                                                         GLONASS SLOT / FRQ #
 C1C    0.000 C1P    0.000 C2C    0.000 C2P    0.000        GLONASS COD/PHS/BIS 
                                                            END OF HEADER       
> 2021  2 25  2 52  8.9940000  0 25                     
G31  18561183.845 2  97539673.59421      -184.675          47.000  
G26  18801323.533 2  98801626.91821      2231.538          46.000  
G32  19884523.586 1 104493884.48521     -2264.449          48.000  
G22  21121767.441 2 110995655.32921      -545.339          41.000  
G29  20993404.739 2 110321094.34321      1288.474          46.000  
G 3  21025327.086 2 110488831.68521       973.765          38.000  
G16  20956417.991 2 110126724.14121      3944.357          40.000  
G25  21242397.010 2 111629543.93721     -3067.100          42.000  
C16  34163547.246 2 177898528.28321       382.245          48.000  
C 6  34074302.818 2 177433807.22321       416.064          46.000  
C 9  34012334.949 2 177111125.68421       774.536          45.000  
C 7  34960610.580 2 182049032.42821      1079.217          44.000  
C26  20307073.137 2 105744223.98221      1643.874          46.000  
C21  21097758.399 2 109861532.17121     -1797.726          48.000  
C 3  35871629.491 2 186792950.99421       336.051          43.000  
C10  36195245.734 2 188478112.87821      1354.305          41.000  
C 1  36451526.943 2 189812625.22221       346.239          44.000  
C 2  36311204.472 4 189081946.27821       310.595          38.000  
C 4  37217781.360 2 193802728.34021       354.066          41.000  
C29  23296631.684 2 121311640.26721      2288.870          43.000  
C 5  38339202.938 4 199642275.55922       319.435          35.000  
G 4  22546021.128 4 118480120.01421      3764.330          37.000  
C22  24401098.456 8 127062845.79623     -3129.583          31.000  
C24  24502880.847 8 127592807.67025      2918.097          26.000  
C30  24147586.770 4 125742762.72222        54.136          32.000  
> 2021  2 25  2 52  9.9940000  0 25                     
G31  18561219.252 1  97539858.84021      -189.836          47.000  
G26  18800898.551 1  98799396.02521      2226.311          46.000  
G32  19884954.711 1 104496149.55221     -2269.651          48.000  
G22  21121871.445 2 110996201.28721      -550.690          41.000  
G29  20993159.616 2 110319806.73521      1282.891          46.000  
G 3  21025143.457 2 110487858.81121       968.294          38.000  
G16  20955667.910 2 110122780.36421      3939.212          41.000  
G25  21242980.650 2 111632611.57021     -3072.248          42.000  
C16  34163474.443 1 177898146.51821       377.277          48.000  
C 6  34074223.088 1 177433391.53121       411.353          46.000  
C 9  34012186.116 1 177110351.56021       769.666          45.000  
C 7  34960402.731 1 182047953.68821      1074.300          44.000  
C26  20306757.340 1 105742580.46321      1639.119          46.000  
C21  21098103.757 1 109863330.45721     -1802.895          48.000  
C 3  35871565.013 1 186792615.43921       331.282          43.000  
C10  36194985.621 1 188476758.86621      1349.636          41.000  
C 1  36451460.370 2 189812279.47421       341.528          43.000  
C 2  36311144.845 2 189081635.81821       306.029          38.000  
C 4  37217713.566 1 193802374.18811       349.031          41.000  
C29  23296192.235 1 121309352.08721      2283.755          43.000  
C 5  38339142.560 2 199641956.38821       314.365          36.000  
G 4  22545306.157 2 118476355.69121      3759.971          37.000  
C22  24401699.528 8 127065975.63923     -3133.912          31.000  
C24  24502322.789 8 127589889.81125      2913.418          27.000  
C30  24147576.353 4 125742709.49622        48.815          33.000  
> 2021  2 25  2 52 10.9980000  0 25                     
G31  19760425.926 1 103841731.41121      -196.821          47.000  
G26  19999645.324 1 105098852.56821      2219.109          46.000  
G32  21084557.138 1 110800102.09221     -2277.416          48.000  
G22  22321146.803 2 117298434.62721      -557.551          41.000  
G29  22192086.074 2 116620206.89521      1275.062          46.000  
G 3  22224129.421 2 116788573.48021       960.964          38.000  
G16  22154088.888 2 116420523.78321      3932.354          41.000  
G25  22442735.732 1 117937366.56121     -3079.567          42.000  
C16  35362572.472 1 184142163.78221       370.563          48.000  
C 6  35273314.521 1 183677374.87421       404.474          46.000  
C 9  35211208.585 1 183353976.38721       763.196          45.000  
C 7  36159366.795 1 188291273.94821      1067.481          44.000  
C26  21505613.020 1 111985336.03221      1632.235          46.000  
C21  22297620.416 1 116109528.02721     -1810.022          48.000  
C 3  37070671.819 1 193036678.757 1       324.313          43.000  
C10  37393896.758 2 194719803.78721      1342.959          41.000  
C 1  37650565.118 1 196056332.24311       334.274          43.000  
C 2  37510256.520 2 195325724.15021       299.475          38.000  
C 4  38416816.970 2 200046419.582 1       341.748          41.000  
C29  24494924.141 1 127551463.32921      2276.063          43.000  
C 5  39538252.264 2 205886035.98021       308.138          36.000  
G 4  23743761.634 2 124774278.40421      3752.943          37.000  
C22  25601474.713 8 133313504.37323     -3140.526          30.000  
C24  25700935.754 8 133831370.98924      2906.014          27.000  
C30  25346737.098 4 131987055.88322        41.122          33.000  
> 2021  2 25  2 52 11.9980000  0 25                     
G31  19760463.688 1 103841930.26521      -202.097          47.000  
G26  19999223.692 1 105096635.66021      2213.354          46.000  
G32  21084991.230 1 110802381.07721     -2282.719          48.000  
G22  22321253.197 1 117298994.51321      -563.548          41.000  
G29  22191844.232 1 116618933.69321      1269.620          45.000  
G 3  22223946.455 2 116787614.76921       955.472          38.000  
G16  22153340.361 2 116416593.54821      3926.863          40.000  
G25  22443322.129 2 117940447.74321     -3084.609          42.000  
C16  35362501.607 1 184141795.07421       365.424          48.000  
C 6  35273237.095 1 183676972.25121       399.377          46.000  
C 9  35211062.649 1 183353215.18121       758.026          45.000  
C 7  36159162.261 1 188290208.31421      1062.086          44.000  
C26  21505300.051 1 111983705.78021      1627.146          46.000  
C21  22297968.653 1 116111340.00921     -1815.444          48.000  
C 3  37070609.696 1 193036356.061 1       319.139          43.000  
C10  37393639.158 1 194718462.79821      1337.683          41.000  
C 1  37650501.110 1 196055999.512 1       329.047          43.000  
C 2  37510199.388 2 195325425.99411       294.284          37.000  
C 4  38416751.706 1 200046078.973 1       336.910          41.000  
C29  24494487.379 1 127549188.87721      2270.868          43.000  
C 5  39538193.125 2 205885729.557 1       303.039          35.000  
G 4  23743047.502 2 124770527.12021      3747.921          37.000  
C22  25602072.662 8 133316647.20722     -3145.824          31.000  
C24  25700378.673 4 133828466.07024      2902.116          27.000  
C30  25346727.692 4 131987016.73522        35.666          33.000  
> 2021  2 25  2 52 12.9980000  0 25                     
G31  19760502.986 2 103842136.29321      -211.148          47.000  
G26  19998803.421 2 105094426.50521      2204.374          46.000  
G32  21085426.072 2 110804667.83521     -2291.447          47.000  
G22  22321361.214 2 117299561.92321      -572.307          41.000  
G29  22191603.471 2 116617668.22421      1260.637          44.000  
G 3  22223765.235 2 116786663.52321       945.595          39.000  
G16  22152593.946 2 116412670.94921      3917.956          40.000  
G25  22443909.660 2 117943535.98221     -3093.625          42.000  
C16  35362432.138 2 184141433.42321       356.976          48.000  
C 6  35273160.872 2 183676576.72021       390.814          46.000  
C 9  35210917.952 2 183352460.85921       749.261          46.000  
C 7  36158959.070 2 188289149.98021      1053.833          44.000  
C26  21504988.529 2 111982082.71121      1618.080          47.000  
C21  22298318.059 2 116113159.67121     -1824.253          48.000  
C 3  37070549.179 2 193036040.720 1       311.058          42.000  
C10  37393383.198 2 194717129.17721      1329.395          41.000  
C 1  37650438.987 2 196055674.119 1       321.174          43.000  
C 2  37510143.669 2 195325135.551 1       285.906          38.000  
C 4  38416687.698 2 200045745.698 1       328.925          40.000  
C29  24494051.996 2 127546921.91421      2262.296          43.000  
C 5  39538135.522 4 205885430.216 2       294.841          36.000  
G 4  23742334.050 4 124766782.59522      3738.748          37.000  
C22  25602687.451 8 133319797.55723     -3154.243          30.000  
C24  25699815.956 4 133825568.41724      2892.529          27.000  
C30  25346725.231 8 131986984.81123        26.781          33.000  
> 2021  2 25  2 52 13.9980000  0 25                     
G31  19760544.029 1 103842351.63521      -219.455          47.000  
G26  19998384.773 1 105092226.19821      2196.167          46.000  
G32  21085863.060 1 110806962.93421     -2299.346          48.000  
G22  22321471.167 1 117300138.70421      -580.906          41.000  
G29  22191364.333 1 116616411.78621      1252.134          45.000  
G 3  22223585.794 2 116785722.16021       936.943          39.000  
G16  22151849.223 2 116408756.67621      3910.359          40.000  
G25  22444499.286 1 117946633.43821     -3101.583          42.000  
C16  35362364.047 1 184141080.42521       349.152          48.000  
C 6  35273086.482 1 183676189.76521       383.008          46.000  
C 9  35210774.965 1 183351715.45221       741.412          46.000  
C 7  36158757.677 1 188288099.90521      1046.204          44.000  
C26  21504678.509 1 111980468.67421      1609.905          47.000  
C21  22298668.878 1 116114987.82421     -1832.438          48.000  
C 3  37070490.215 2 193035733.217 1       303.489          43.000  
C10  37393128.564 1 194715803.65721      1321.511          41.000  
C 1  37650378.069 1 196055356.507 1       313.915          43.000  
C 2  37510089.748 2 195324853.234 1       278.404          38.000  
C 4  38416625.122 2 200045420.201 1       321.667          41.000  
C29  24493618.079 1 127544663.37421      2254.559          43.000  
C 5  39538079.384 2 205885139.285 1       287.275          36.000  
G 4  23741622.796 2 124763047.54021      3731.130          36.000  
C22  25603293.305 8 133322955.35423     -3161.946          30.000  
C24  25699249.714 8 133822679.39225      2883.611          27.000  
C30  25346708.654 8 131986962.52924        17.909          28.000  
> 2021  2 25  2 52 14.9980000  0 25                     
G31  19760586.660 4 103842576.75022      -223.090          47.000  
G26  19997967.818 4 105090036.15522      2191.577          47.000  
G32  21086302.334 4 110809268.31322     -2303.133          48.000  
G22  22321582.866 4 117300725.57022      -585.288          41.000  
G29  22191127.185 4 116615165.66622      1248.090          45.000  
G 3  22223408.290 4 116784790.84223       933.101          38.000  
G16  22151105.477 4 116404852.57823      3905.648          40.000  
G25  22445090.115 4 117949740.59222     -3104.733          42.000  
C16  35362298.137 4 184140737.04122       345.093          48.000  
C 6  35273014.046 4 183675812.44522       379.218          47.000  
C 9  35210633.514 4 183350979.49622       737.781          46.000  
C 7  36158557.820 4 188287059.63022      1042.458          44.000  
C26  21504370.425 4 111978864.32222      1606.430          47.000  
C21  22299022.157 4 116116826.12422     -1836.578          49.000  
C 3  37070432.716 4 193035435.506 2       299.922          43.000  
C10  37392875.833 4 194714487.97322      1317.785          41.000  
C 1  37650318.895 4 196055048.741 2       309.662          43.000  
C 2  37510037.432 4 195324580.587 3       274.775          38.000  
C 4  38416564.413 4 200045104.536 2       318.409          41.000  
C29  24493186.308 4 127542414.88522      2250.772          43.000  
C 5  39538024.887 4 205884857.952 3       284.041          36.000  
G 4  23740913.218 4 124759321.87223      3727.984          36.000  
C22  25603893.715 8 133326123.04324     -3164.732          30.000  
C24  25698693.785 9                      2882.838          26.000  
C30  25346714.866 8 131986949.96324        14.395          33.000  
> 2021  2 25  2 52 15.9980000  0 25                     
G31  19760630.198 2 103842805.76621      -231.321          47.000  
G26  19997551.752 2 105087850.35321      2183.221          46.000  
G32  21086742.080 2 110811577.88821     -2311.752          48.000  
G22  22321695.420 2 117301316.61721      -593.924          41.000  
G29  22190891.153 2 116613923.84721      1239.544          45.000  
G 3  22223231.485 2 116783863.77622       924.103          38.000  
G16  22150363.476 2 116400952.50821      3897.756          40.000  
G25  22445681.835 2 117952851.54521     -3113.240          41.000  
C16  35362233.135 2 184140396.84411       337.329          48.000  
C 6  35272942.360 2 183675438.823 1       371.375          47.000  
C 9  35210492.935 2 183350246.63311       730.151          46.000  
C 7  36158358.556 2 188286022.69511      1034.192          44.000  
C26  21504063.162 2 111977263.849 1      1598.104          47.000  
C21  22299376.048 2 116118668.07611     -1844.940          49.000  
C 3  37070376.317 2 193035141.566 1       291.565          43.000  
C10  37392623.834 2 194713176.123 1      1309.371          41.000  
C 1  37650260.315 2 196054744.711 1       301.937          43.000  
C 2  37509985.972 4 195324311.713 2       266.670          37.000  
C 4  38416504.436 2 200044792.641 1       309.846          41.000  
C29  24492755.166 2 127540169.89811      2242.502          43.000  
C 5  39537971.559 4 205884580.347 2       275.292          36.000  
G 4  23740204.512 4 124755599.81822      3719.822          36.000  
C22  25604504.559 8 133329294.17013     -3173.649          29.000  
C24  25698139.200 9                      2874.196          26.000  
C30  25346711.097 8 131986941.10313         5.506          32.000  
> 2021  2 25  2 52 16.9980000  0 25                     
G31  19760674.766 2 103843039.12421      -236.857          47.000  
G26  19997136.315 2 105085669.07621      2177.845          46.000  
G32  21087182.523 2 110813891.80121     -2317.307          48.000  
G22  22321808.951 2 117301912.25421      -599.112          41.000  
G29  22190655.820 2 116612686.61921      1233.311          45.000  
G 3  22223056.058 4 116782941.42322       918.753          38.000  
G16  22149622.226 2 116397056.75321      3892.213          40.000  
G25  22446274.671 2 117955966.72621     -3118.724          41.000  
C16  35362168.814 1 184140061.191 1       332.422          48.000  
C 6  35272871.478 2 183675069.232 1       366.370          47.000  
C 9  35210352.966 2 183349518.348 1       724.896          46.000  
C 7  36158160.321 2 188284990.297 1      1029.101          44.000  
C26  21503756.561 2 111975667.636 1      1592.868          47.000  
C21  22299731.020 2 116120514.903 1     -1850.285          49.000  
C 3  37070320.337 2 193034851.534 1       286.787          43.000  
C10  37392372.691 2 194711868.300 1      1304.488          41.000  
C 1  37650202.554 2 196054444.593 1       296.988          43.000  
C 2  37509935.226 4 195324046.771 2       262.072          37.000  
C 4  38416445.315 2 200044484.633 1       304.301          41.000  
C29  24492324.913 2 127537929.654 1      2236.781          43.000  
C 5  39537919.017 2 205884306.685 2       270.499          36.000  
G 4  23739496.452 2 124751881.94321      3714.540          36.000  
C22  25605120.151 8 133332469.609 5     -3178.846          29.000  
C24  25697591.978 9                      2868.422          26.000  
C30  25346709.334 8 131986937.209 3        -0.226          31.000  
> 2021  2 25  2 52 17.9980000  0 25                     
G31  19760720.189 1 103843277.81721      -240.765          47.000  
G26  19996722.204 1 105083493.37521      2173.341          46.000  
G32  21087623.839 1 110816211.12621     -2321.530          48.000  
G22  22321923.390 1 117302513.50621      -603.595          41.000  
G29  22190421.585 1 116611454.99121      1229.335          45.000  
G 3  22222881.590 2 116782024.80021       914.378          38.000  
G16  22148881.935 1 116393166.33421      3888.335          40.000  
G25  22446868.327 1 117959087.11821     -3122.627          41.000  
C16  35362105.068 1 184139730.616 1       328.497          48.000  
C 6  35272801.206 1 183674704.716 1       362.421          47.000  
C 9  35210214.028 1 183348795.074 1       721.271          46.000  
C 7  36157963.204 1 188283963.018 1      1025.073          44.000  
C26  21503450.973 1 111974076.697 1      1588.624          47.000  
C21  22300086.656 1 116122367.166 1     -1854.455          49.000  
C 3  37070265.648 1 193034566.505 1       282.870          43.000  
C10  37392122.472 1 194710565.565 1      1300.741          41.000  
C 1  37650145.789 1 196054149.448 1       293.237          43.000  
C 2  37509885.284 2 195323786.825 1       258.119          37.000  
C 4  38416387.153 1 200044181.571 1       300.884          41.000  
C29  24491895.865 1 127535694.678 1      2232.852          43.000  
C 5  39537867.120 2 205884038.039 1       266.036          36.000  
G 4  23738789.335 2 124748169.19221      3710.843          36.000  
C22  25605725.761 8 133335650.012 4     -3182.537          29.000  
C24  25697041.005 9                      2864.974          26.000  
C30  25346715.075 4 131986938.759 2        -3.775          32.000  
> 2021  2 25  2 52 18.9980000  0 25                     
G31  19760766.589 4 103843521.92322      -249.775          47.000  
G26  19996308.982 4 105081323.38522      2164.005          46.000  
G32  21088065.976 4 110818536.02122     -2330.352          48.000  
G22  22322038.526 4 117303120.41922      -612.427          41.000  
G29  22190188.398 4 116610229.12122      1219.963          45.000  
G 3  22222708.100 4 116781113.95022       905.079          38.000  
G16  22148142.517 4 116389281.39122      3879.698          40.000  
G25  22447463.031 4 117962212.81522     -3131.371          41.000  
C16  35362042.527 4 184139405.209 2       319.751          48.000  
C 6  35272732.277 4 183674345.363 2       353.711          47.000  
C 9  35210076.241 4 183348076.925 2       712.494          46.000  
C 7  36157766.906 4 188282940.957 2      1016.721          44.000  
C26  21503146.345 4 111972491.072 2      1580.312          47.000  
C21  22300443.443 4 116124224.989 2     -1863.442          49.000  
C 3  37070211.901 4 193034286.607 2       274.375          43.000  
C10  37391873.580 4 194709268.113 2      1291.890          41.000  
C 1  37650090.227 4 196053859.450 2       284.413          43.000  
C 2  37509836.074 4 195323532.053 2       249.429          38.000  
C 4  38416329.829 4 200043883.609 2       292.895          41.000  
C29  24491467.898 4 127533465.135 2      2223.873          43.000  
C 5  39537816.601 4 205883774.492 2       258.436          36.000  
G 4  23738083.718 4 124744461.56422      3702.841          36.000  
C22  25606340.619 8 133338835.424 5     -3185.389          29.000  
C24  25696500.415 9               7      2861.515          27.000  
C30  25346715.232 8 131986945.372 4        -3.015          31.000  
> 2021  2 25  2 52 19.9980000  0 24                     
G31  19760816.287 8 103843781.56623      -268.588          47.000  
G26  19995899.042 8 105079169.06724      2145.189          46.000  
G32  21088511.043 8 110820876.43924     -2348.941          48.000  
G22  22322156.874 8 117303743.15223      -631.834          41.000  
G29  22189958.073 8 116609019.01624      1201.204          45.000  
G 3  22222537.769 8 116780219.06324       885.836          38.000  
G16  22147406.135 8 116385411.91324      3860.879          41.000  
G25  22448060.893 8 117965353.97824     -3150.298          41.000  
C16  35361983.196 8 184139094.922 3       301.520          48.000  
C 6  35272666.333 8 183674001.136 4       335.333          47.000  
C 9  35209941.298 8 183347373.915 4       694.220          46.000  
C 7  36157573.645 8 188281934.053 4       998.484          44.000  
C26  21502844.875 8 111970920.815 3      1561.913          47.000  
C21  22300803.144 8 116126098.261 4     -1882.057          49.000  
C 3  37070160.807 8 193034021.675 4       256.760          43.000  
C10  37391627.270 8 194707985.668 3      1274.240          41.000  
C 1  37650037.423 8 196053584.383 4       266.848          43.000  
C 2  37509789.918 8 195323292.272 4       231.510          38.000  
C 4  38416275.716 8 200043600.658 4       274.428          41.000  
C29  24491042.776 8 127531250.909 4      2205.467          43.000  
C 5  39537768.718 8 205883526.070 4       239.388          36.000  
G 4  23737380.927 8 124740769.36524      3683.658          36.000  
C22  25606954.134 9                     -3207.896          28.000  
C24  25695962.861 9               7      2838.279          28.000  
> 2021  2 25  2 52 20.9980000  0 25                     
G31  19760863.682 8 103844028.38124      -222.753          47.000  
G26  19995486.571 8 105077002.14324      2190.569          46.000  
G32  21088953.738 8 110823204.10924     -2304.186          48.000  
G22  22322272.970 8 117304353.28224      -587.000          41.000  
G29  22189725.269 8 116607796.36624      1246.609          46.000  
G 3  22222364.802 8 116779311.77024       930.309          38.000  
G16  22146667.171 8 116381529.57024      3905.763          41.000  
G25  22448655.753 8 117968482.17825     -3103.744          41.000  
C16  35361920.811 8 184138771.690 4       347.223          48.000  
C 6  35272597.631 8 183673643.940 4       381.250          47.000  
C 9  35209803.581 8 183346657.930 4       740.015          45.000  
C 7  36157377.906 8 188280914.241 4      1043.189          44.000  
C26  21502540.752 8 111969337.867 4      1606.133          46.000  
C21  22301160.507 8 116127958.941 4     -1837.545          49.000  
C 3  37070107.566 8 193033743.736 4       301.230          43.000  
C10  37391378.517 8 194706690.368 4      1318.814          41.000  
C 1  37649981.722 8 196053296.272 4       311.854          43.000  
C 2  37509741.424 8 195323039.466 4       276.433          38.000  
C 4  38416218.706 8 200043304.656 4       319.000          41.000  
C29  24490615.158 8 127529023.941 4      2250.721          43.000  
C 5  39537718.723 8 205883264.599 5       284.846          36.000  
G 4  23736677.160 8 124737064.08724      3728.719          37.000  
C22  25607552.694 9                     -3166.281          27.000  
C24  25695421.590 9                      2879.467          28.000  
C30  25346725.895 9               6        13.566          33.000  
> 2021  2 25  2 52 21.9980000  0 25                     
G31  19760906.069 8 103844250.98524      -226.859          47.000  
G26  19995070.034 8 105074811.30724      2186.348          46.000  
G32  21089392.314 8 110825507.73824     -2307.921          49.000  
G22  22322384.913 8 117304939.44425      -590.430          41.000  
G29  22189488.348 8 116606549.86124      1241.968          46.000  
G 3  22222188.031 8 116778380.48625       926.593          38.000  
G16  22145924.560 8 116377623.11624      3902.308          41.000  
G25  22449246.164 8 117971586.07924     -3108.373          41.000  
C16  35361854.134 8 184138424.303 4       343.158          48.000  
C 6  35272524.428 8 183673262.609 4       376.941          46.000  
C 9  35209661.013 8 183345917.701 4       735.931          45.000  
C 7  36157177.141 8 188279870.304 4      1039.860          44.000  
C26  21502232.041 8 111967730.837 4      1602.828          46.000  
C21  22301513.141 8 116129795.826 4     -1841.128          48.000  
C 3  37070049.492 8 193033441.593 4       298.058          43.000  
C10  37391125.087 8 194705370.940 4      1315.286          41.000  
C 1  37649921.693 8 196052984.004 4       308.101          44.000  
C 2  37509688.742 8 195322762.473 5       272.805          38.000  
C 4  38416157.247 8 200042984.393 5       316.467          41.000  
C29  24490182.602 8 127526773.072 4      2246.383          43.000  
C 5  39537663.633 8 205882957.90235       282.210          34.000  
G 4  23735966.762 8 124733334.29225      3725.737          36.000  
C22  25608159.961 9                     -3167.157          27.000  
C24  25694846.483 9                      2870.181          26.000  
C30  25346736.085 9 131987008.41635         8.978          34.000  
> 2021  2 25  2 52 22.9980000  0 25                     
G31  19760949.136 8 103844477.72624      -221.789          47.000  
G26  19994654.074 8 105072624.60624      2191.986          46.000  
G32  21089831.257 8 110827815.52925     -2302.811          49.000  
G22  22322497.572 8 117305529.77125      -584.731          41.000  
G29  22189252.142 8 116605307.91125      1246.152          46.000  
G 3  22222011.680 8 116777453.59225       932.481          38.000  
G16  22145182.384 8 116373720.52325      3907.992          41.000  
G25  22449837.465 8 117974694.16924     -3103.614          41.000  
C16  35361788.469 8 184138080.729 4       348.413          48.000  
C 6  35272451.556 8 183672885.084 4       382.361          46.000  
C 9  35209519.561 8 183345181.243 4       741.632          45.000  
C 7  36156977.389 8 188278830.117 4      1045.484          44.000  
C26  21501924.097 8 111966127.702 4      1608.740          46.000  
C21  22301866.735 8 116131636.739 4     -1835.741          48.000  
C 3  37069992.412 8 193033143.038 4       303.787          43.000  
C10  37390872.426 8 194704055.161 4      1321.091          41.000  
C 1  37649862.764 8 196052675.434 5       313.423          44.000  
C 2  37509636.322 8 195322488.999 5       279.258          38.000  
C 4  38416096.555 8 200042667.971 5       321.166          41.000  
C29  24489751.181 8 127524526.420 4      2250.792          43.000  
C 5  39537609.083 8 205882675.74425       287.929          34.000  
G 4  23735257.393 8 124729608.35825      3732.090          35.000  
C22  25608774.383 9                     -3173.698          27.000  
C24  25694282.666 9                      2882.641          25.000  
C30  25346739.349 8 131986999.29425        13.483          35.000  
> 2021  2 25  2 52 23.9980000  0 25                     
G31  19760998.188 9               6      -263.464          47.000  
G26  19994243.697 9               6      2149.552          46.000  
G32  21090275.993 9               6     -2344.647          48.000  
G22  22322615.605 9               6      -627.524          41.000  
G29  22189021.834 9               6      1205.093          46.000  
G 3  22221841.331 9               6       889.504          38.000  
G16  22144445.374 9               6      3866.077          40.000  
G25  22450435.274 9               6     -3143.966          41.000  
C16  35361728.196 9               6       307.703          48.000  
C 6  35272385.035 9               6       341.705          46.000  
C 9  35209383.816 9               6       700.604          45.000  
C 7  36156783.517 9               6      1004.018          45.000  
C26  21501622.138 9               6      1566.508          46.000  
C21  22302226.192 9               6     -1877.470          49.000  
C 3  37069941.056 9               6       262.450          43.000  
C10  37390625.505 9               6      1279.617          41.000  
C 1  37649809.628 9               6       272.915          44.000  
C 2  37509589.084 9               6       237.554          38.000  
C 4  38416041.325 9               6       280.721          41.000  
C29  24489326.076 9               6      2210.418          44.000  
C 5  39537560.781 9               6       245.731          35.000  
G 4  23734553.730 9               7      3689.822          35.000  
C22  25609401.980 9               6     -3202.188          27.000  
C24  25693754.571 9               6      2842.866          26.000  
C30  25346726.907 9               7       -27.567          31.000  
> 2021  2 25  2 52 24.9980000  0 25                     
G31  19761050.940 9                      -289.209          47.000  
G26  19993837.281 9                      2122.266          46.000  
G32  21090724.795 9                     -2373.242          48.000  
G22  22322737.477 9                      -653.760          41.000  
G29  22188795.347 9                      1177.588          45.000  
G 3  22221674.594 9                       855.469          38.000  
G16  22143712.814 9                      3837.207          41.000  
G25  22451036.347 9                     -3169.629          41.000  
C16  35361671.797 9                       280.664          48.000  
C 6  35272321.761 9                       314.941          46.000  
C 9  35209251.631 9                       675.098          45.000  
C 7  36156593.240 9                       976.318          44.000  
C26  21501323.757 9                      1541.211          46.000  
C21  22302589.436 9                     -1904.736          48.000  
C 3  37069893.400 9                       233.398          43.000  
C10  37390382.389 9                      1252.979          41.000  
C 1  37649759.860 9                       245.361          43.000  
C 2  37509546.802 9               7       169.368          36.000  
C 4  38415989.969 9                       253.223          41.000  
C29  24488904.199 9                      2183.203          44.000  
C 5  39537516.510 9                       213.135          35.000  
G 4  23733854.012 9                      3661.230          37.000  
C22  25610021.114 9                     -3238.457          27.000  
C24  25693215.725 9                      2811.159          27.000  
C30  25346732.403 9                       -56.250          31.000  
> 2021  2 25  2 52 25.9980000  0 25                     
G31  19761106.275 9 103845314.26035      -297.784          47.000  
G26  19993434.443 9 105066206.67435      2115.097          46.000  
G32  21091176.704 9 110834881.20235     -2379.093          48.000  
G22  22322862.456 9 117307433.82835      -661.312          41.000  
G29  22188571.635 9 116601730.49035      1168.987          44.000  
G 3  22221510.789 9 116774826.85035       855.757          39.000  
G16  22142983.081 9 116362161.21035      3832.321          40.000  
G25  22451640.770 9 117984168.12735     -3179.348          43.000  
C16  35361618.120 9 184137192.95435       273.584          48.000  
C 6  35272262.151 9 183671893.64635       307.434          46.000  
C 9  35209122.848 9 183343110.88535       666.974          46.000  
C 7  36156406.138 9 188275862.64535       970.892          44.000  
C26  21501028.202 9 111961464.27835      1533.911          46.000  
C21  22302955.838 9 116137311.59635     -1911.214          48.000  
C 3  37069848.675 9 193032397.93535       229.406          42.000  
C10  37390142.535 9 194700252.17235      1246.539          41.000  
C 1  37649713.774 9 196051908.05135       238.661          44.000  
C 2  37509518.358 9                       154.199          34.000  
C 4  38415941.719 9 200041858.34135       247.175          41.000  
C29  24488485.639 9 127517938.88635      2175.587          46.000  
C 5  39537474.961 9 205881976.12435       213.756          35.000  
G 4  23733157.469 9 124718583.92935      3657.197          37.000  
C22  25610639.271 9                     -3234.417          26.000  
C24  25692674.507 9               7      2810.174          28.000  
C30  25346735.004 9               7       -58.865          26.000  
> 2021  2 25  2 52 26.9980000  0 24                     
G31  19761159.795 9                      -305.762          46.000  
G26  19993029.109 9                      2106.885          46.000  
G32  21091625.890 9                     -2356.982          46.000  
G22  22322985.480 9                      -671.826          40.000  
G29  22188346.004 9                      1160.791          45.000  
G 3  22221345.273 9                       848.340          38.000  
G16  22142250.556 9                      3821.728          40.000  
G25  22452243.448 9                     -3184.375          41.000  
C16  35361562.680 9                       265.771          47.000  
C 6  35272199.068 9                       299.722          43.000  
C 9  35208991.518 9                       659.473          45.000  
C 7  36156217.309 9                       964.453          44.000  
C26  21500729.420 9                      1618.262          41.000  
C21  22303320.547 9                     -1918.262          48.000  
C 3  37069801.071 9                       236.768          41.000  
C10  37389900.414 9                      1237.695          41.000  
C 1  37649664.826 9                       232.813          43.000  
C 2  37509474.523 9                       198.291          36.000  
C 4  38415890.625 9                       255.176          39.000  
C29  24488063.570 9                      2211.426          42.000  
C 5  39537430.655 9                       211.670          35.000  
G 4  23732459.460 9                      3637.646          37.000  
C24  25692118.508 9                      2802.179          20.000  
C30  25346741.827 9                       -78.687          25.000  
> 2021  2 25  2 52 27.9900000  0 23                     
G31  17362869.541 9               6      -246.969          47.000  
G26  17594280.054 9               6      2165.771          46.000  
G32  18693732.296 9               7     -2328.075          48.000  
G22  19924765.044 9               6      -610.525          41.000  
G29  19789777.140 9               6      1219.411          45.000  
G 3  19822835.670 9               6       906.092          38.000  
G16  19743174.798 9               6      3883.802          41.000  
G25  20054501.166 9               7     -3128.683          42.000  
C16  32963163.327 9               6       324.457          48.000  
C 6  32873793.538 9               6       358.411          46.000  
C 9  32810516.571 9               6       717.773          46.000  
C 7  33757684.201 9               6      1022.096          44.000  
C26  19102093.651 9               7      1584.715          46.000  
C21  19905341.047 9               6     -1860.884          48.000  
C 3  34671410.338 9               7       281.111          42.000  
C10  34991314.849 9               6      1297.825          41.000  
C 1  35251272.017 9               6       289.926          43.000  
C 2  35111086.897 9               7       255.861          37.000  
C 4  36017496.664 9               7       298.006          41.000  
C29  22089298.845 9               6      2226.076          44.000  
C 5  37139043.063 9               7       266.033          35.000  
G 4  21333417.241 9               6      3708.214          38.000  
C24  23293228.734 9                      2858.056          29.000  
> 2021  2 25  2 52 28.9900000  0 24                     
G31  17362920.390 8  91242760.81134      -269.865          47.000  
G26  17593871.370 8  92456419.76634      2141.936          46.000  
G32  18694179.703 8  98238574.19234     -2351.549          48.000  
G22  19924885.119 8 104705977.53434      -634.997          41.000  
G29  19789548.664 8 103994779.94234      1196.813          45.000  
G 3  19822667.013 8 104168818.22234       881.401          39.000  
G16  19742439.655 8 103747220.19333      3859.263          41.000  
G25  20055099.953 8 105390262.07434     -3150.528          42.000  
C16  32963104.224 8 171647504.09134       302.246          48.000  
C 6  32873728.763 8 171182097.95034       336.304          46.000  
C 9  32810382.623 8 170852239.67434       695.386          46.000  
C 7  33757491.742 8 175784086.54834       998.538          44.000  
C26  19101787.854 9  99468018.77734      1560.654          47.000  
C21  19905702.231 8 103654183.95634     -1884.695          48.000  
C 3  34671360.361 8 180542839.49933       257.486          42.000  
C10  34991069.674 8 182207649.96934      1274.133          41.000  
C 1  35251219.666 8 183562321.85133       267.853          43.000  
C 2  35111040.200 8 182832375.88334       232.333          37.000  
C 4  36017443.511 8 187552246.61134       275.509          41.000  
C29  22088875.171 8 115022537.34334      2203.879          45.000  
C 5  37138996.175 8 193392466.75834       240.542          36.000  
G 4  21332715.655 9 112104175.27734      3684.641          37.000  
C24  23292693.990 9 121291137.91735      2838.172          30.000  
C30  22948409.744 9               7       -33.953          29.000  
> 2021  2 25  2 52 29.9900000  0 25                     
G31  17362978.151 9                      -312.967          46.000  
G26  17593469.788 9                      2110.693          46.000  
G32  18694633.373 9                     -2383.057          46.000  
G22  19925012.052 9                      -674.316          41.000  
G29  19789327.308 9                      1153.844          44.000  
G 3  19822505.529 9                       827.393          39.000  
G16  19741711.073 9                      3806.934          39.000  
G25  20055705.597 9                     -3201.562          40.000  
C16  32963052.327 9                       259.204          47.000  
C 6  32873670.165 9                       293.982          46.000  
C 9  32810255.341 9                       652.936          45.000  
C 7  33757306.072 9                       957.198          44.000  
C26  19101494.515 9                      1519.158          45.000  
C21  19906069.925 9                     -1924.316          47.000  
C 3  34671317.154 9                       216.602          42.000  
C10  34990830.937 9                      1222.559          41.000  
C 1  35251174.313 9                       209.521          43.000  
C 2  35110999.855 9                       174.951          37.000  
C 4  36017396.622 9                       228.043          40.000  
C29  22088458.285 9                      2162.258          43.000  
C 5  37138956.161 9                       191.162          36.000  
G 4  21332020.700 9                      3635.010          37.000  
C22  23214898.109 9                     -3250.587          25.000  
C24  23292150.380 9                      2786.035          30.000  
C30  22948430.650 9                       -76.954          32.000  
> 2021  2 25  2 52 30.9900000  0 23                     
G31  17363043.886 9                      -346.973          46.000  
G26  17593072.551 9                      2073.764          34.000  
G32  18695095.228 9                     -2430.371          46.000  
G22  19925147.012 9                      -714.404          40.000  
G29  19789113.962 9                      1116.016          44.000  
G 3  19822351.426 9                       886.377          31.000  
G16  19740991.252 9                      3777.051          40.000  
G25  20056319.339 9                     -3230.762          40.000  
C16  32963008.666 9                       208.537          44.000  
C 6  32873621.025 9                       245.286          43.000  
C 9  32810136.697 9                       616.699          45.000  
C 7  33757128.498 9                       920.947          43.000  
C21  19906446.099 9                     -1960.596          46.000  
C 3  34671282.184 9                       180.420          41.000  
C10  34990600.874 9                      1193.457          40.000  
C 1  35251137.615 9                       191.309          42.000  
C 2  35110967.956 9                       239.014          34.000  
C 4  36017354.706 9                       204.541          38.000  
C29  22088049.409 9                      2125.439          43.000  
C 5  37138924.315 9                       208.887          34.000  
G 4  21331333.807 9                      3607.422          36.000  
C24  23291620.243 9                      2741.249          23.000  
C30  22948459.983 9                      -130.565          29.000  
> 2021  2 25  2 52 31.9900000  0 25                     
G31  17363109.045 9               6      -357.344          47.000  
G26  17592680.916 9                      2052.665          46.000  
G32  18695557.467 9                     -2439.370          47.000  
G22  19925281.658 9                      -721.238          41.000  
G29  19788900.423 9               7      1108.695          44.000  
G 3  19822194.845 9                       794.540          39.000  
G16  19740270.645 9               6      3771.086          40.000  
G25  20056933.307 9                     -3237.594          42.000  
C16  32962965.093 9                       215.093          47.000  
C 6  32873569.512 9               7       249.359          46.000  
C 9  32810016.779 9 170850335.59235       608.618          46.000  
C 7  33756950.471 9               7       912.454          44.000  
C26  19100922.550 9                      1462.793          45.000  
C21  19906821.994 9               7     -1970.957          48.000  
C 3  34671246.969 9               7       174.302          42.000  
C10  34990369.798 9 182204005.72135      1187.521          41.000  
C 1  35251100.167 9               7       183.260          43.000  
C 2  35110931.066 9               6       145.667          37.000  
C 4  36017316.560 9               7       189.586          40.000  
C29  22087640.952 9               7      2117.290          44.000  
C 5  37138891.072 9               7       155.507          36.000  
G 4  21330645.850 9                      3600.839          36.000  
C22  23216171.783 9                     -3294.065          27.000  
C24  23291086.615 9                      2745.520          26.000  
C30  22948481.482 9                      -122.927          32.000  
> 2021  2 25  2 52 32.9900000  0 25                     
G31  17363177.537 9               7      -365.667          47.000  
G26  17592293.661 9               7      2045.471          47.000  
G32  18696021.835 9               7     -2448.965          47.000  
G22  19925419.689 9               7      -732.301          41.000  
G29  19788690.270 9                      1098.687          45.000  
G 3  19822045.698 9                       783.803          39.000  
G16  19739553.389 9               7      3763.333          40.000  
G25  20057549.928 9                     -3246.379          42.000  
C16  32962923.980 9               7       208.466          48.000  
C 6  32873523.025 9               7       242.548          46.000  
C 9  32809900.264 9               7       601.752          46.000  
C 7  33756775.690 9                       903.093          44.000  
C26  19100643.294 9               7      1465.043          46.000  
C21  19907201.153 9                     -1980.537          48.000  
C 3  34671214.529 9                       163.190          43.000  
C10  34990142.125 9                      1179.503          41.000  
C 1  35251065.965 9                       173.532          43.000  
C 2  35110903.827 9               7       138.817          37.000  
C 4  36017281.381 9               7       180.809          41.000  
C29  22087234.780 9               7      2107.775          44.000  
C 5  37138862.087 9                       148.486          36.000  
G 4  21329961.644 9                      3588.507          37.000  
C22  23216810.077 9                     -3289.716          29.000  
C24  23290557.664 9               7      2739.705          29.000  
C30  22948506.436 9               7      -131.216          34.000  
> 2021  2 25  2 52 33.9900000  0 24                     
G31  17363246.203 9               7      -370.746          47.000  
G26  17591903.038 9               6      2039.827          46.000  
G32  18696486.534 9               6     -2452.873          47.000  
G22  19925557.947 9               6      -736.836          41.000  
G29  19788480.274 9               6      1095.002          45.000  
G 3  19821895.365 9               7       778.488          39.000  
G16  19738836.080 9               6      3759.390          41.000  
G25  20058166.549 9               6     -3249.909          42.000  
C16  32962883.182 9               7       203.625          48.000  
C 6  32873476.660 9               6       237.927          46.000  
C 9  32809783.731 9               6       597.516          46.000  
C 7  33756601.118 9               6       900.842          44.000  
C26  19100360.408 9               6      1461.481          46.000  
C21  19907580.346 9               6     -1984.703          48.000  
C 3  34671182.176 9               7       159.314          43.000  
C10  34989914.592 9               6      1175.188          41.000  
C 1  35251031.919 9               6       169.855          43.000  
C 2  35110876.569 9               6       135.074          37.000  
C 4  36017246.184 9               6       176.913          41.000  
C29  22086828.766 9               6      2104.164          44.000  
C 5  37138833.259 9               6       141.934          36.000  
G 4  21329277.543 9               7      3580.978          37.000  
C24  23290033.774 9                      2736.728          29.000  
C30  22948526.591 9               7      -135.656          34.000  
> 2021  2 25  2 52 34.9900000  0 25                     
G31  17363316.964 8  91244846.42932      -369.319          47.000  
G26  17591511.315 8  92444014.99932      2041.089          46.000  
G32  18696953.432 8  98253152.69032     -2452.256          47.000  
G22  19925698.264 8 104710250.90332      -735.612          41.000  
G29  19788272.093 8 103988070.79732      1095.041          45.000  
G 3  19821749.359 8 104163995.22033       780.028          39.000  
G16  19738121.023 8 103724525.98332      3759.930          41.000  
G25  20058785.124 8 105409626.58332     -3249.264          42.000  
C16  32962842.610 8 171646146.91632       204.883          48.000  
C 6  32873429.858 8 171180550.05132       238.770          46.000  
C 9  32809669.258 8 170848525.32332       598.523          46.000  
C 7  33756428.465 8 175778549.01432       900.900          44.000  
C26  19100080.036 8  99459096.13132      1462.603          46.000  
C21  19907961.878 8 103665948.07832     -1984.127          48.000  
C 3  34671151.604 8 180541752.33832       160.577          43.000  
C10  34989688.925 8 182200460.06132      1176.866          41.000  
C 1  35250999.724 8 183561173.06332       170.300          44.000  
C 2  35110851.214 8 182831381.50833       135.787          37.000  
C 4  36017212.644 8 187551043.28432       178.327          41.000  
C29  22086425.038 8 115009777.72332      2104.423          45.000  
C 5  37138806.142 8 193391476.10033       144.959          36.000  
G 4  21328594.926 8 112082524.01333      3586.606          37.000  
C22  23218079.703 9 120902602.28334     -3303.254          29.000  
C24  23289506.620 9               6      2741.149          29.000  
C30  22948550.567 9 119499104.69633      -135.552          34.000  
> 2021  2 25  2 52 35.9900000  0 25                     
G31  17363387.655 2  91245217.65921      -375.118          47.000  
G26  17591126.712 4  92441975.88721      2035.502          46.000  
G32  18697420.522 2  98255606.43621     -2457.317          47.000  
G22  19925838.791 2 104710988.94821      -741.757          41.000  
G29  19788064.209 2 103986977.42121      1089.288          45.000  
G 3  19821601.974 4 104163217.51021       773.950          40.000  
G16  19737406.297 2 103720768.12221      3754.316          41.000  
G25  20059403.630 2 105412877.90121     -3254.975          41.000  
C16  32962804.760 4 171645943.68121       199.695          48.000  
C 6  32873384.208 4 171180312.87121       233.533          46.000  
C 9  32809554.994 2 170847928.67121       593.042          46.000  
C 7  33756255.778 2 175777649.78721       895.858          44.000  
C26  19099799.174 4  99457635.71721      1456.892          47.000  
C21  19908343.758 2 103667934.08121     -1989.449          48.000  
C 3  34671121.240 2 180541593.29521       155.837          43.000  
C10  34989463.329 2 182199285.06021      1171.749          41.000  
C 1  35250967.633 2 183561004.00621       165.561          43.000  
C 2  35110825.894 4 182831247.58422       131.061          38.000  
C 4  36017178.861 2 187550866.31721       173.391          40.000  
C29  22086021.083 2 115007674.65921      2099.010          44.000  
C 5  37138778.832 4 193391333.49222       139.554          36.000  
G 4  21327913.006 4 112078939.55022      3579.946          37.000  
C22  23218710.319 9 120905909.03125     -3310.459          29.000  
C24  23288977.878 9 121271802.62034      2735.039          30.000  
C30  22948578.261 4 119499241.75522      -141.372          34.000  
> 2021  2 25  2 52 36.9900000  0 25                     
G31  17363459.253 1  91245593.64621      -377.936          47.000  
G26  17590740.399 1  92439941.65321      2031.988          47.000  
G32  18697888.467 1  98258064.69921     -2460.618          48.000  
G22  19925980.556 1 104711732.07321      -745.372          41.000  
G29  19787857.162 1 103985888.82021      1086.227          45.000  
G 3  19821456.056 2 104162445.11421       769.934          40.000  
G16  19736692.565 1 103717014.82821      3750.942          42.000  
G25  20060023.357 1 105416133.73521     -3257.889          41.000  
C16  32962766.370 1 171645744.86621       196.692          48.000  
C 6  32873340.094 1 171180080.04421       230.853          46.000  
C 9  32809441.480 1 170847336.51021       590.509          46.000  
C 7  33756084.033 1 175776754.93821       892.848          44.000  
C26  19099520.495 1  99456180.04421      1453.659          47.000  
C21  19908725.761 1 103669924.76521     -1992.947          48.000  
C 3  34671091.680 1 180541438.41721       152.664          43.000  
C10  34989238.727 1 182198114.37821      1168.813          41.000  
C 1  35250935.769 1 183560838.96921       162.930          44.000  
C 2  35110801.533 2 182831117.98321       127.442          37.000  
C 4  36017146.054 1 187550693.31621       170.589          41.000  
C29  22085618.227 1 115005575.91321      2096.431          45.000  
C 5  37138752.639 2 193391195.27921       136.444          36.000  
G 4  21327232.046 2 112075359.77621      3578.023          37.000  
C22  23219341.057 8 120909220.19424     -3313.243          28.000  
C24  23288460.165 8 121269068.50323      2732.078          29.000  
C30  22948600.894 8 119499383.48923      -143.889          28.000  
> 2021  2 25  2 52 37.9900000  0 25                     
G31  17363531.724 1  91245974.26921      -382.378          47.000  
G26  17590354.278 1  92437912.39521      2027.384          47.000  
G32  18698357.477 1  98260528.13221     -2465.086          48.000  
G22  19926123.561 1 104712479.89421      -749.667          41.000  
G29  19787651.127 1 103984805.54721      1081.418          45.000  
G 3  19821310.364 2 104161677.41221       765.921          39.000  
G16  19735979.270 1 103713266.33821      3746.792          42.000  
G25  20060643.869 1 105419394.29221     -3262.828          41.000  
C16  32962728.538 1 171645550.52821       192.816          48.000  
C 6  32873295.648 1 171179851.76321       226.764          46.000  
C 9  32809328.385 1 170846748.63621       586.224          46.000  
C 7  33755913.387 1 175775864.69021       888.695          44.000  
C26  19099240.994 1  99454728.78521      1449.570          47.000  
C21  19909108.706 1 103671920.36321     -1997.401          48.000  
C 3  34671062.869 1 180541288.10121       148.775          43.000  
C10  34989014.928 1 182196948.31121      1164.474          41.000  
C 1  35250904.655 1 183560678.73521       158.486          44.000  
C 2  35110777.557 2 182830992.79321       123.382          37.000  
C 4  36017114.173 1 187550525.14621       166.784          41.000  
C29  22085216.418 1 115003482.30321      2091.803          45.000  
C 5  37138727.145 2 193391061.34121       132.626          36.000  
G 4  21326552.430 2 112071784.11021      3573.702          37.000  
C22  23219942.793 8 120912535.56123     -3317.071          28.000  
C24  23287937.741 4 121266338.78023      2727.996          29.000  
C30  22948605.501 8 119499530.38023      -148.212          27.000  
> 2021  2 25  2 52 38.9900000  0 24                     
G31  17363604.910 1  91246357.91521      -385.005          47.000  
G26  17589968.803 1  92435886.43721      2024.533          47.000  
G32  18698826.975 1  98262994.63121     -2468.022          48.000  
G22  19926266.705 1 104713231.15321      -752.707          41.000  
G29  19787445.634 1 103983725.49421      1078.435          45.000  
G 3  19821163.171 2 104160913.25821       762.296          39.000  
G16  19735266.586 1 103709520.98621      3744.056          42.000  
G25  20061264.661 1 105422657.65721     -3264.762          41.000  
C16  32962691.683 1 171645353.96231       190.277          48.000  
C 6  32873251.464 1 171179626.23221       224.390          46.000  
C 9  32809216.111 1 170846163.54621       583.826          46.000  
C 7  33755743.108 1 175774977.30421       886.068          45.000  
C26  19098963.117 1  99453280.61521      1446.831          47.000  
C21  19909492.366 1 103673919.15131     -2000.295          48.000  
C 3  34671034.425 1 180541140.55021       146.225          44.000  
C10  34988791.618 1 182195785.10321      1162.117          41.000  
C 1  35250874.082 1 183560521.11421       156.426          44.000  
C 2  35110754.261 2 182830870.40021       121.015          37.000  
C 4  36017082.710 1 187550359.57721       164.243          41.000  
C29  22084815.133 1 115001391.57921      2089.229          45.000  
C 5  37138702.121 2 193390930.28821       130.179          36.000  
G 4  21325873.215 2 112068211.35121      3571.527          37.000  
C22  23220541.388 8 120915853.67523     -3319.515          28.000  
C24  23287420.307 8 121263611.96623      2725.944          29.000  
> 2021  2 25  2 52 39.9900000  0 25                     
G31  17363678.410 1  91246744.39621      -387.215          47.000  
G26  17589584.061 1  92433863.50721      2022.112          47.000  
G32  18699297.101 1  98265464.09621     -2470.073          48.000  
G22  19926410.006 1 104713985.37321      -755.238          41.000  
G29  19787240.855 1 103982648.66121      1075.976          45.000  
G 3  19821018.718 2 104160152.19821       759.882          39.000  
G16  19734554.477 1 103705778.39921      3741.985          42.000  
G25  20061886.255 1 105425923.83021     -3266.819          41.000  
C16  32962656.294 1 171645164.97621       188.385          48.000  
C 6  32873209.270 1 171179403.29821       222.333          46.000  
C 9  32809104.045 1 170845580.95721       581.989          46.000  
C 7  33755573.265 1 175774092.49521       884.259          45.000  
C26  19098685.502 1  99451835.11321      1444.728          47.000  
C21  19909876.672 1 103675920.82521     -2002.420          48.000  
C 3  34671006.523 1 180540995.47021       144.382          44.000  
C10  34988568.621 1 182194624.46521      1160.043          41.000  
C 1  35250844.085 1 183560366.07221       154.481          44.000  
C 2  35110731.157 2 182830750.45221       119.463          37.000  
C 4  36017051.596 1 187550196.57521       162.446          41.000  
C29  22084414.546 1 114999303.77521      2087.210          45.000  
C 5  37138677.412 2 193390801.59521       128.296          36.000  
G 4  21325193.878 2 112064641.12821      3569.374          36.000  
C22  23221146.474 8 120919174.26022     -3321.082          29.000  
C24  23286890.815 4 121260887.75923      2723.495          29.000  
C30  22948657.712 8 119499651.52735      -153.531          26.000  
> 2021  2 25  2 52 40.9980000  0 25                     
G31  19762092.107 1 103850492.98621      -390.205          47.000  
G26  19987539.183 1 105035202.94321      2018.609          47.000  
G32  21098106.953 1 110871295.76721     -2473.467          48.000  
G22  22324893.626 1 117318101.98321      -758.638          41.000  
G29  22185376.047 1 116584934.21921      1072.830          45.000  
G 3  22219213.904 1 116762753.63721       756.615          39.000  
G16  22132182.112 1 116305397.95121      3738.801          42.000  
G25  22460847.714 1 118032551.99821     -3269.424          41.000  
C16  35360960.124 1 184133761.88421       185.590          48.000  
C 6  35271506.452 1 183667966.23221       219.580          46.000  
C 9  35207332.194 1 183333784.23321       579.285          46.000  
C 7  36153743.340 1 188261993.63321       881.260          45.000  
C26  21496747.891 1 111939175.70821      1441.724          47.000  
C21  22308601.088 1 116166708.74921     -2005.609          48.000  
C 3  37069318.799 1 193029635.69411       141.661          43.000  
C10  37386685.926 1 194682249.73021      1157.059          41.000  
C 1  37649154.372 1 196048996.28411       152.016          44.000  
C 2  37509048.110 1 195319416.347 1       116.383          37.000  
C 4  38415360.522 1 200038819.331 1       160.193          41.000  
C29  24482353.597 1 127486002.06721      2084.075          45.000  
C 5  39536992.742 2 205879458.779 1       124.843          36.000  
G 4  23722854.738 2 124664432.82221      3566.365          36.000  
C22  25620116.065 8 133411280.72523     -3325.405          30.000  
C24  25684713.508 8 133746949.43823      2719.960          30.000  
C30  25347028.446 8 131988590.94625      -157.284          26.000  
> 2021  2 25  2 52 41.9980000  0 25                     
G31  19762166.672 1 103850884.81421      -393.475          47.000  
G26  19987155.209 1 105033185.90221      2015.200          47.000  
G32  21098577.952 1 110873770.82021     -2476.795          48.000  
G22  22325038.044 1 117318862.14421      -761.758          41.000  
G29  22185172.019 1 116583863.32321      1069.077          45.000  
G 3  22219070.306 1 116761998.71621       753.217          39.000  
G16  22131470.771 1 116301660.86721      3735.290          42.000  
G25  22461469.989 1 118035823.27121     -3272.869          41.000  
C16  35360924.805 1 184133577.78321       182.538          48.000  
C 6  35271464.676 1 183667748.16121       216.644          46.000  
C 9  35207221.333 1 183333206.46421       576.056          46.000  
C 7  36153574.561 1 188261113.84321       878.114          45.000  
C26  21496471.497 1 111937735.50521      1438.635          47.000  
C21  22308986.528 1 116168716.10421     -2009.117          48.000  
C 3  37069291.908 1 193029495.426 1       138.691          43.000  
C10  37386464.029 1 194681094.08221      1153.884          41.000  
C 1  37649125.544 1 196048845.982 1       148.849          44.000  
C 2  37509026.175 2 195319301.232 1       113.543          37.000  
C 4  38415330.368 1 200038661.077 1       156.767          41.000  
C29  24481953.656 1 127483919.59121      2080.690          45.000  
C 5  39536968.957 2 205879334.953 1       122.494          35.000  
G 4  23722175.890 2 124660867.52421      3563.752          36.000  
C22  25620740.766 8 133414606.03023     -3327.105          30.000  
C24  25684178.467 4 133744230.24323      2717.301          29.000  
C30  25347059.176 4 131988749.67224      -160.694          26.000  
> 2021  2 25  2 52 42.9980000  0 25                     
G31  19762241.953 1 103851279.86511      -398.077          47.000  
G26  19986772.107 1 105031172.17611      2010.423          47.000  
G32  21099049.561 1 110876249.11411     -2481.588          48.000  
G22  22325183.335 1 117319625.59411      -766.706          41.000  
G29  22184968.776 1 116582796.490 1      1064.012          45.000  
G 3  22218927.423 1 116761247.791 1       747.983          39.000  
G16  22130760.268 1 116297926.77511      3730.832          42.000  
G25  22462093.346 1 118039098.269 1     -3277.636          41.000  
C16  35360890.219 1 184133397.11721       178.210          48.000  
C 6  35271423.459 1 183667533.54021       212.122          46.000  
C 9  35207110.838 1 183332632.08521       571.844          46.000  
C 7  36153406.149 1 188260237.45321       873.697          45.000  
C26  21496195.557 1 111936298.86321      1434.049          47.000  
C21  22309372.859 1 116170727.11721     -2013.822          48.000  
C 3  37069265.506 1 193029358.388 1       134.375          44.000  
C10  37386242.499 1 194679941.76221      1149.799          41.000  
C 1  37649097.118 1 196048698.971 1       144.536          44.000  
C 2  37509004.554 2 195319189.338 1       109.415          37.000  
C 4  38415300.668 1 200038506.139 1       152.439          41.000  
C29  24481554.499 1 127481840.83621      2076.029          45.000  
C 5  39536945.818 2 205879214.302 1       118.224          36.000  
G 4  23721497.617 2 124657305.19011      3559.200          36.000  
C22  25621376.233 8 133417934.66623     -3330.873          30.000  
C24  25683660.632 4 133741514.31423      2713.196          29.000  
C30  25347092.855 4 131988912.58924      -166.352          26.000  
> 2021  2 25  2 52 43.9980000  0 25                     
G31  19762317.966 1 103851679.655 1      -401.480          47.000  
G26  19986389.790 1 105029163.476 1      2007.022          47.000  
G32  21099522.078 1 110878732.337 1     -2484.869          48.000  
G22  22325329.829 1 117320394.098 1      -770.525          41.000  
G29  22184766.703 1 116581734.251 1      1060.437          45.000  
G 3  22218785.518 1 116760501.446 1       744.831          39.000  
G16  22130050.568 1 116294197.529 1      3727.638          42.000  
G25  22462717.313 1 118042377.404 1     -3281.137          40.000  
C16  35360856.191 1 184133220.45521       175.232          48.000  
C 6  35271383.026 1 183667322.92421       209.131          46.000  
C 9  35207001.425 1 183332061.66221       568.951          46.000  
C 7  36153238.819 1 188259365.13021       870.797          45.000  
C26  21495920.471 1 111934866.39221      1430.808          47.000  
C21  22309760.219 1 116172742.54321     -2017.011          49.000  
C 3  37069240.098 1 193029225.340 1       131.694          44.000  
C10  37386021.963 1 194678793.51721      1146.882          41.000  
C 1  37649069.372 1 196048555.965 1       141.470          44.000  
C 2  37508984.189 2 195319081.427 1       106.503          38.000  
C 4  38415271.770 1 200038355.192 1       149.551          41.000  
C29  24481156.320 1 127479766.36021      2072.894          45.000  
C 5  39536923.482 2 205879097.657 1       115.380          36.000  
G 4  23720820.252 2 124653747.305 1      3556.608          36.000  
C22  25622014.876 8 133421267.31923     -3333.988          31.000  
C24  25683147.142 4 133738802.47822      2710.296          30.000  
C30  25347125.958 4 131989079.71724      -169.149          26.000  
> 2021  2 25  2 52 44.9980000  0 25                     
G31  19762394.851 1 103852082.997 1      -405.869          47.000  
G26  19986008.363 1 105027158.653 1      2002.014          47.000  
G32  21099995.241 1 110881219.242 1     -2489.560          48.000  
G22  22325477.144 1 117321166.460 1      -775.090          41.000  
G29  22184565.379 1 116580675.830 1      1055.616          45.000  
G 3  22218644.398 1 116759759.087 1       739.824          39.000  
G16  22129341.897 1 116290471.982 1      3723.017          42.000  
G25  22463341.891 1 118045659.883 1     -3285.114          41.000  
C16  35360822.896 1 184133047.12721       170.892          48.000  
C 6  35271343.327 1 183667115.624 1       204.816          46.000  
C 9  35206892.518 1 183331494.03211       564.581          46.000  
C 7  36153071.978 1 188258495.74911       866.154          45.000  
C26  21495646.102 1 111933437.48521      1426.288          47.000  
C21  22310147.963 1 116174761.72921     -2021.873          49.000  
C 3  37069215.302 1 193029095.628 1       127.141          44.000  
C10  37385802.195 1 194677648.22811      1142.206          41.000  
C 1  37649042.830 1 196048416.244 1       137.265          44.000  
C 2  37508964.017 2 195318976.857 1       102.636          37.000  
C 4  38415243.361 1 200038207.490 1       145.128          41.000  
C29  24480758.560 1 127477694.91411      2068.317          45.000  
C 5  39536901.652 2 205878984.399 1       110.463          36.000  
G 4  23720143.585 2 124650192.799 1      3551.775          36.000  
C22  25622655.421 4 133424603.28022     -3338.704          31.000  
C24  25682619.046 8 133736093.60613      2706.535          30.000  
C30  25347164.366 4 131989250.10914      -174.771          27.000  
> 2021  2 25  2 52 45.9980000  0 25                     
G31  19762472.418 1 103852490.215 1      -407.882          47.000  
G26  19985627.756 1 105025157.808 1      1999.961          47.000  
G32  21100469.276 1 110883709.973 1     -2491.476          48.000  
G22  22325624.790 1 117321942.893 1      -777.255          41.000  
G29  22184364.562 1 116579621.551 1      1053.322          45.000  
G 3  22218503.942 1 116759020.974 1       737.573          38.000  
G16  22128633.488 1 116286750.129 1      3721.270          42.000  
G25  22463967.028 1 118048946.182 1     -3286.710          41.000  
C16  35360790.316 1 184132877.35521       169.073          48.000  
C 6  35271304.274 1 183666911.881 1       203.064          46.000  
C 9  35206783.978 1 183330930.457 1       562.750          46.000  
C 7  36152905.851 1 188257630.386 1       864.638          45.000  
C26  21495372.517 1 111932011.80811      1424.537          47.000  
C21  22310536.614 1 116176784.73721     -2023.798          49.000  
C 3  37069190.767 1 193028969.264 1       125.826          44.000  
C10  37385583.055 1 194676506.919 1      1140.329          41.000  
C 1  37649016.673 1 196048279.881 1       135.701          44.000  
C 2  37508944.700 2 195318875.728 1       100.315          37.000  
C 4  38415215.633 1 200038063.178 1       143.742          41.000  
C29  24480361.341 1 127475627.741 1      2066.409          45.000  
C 5  39536880.450 2 205878874.501 1       109.142          35.000  
G 4  23719467.686 2 124646641.982 1      3550.178          36.000  
C22  25623297.205 4 133427942.08012     -3339.398          31.000  
C24  25682097.581 4 133733388.724 3      2704.990          30.000  
C30  25347204.327 4 131989425.112 3      -176.661          27.000  
> 2021  2 25  2 52 46.9980000  0 25                     
G31  19762550.472 1 103852899.767 1      -410.940          47.000  
G26  19985247.359 1 105023159.475 1      1996.853          47.000  
G32  21100943.538 1 110886203.094 1     -2494.594          48.000  
G22  22325772.768 1 117322721.841 1      -780.228          41.000  
G29  22184164.304 1 116578569.894 1      1049.966          45.000  
G 3  22218364.148 2 116758285.562 1       733.901          38.000  
G16  22127925.533 1 116283030.535 1      3718.511          42.000  
G25  22464592.461 1 118052234.812 1     -3290.435          40.000  
C16  35360758.068 1 184132709.64921       166.418          48.000  
C 6  35271265.534 1 183666710.194 1       200.348          46.000  
C 9  35206675.682 1 183330368.918 1       560.358          46.000  
C 7  36152740.074 1 188256767.108 1       861.912          45.000  
C26  21495099.229 1 111930588.893 1      1421.583          47.000  
C21  22310925.719 1 116178810.12921     -2026.737          49.000  
C 3  37069166.947 1 193028844.847 1       123.311          43.000  
C10  37385364.195 1 194675367.629 1      1138.059          41.000  
C 1  37648990.864 1 196048145.467 1       133.260          44.000  
C 2  37508925.609 2 195318776.495 1        98.411          38.000  
C 4  38415188.166 1 200037920.833 1       141.184          41.000  
C29  24479965.099 1 127473562.886 1      2063.334          45.000  
C 5  39536859.317 2 205878769.65231       106.227          35.000  
G 4  23718792.973 2 124643093.283 1      3547.308          36.000  
C22  25623928.659 4 133431283.325 2     -3342.726          31.000  
C24  25681573.847 4 133730685.943 2      2702.097          29.000  
C30  25347241.007 4 131989602.718 3      -178.580          27.000  
> 2021  2 25  2 52 47.9980000  0 25                     
G31  19762628.754 1 103853312.238 1      -413.664          47.000  
G26  19984867.782 1 105021164.417 1      1993.798          47.000  
G32  21101418.620 1 110888699.496 1     -2497.798          48.000  
G22  22325921.688 1 117323503.963 1      -783.181          41.000  
G29  22183964.673 1 116577521.634 1      1046.907          45.000  
G 3  22218224.982 1 116757553.315 1       731.001          38.000  
G16  22127218.275 1 116279314.097 1      3715.166          42.000  
G25  22465218.697 1 118055526.190 1     -3292.494          40.000  
C16  35360726.309 1 184132544.71021       163.861          48.000  
C 6  35271227.248 1 183666511.301 1       197.766          46.000  
C 9  35206568.101 1 183329810.018 1       557.990          45.000  
C 7  36152574.995 1 188255906.700 1       859.250          45.000  
C26  21494826.622 1 111929168.826 1      1419.071          47.000  
C21  22311315.260 1 116180838.73421     -2029.926          49.000  
C 3  37069143.512 1 193028723.291 1       120.257          43.000  
C10  37385146.154 1 194674231.235 1      1135.395          41.000  
C 1  37648965.997 1 196048013.955 1       130.337          44.000  
C 2  37508907.164 1 195318680.054 1        95.529          38.000  
C 4  38415161.380 1 200037781.362 1       138.330          41.000  
C29  24479569.136 1 127471501.173 1      2060.383          45.000  
C 5  39536838.988 2 205878664.43121       103.955          35.000  
G 4  23718118.714 2 124639547.120 1      3545.461          36.000  
C22  25624572.100 4 133434627.505 2     -3345.039          31.000  
C24  25681067.128 4 133727986.014 2      2698.634          29.000  
C30  25347293.410 8 131989783.453 3      -182.461          29.000  
> 2021  2 25  2 52 48.9980000  0 25                     
G31  19762707.681 1 103853727.521 1      -417.740          47.000  
G26  19984488.693 1 105019172.499 1      1989.382          47.000  
G32  21101894.348 1 110891198.746 1     -2501.588          48.000  
G22  22326070.940 1 117324289.342 1      -788.337          41.000  
G29  22183765.531 1 116576476.362 1      1042.799          45.000  
G 3  22218086.305 1 116756824.413 1       725.691          38.000  
G16  22126511.629 1 116275600.571 1      3710.779          42.000  
G25  22465845.544 1 118058820.212 1     -3296.401          40.000  
C16  35360695.265 1 184132382.34021       159.998          48.000  
C 6  35271189.730 1 183666314.955 1       194.122          46.000  
C 9  35206461.603 1 183329253.707 1       554.071          46.000  
C 7  36152410.004 1 188255048.971 1       855.342          45.000  
C26  21494554.433 1 111927751.635 1      1414.681          47.000  
C21  22311705.290 1 116182870.33721     -2034.087          49.000  
C 3  37069120.373 1 193028604.253 1       116.760          43.000  
C10  37384928.498 1 194673097.550 1      1131.453          41.000  
C 1  37648941.113 1 196047884.893 1       126.724          44.000  
C 2  37508888.981 1 195318586.224 1        91.738          37.000  
C 4  38415135.153 1 200037644.284 1       134.972          41.000  
C29  24479173.626 1 127469442.122 1      2056.718          45.000  
C 5  39536819.130 2 205878561.90821       100.250          35.000  
G 4  23717444.752 2 124636003.668 1      3541.174          36.000  
C22  25625213.501 4 133437974.161 2     -3349.829          31.000  
C24  25680537.479 8 133725288.824 3      2694.625          29.000  
C30  25347307.737 8 131989966.855 4      -186.144          27.000  
> 2021  2 25  2 52 49.9980000  0 25                     
G31  19762787.080 1 103854145.682 1      -419.290          47.000  
G26  19984110.146 1 105017183.680 1      1987.349          47.000  
G32  21102370.600 1 110893701.044 1     -2503.613          48.000  
G22  22326220.401 1 117325077.773 1      -789.841          41.000  
G29  22183567.087 1 116575434.375 1      1040.497          45.000  
G 3  22217947.978 1 116756098.680 1       724.223          38.000  
G16  22125805.628 1 116271889.930 1      3709.643          41.000  
G25  22466473.228 1 118062117.099 1     -3298.023          42.000  
C16  35360664.832 1 184132222.61321       158.643          48.000  
C 6  35271152.457 1 183666121.267 1       192.639          46.000  
C 9  35206355.348 1 183328699.970 1       552.631          46.000  
C 7  36152246.111 1 188254193.898 1       853.904          45.000  
C26  21494282.629 1 111926337.225 1      1413.137          47.000  
C21  22312096.070 1 116184904.93621     -2035.978          49.000  
C 3  37069098.350 1 193028487.796 1       115.514          43.000  
C10  37384710.981 1 194671966.509 1      1129.847          41.000  
C 1  37648916.718 1 196047758.420 1       125.516          44.000  
C 2  37508871.287 2 195318494.974 1        90.131          37.000  
C 4  38415109.623 1 200037509.839 1       133.698          41.000  
C29  24478778.676 1 127467386.054 1      2054.960          45.000  
C 5  39536799.847 4 205878461.91222        99.102          35.000  
G 4  23716771.208 2 124632462.843 1      3540.100          36.000  
C22  25625855.267 4 133441323.408 3     -3349.983          31.000  
C24  25680017.375 8 133722594.250 3      2693.679          30.000  
C30  25347354.975 4 131990153.566 3      -187.899          33.000  
> 2021  2 25  2 52 50.9980000  0 25                     
G31  19762867.316 1 103854566.332 1      -422.591          47.000  
G26  19983732.296 1 105015197.614 1      1984.208          47.000  
G32  21102847.095 1 110896206.062 1     -2506.967          48.000  
G22  22326370.840 1 117325868.876 1      -792.874          41.000  
G29  22183369.568 1 116574395.255 1      1036.678          45.000  
G 3  22217810.819 1 116755375.692 1       721.007          39.000  
G16  22125099.889 1 116268181.830 1      3706.700          41.000  
G25  22467101.698 1 118065416.361 1     -3301.251          42.000  
C16  35360634.434 1 184132065.171 1       155.780          48.000  
C 6  35271115.567 1 183665929.866 1       189.661          46.000  
C 9  35206249.618 1 183328148.419 1       549.835          46.000  
C 7  36152082.271 1 188253341.203 1       850.992          45.000  
C26  21494011.540 1 111924925.204 1      1410.439          47.000  
C21  22312487.356 1 116186942.199 1     -2038.925          48.000  
C 3  37069076.311 1 193028373.616 1       112.585          43.000  
C10  37384494.214 1 194670837.796 1      1127.234          41.000  
C 1  37648893.282 1 196047634.264 1       122.296          44.000  
C 2  37508854.046 1 195318405.900 1        87.227          38.000  
C 4  38415084.128 1 200037377.704 1       130.460          41.000  
C29  24478384.336 1 127465332.579 1      2051.286          45.000  
C 5  39536780.948 4 205878364.04022        96.685          35.000  
G 4  23716097.525 2 124628924.128 1      3537.224          36.000  
C22  25626498.884 4 133444675.044 3     -3353.045          30.000  
C24  25679502.402 8 133719901.864 2      2690.894          31.000  
C30  25347406.488 4 131990343.123 2      -192.267          34.000  
> 2021  2 25  2 52 51.9980000  0 25                     
G31  19762947.901 1 103854989.445 1      -424.478          47.000  
G26  19983355.092 1 105013214.175 1      1980.645          47.000  
G32  21103324.271 1 110898713.717 1     -2510.677          48.000  
G22  22326522.308 1 117326662.531 1      -796.130          41.000  
G29  22183172.451 1 116573359.051 1      1034.416          45.000  
G 3  22217673.695 2 116754655.402 1       718.934          39.000  
G16  22124394.638 2 116264476.105 1      3702.429          42.000  
G25  22467730.534 1 118068718.078 1     -3302.238          42.000  
C16  35360604.524 1 184131909.967 1       153.345          48.000  
C 6  35271079.166 1 183665740.712 1       187.122          46.000  
C 9  35206144.096 1 183327599.007 1       547.925          46.000  
C 7  36151918.815 1 188252490.724 1       847.690          45.000  
C26  21493740.642 1 111923515.485 1      1407.543          47.000  
C21  22312879.009 1 116188981.980 1     -2042.945          49.000  
C 3  37069054.952 1 193028261.541 1       108.870          44.000  
C10  37384277.779 1 194669711.248 1      1123.785          41.000  
C 1  37648869.899 1 196047512.335 1       119.176          44.000  
C 2  37508837.381 2 195318318.861 1        83.916          38.000  
C 4  38415059.104 2 200037247.863 1       127.272          41.000  
C29  24477990.537 1 127463281.726 1      2048.763          45.000  
C 5  39536762.591 2 205878268.19721        92.982          36.000  
G 4  23715424.296 2 124625387.561 1      3535.207          36.000  
C22  25627142.849 4 133448028.823 2     -3357.663          31.000  
C24  25678992.437 8 133717211.581 3      2687.872          31.000  
C30  25347441.127 4 131990535.398 2      -194.453          31.000  
> 2021  2 25  2 52 52.9980000  0 24                     
G31  19763028.957 1 103855416.304 1      -430.053          47.000  
G26  19982978.185 1 105011235.117 1      1977.473          47.000  
G32  21103802.215 1 110901225.748 1     -2513.940          48.000  
G22  22326674.421 1 117327460.351 1      -799.511          42.000  
G29  22182976.049 1 116572327.103 1      1028.676          44.000  
G 3  22217537.077 2 116753939.154 1       713.964          39.000  
G16  22123690.871 1 116260774.759 1      3700.540          42.000  
G25  22468359.038 1 118072023.338 1     -3309.327          41.000  
C16  35360575.295 1 184131758.437 1       149.066          48.000  
C 6  35271043.497 1 183665555.249 1       183.215          46.000  
C 9  35206039.150 1 183327053.123 1       543.250          46.000  
C 7  36151756.074 1 188251644.204 1       844.933          45.000  
C26  21493470.688 1 111922109.577 1      1403.709          47.000  
C21  22313271.691 1 116191026.095 1     -2045.478          49.000  
C 3  37069034.273 1 193028153.486 1       107.175          43.000  
C10  37384062.129 1 194668588.786 1      1121.712          41.000  
C 1  37648847.266 1 196047394.406 1       116.248          44.000  
C 2  37508821.571 2 195318235.787 1        82.371          38.000  
C 4  38415035.041 2 200037121.913 1       124.304          40.000  
C29  24477597.540 1 127461234.919 1      2043.935          45.000  
C 5  39536745.053 2 205878176.15321        90.991          36.000  
G 4  23714752.218 2 124621854.287 1      3530.339          37.000  
C22  25627787.704 4 133451386.791 3     -3358.951          31.000  
C24  25678478.126 8 133714525.142 4      2686.261          30.000  
> 2021  2 25  2 52 53.9980000  0 25                     
G31  19763110.851 1 103855846.941 1      -432.125          47.000  
G26  19982602.499 1 105009259.549 1      1972.750          47.000  
G32  21104280.474 1 110903741.033 1     -2518.192          48.000  
G22  22326827.355 1 117328261.898 1      -803.613          42.000  
G29  22182780.257 1 116571299.069 1      1025.924          44.000  
G 3  22217401.245 2 116753227.065 1       710.327          39.000  
G16  22122986.946 1 116257076.422 1      3695.299          42.000  
G25  22468988.764 1 118075332.401 1     -3309.891          41.000  
C16  35360546.938 1 184131610.211 1       146.277          48.000  
C 6  35271008.545 1 183665373.072 1       180.133          46.000  
C 9  35205935.165 1 183326510.642 1       541.034          46.000  
C 7  36151594.101 1 188250800.702 1       841.099          45.000  
C26  21493201.448 1 111920707.128 1      1400.713          47.000  
C21  22313665.228 1 116193073.450 1     -2050.124          49.000  
C 3  37069013.891 1 193028048.124 1       102.717          43.000  
C10  37383847.160 1 194667469.166 1      1116.783          41.000  
C 1  37648825.610 1 196047279.256 1       112.155          44.000  
C 2  37508806.302 2 195318155.481 1        77.736          38.000  
C 4  38415010.942 2 200036998.861 1       120.231          40.000  
C29  24477205.120 1 127459191.564 1      2040.983          45.000  
C 5  39536727.847 2 205878087.045 1        86.653          36.000  
G 4  23714080.437 2 124618324.719 1      3528.812          37.000  
C22  25628433.136 4 133454747.262 3     -3363.260          31.000  
C24  25677961.408 8 133711841.763 3      2680.204          30.000  
C30  25347517.384 9                      -196.358          24.000  
> 2021  2 25  2 52 54.9980000  0 25                     
G31  19763193.687 1 103856282.423 1      -436.146          47.000  
G26  19982227.058 1 105007289.212 1      1969.885          46.000  
G32  21104760.006 1 110906260.955 1     -2520.195          48.000  
G22  22326980.882 1 117329069.016 1      -808.112          41.000  
G29  22182585.408 1 116570275.710 1      1022.814          45.000  
G 3  22217267.000 2 116752520.635 1       705.145          39.000  
G16  22122283.982 1 116253383.133 1      3693.047          41.000  
G25  22469619.520 1 118078645.958 1     -3314.304          41.000  
C16  35360519.768 1 184131466.496 1       143.335          48.000  
C 6  35270974.098 1 183665195.361 1       177.283          46.000  
C 9  35205832.261 1 183325972.816 1       537.280          46.000  
C 7  36151433.053 1 188249961.873 1       838.698          45.000  
C26  21492932.837 1 111919309.799 1      1396.685          47.000  
C21  22314059.551 1 116195125.875 1     -2052.757          49.000  
C 3  37068994.173 1 193027947.291 1       100.939          43.000  
C10  37383633.133 1 194666354.304 1      1114.719          41.000  
C 1  37648804.321 1 196047168.260 1       111.025          44.000  
C 2  37508791.591 2 195318079.983 1        75.064          37.000  
C 4  38414987.977 1 200036879.810 1       118.979          40.000  
C29  24476813.467 1 127457152.492 1      2038.787          45.000  
C 5  39536712.003 2 205878002.853 1        84.196          36.000  
G 4  23713410.069 1 124614800.221 1      3523.342          37.000  
C22  25629079.945 4 133458112.034 2     -3363.901          31.000  
C24  25677442.665 8 133709163.609 4      2677.750          29.000  
C30  25347548.184 9               6      -205.432          33.000  
> 2021  2 25  2 52 55.9980000  0 25                     
G31  19763276.681 1 103856717.763 1      -434.571          47.000  
G26  19981851.809 1 105005319.018 1      1970.719          46.000  
G32  21105239.991 1 110908781.392 1     -2520.128          48.000  
G22  22327134.007 1 117329875.903 1      -806.626          41.000  
G29  22182390.768 1 116569253.069 1      1023.088          45.000  
G 3  22217132.826 1 116751814.004 1       707.209          39.000  
G16  22121581.506 1 116249689.841 1      3693.730          41.000  
G25  22470249.769 1 118081959.499 1     -3312.650          42.000  
C16  35360492.022 1 184131322.578 1       144.556          48.000  
C 6  35270939.878 1 183665017.501 1       178.510          46.000  
C 9  35205728.920 1 183325434.525 1       539.105          46.000  
C 7  36151271.865 1 188249122.920 1       839.600          45.000  
C26  21492664.278 1 111917912.056 1      1398.536          46.000  
C21  22314453.874 1 116197178.431 1     -2052.154          49.000  
C 3  37068974.820 1 193027846.312 1       101.666          43.000  
C10  37383419.001 1 194665239.215 1      1115.728          41.000  
C 1  37648783.276 1 196047057.435 1       111.250          44.000  
C 2  37508777.021 2 195318004.044 1        76.468          37.000  
C 4  38414965.205 1 200036761.037 1       119.184          41.000  
C29  24476422.163 1 127455113.976 1      2038.760          45.000  
C 5  39536696.053 2 205877918.024 1        85.844          36.000  
G 4  23712739.283 2 124611274.883 1      3526.449          37.000  
C22  25629730.699 4 133461476.932 2     -3363.766          31.000  
C24  25676925.528 8 133706484.752 3      2679.986          29.000  
C30  25347608.003 9 131991509.03133      -205.302          32.000  
> 2021  2 25  2 52 56.9980000  0 25                     
G31  19763359.569 1 103857153.155 1      -437.588          47.000  
G26  19981477.205 1 105003348.681 1      1967.728          47.000  
G32  21105719.139 1 110911301.372 1     -2522.394          48.000  
G22  22327287.831 1 117330682.916 1      -809.977          41.000  
G29  22182196.320 1 116568230.532 1      1020.430          45.000  
G 3  22216998.267 1 116751107.866 1       703.339          39.000  
G16  22120878.280 1 116245995.958 1      3691.359          41.000  
G25  22470880.543 1 118085273.101 1     -3315.743          42.000  
C16  35360463.788 1 184131178.261 1       142.291          48.000  
C 6  35270905.362 1 183664839.202 1       176.160          46.000  
C 9  35205625.650 1 183324895.947 1       536.328          46.000  
C 7  36151110.486 1 188248283.346 1       837.178          45.000  
C26  21492395.911 1 111916514.206 1      1395.285          47.000  
C21  22314847.882 1 116199230.643 1     -2054.806          49.000  
C 3  37068955.102 1 193027744.437 1        99.753          43.000  
C10  37383204.643 1 194664123.398 1      1113.533          41.000  
C 1  37648761.690 1 196046945.708 1       109.661          44.000  
C 2  37508762.676 2 195317927.326 1        74.537          37.000  
C 4  38414942.031 1 200036641.386 1       117.834          40.000  
C29  24476030.703 1 127453075.148 1      2036.727          45.000  
C 5  39536679.632 2 205877832.698 1        82.700          36.000  
G 4  23712068.305 2 124607749.622 1      3522.864          37.000  
C22  25630367.859 8 133464840.838 3     -3366.296          30.000  
C24  25676413.696 8 133703805.467 3      2677.194          29.000  
C30  25347640.932 9 131991714.45122      -207.876          35.000  
> 2021  2 25  2 52 57.9980000  0 25                     
G31  19763443.086 1 103857591.474 1      -438.824          47.000  
G26  19981102.863 1 105001381.689 1      1966.361          46.000  
G32  21106199.806 1 110913824.345 1     -2523.469          48.000  
G22  22327442.248 1 117331493.392 1      -811.181          41.000  
G29  22182002.134 1 116567211.011 1      1018.962          45.000  
G 3  22216864.528 2 116750405.258 1       701.493          39.000  
G16  22120176.118 1 116242305.282 1      3690.603          42.000  
G25  22471511.316 1 118088589.309 1     -3316.577          41.000  
C16  35360436.915 1 184131036.664 1       141.205          48.000  
C 6  35270871.613 1 183664663.576 1       175.311          46.000  
C 9  35205522.589 1 183324360.087 1       535.571          46.000  
C 7  36150949.979 1 188247446.632 1       836.358          45.000  
C26  21492128.120 1 111915119.428 1      1394.269          46.000  
C21  22315242.606 1 116201286.089 1     -2055.894          49.000  
C 3  37068935.871 1 193027645.343 1        98.796          43.000  
C10  37382990.721 1 194663010.535 1      1112.552          41.000  
C 1  37648740.697 1 196046836.570 1       108.650          44.000  
C 2  37508748.332 2 195317853.531 1        73.757          37.000  
C 4  38414919.450 1 200036524.232 1       116.919          40.000  
C29  24475639.591 1 127451039.013 1      2035.614          45.000  
C 5  39536663.857 2 205877750.200 1        82.266          36.000  
G 4  23711398.304 2 124604227.221 1      3521.616          37.000  
C22  25631014.791 4 133468207.387 2     -3366.824          31.000  
C24  25675886.595 4 133701129.332 3      2675.578          28.000  
C30  25347669.777 8 131991922.77622      -207.729          30.000  
> 2021  2 25  2 52 58.9980000  0 25                     
G31  19763527.021 1 103858031.295 1      -441.311          47.000  
G26  19980728.678 1 104999416.457 1      1963.686          46.000  
G32  21106680.716 1 110916349.093 1     -2526.477          49.000  
G22  22327596.176 1 117332305.510 1      -813.615          41.000  
G29  22181808.472 1 116566193.481 1      1015.805          45.000  
G 3  22216730.232 2 116749704.396 1       698.832          38.000  
G16  22119474.444 1 116238616.155 1      3688.071          42.000  
G25  22472142.211 1 118091907.036 1     -3319.611          41.000  
C16  35360410.320 1 184130896.366 1       138.959          48.000  
C 6  35270838.318 1 183664489.313 1       172.736          46.000  
C 9  35205419.720 1 183323825.450 1       533.472          46.000  
C 7  36150789.733 1 188246611.268 1       833.940          45.000  
C26  21491860.190 1 111913726.033 1      1391.889          46.000  
C21  22315637.696 1 116203343.211 1     -2058.638          49.000  
C 3  37068917.426 1 193027547.529 1        96.332          43.000  
C10  37382777.566 1 194661899.004 1      1110.094          41.000  
C 1  37648719.897 1 196046728.786 1       106.464          45.000  
C 2  37508734.355 2 195317780.942 1        71.015          37.000  
C 4  38414896.835 1 200036408.476 1       114.295          41.000  
C29  24475248.881 1 127449004.598 1      2032.983          45.000  
C 5  39536648.414 2 205877668.902 1        80.193          36.000  
G 4  23710728.163 2 124600705.961 1      3519.658          36.000  
C22  25631664.340 8 133471575.325 3     -3370.061          31.000  
C24  25675383.557 4 133698454.374 2      2673.524          28.000  
C30  25347694.190 8 131992133.17423      -211.696          28.000  
> 2021  2 25  2 52 59.9980000  0 25                     
G31  19763611.271 1 103858473.180 1      -442.790          47.000  
G26  19980355.173 1 104997453.523 1      1961.728          46.000  
G32  21107161.662 1 110918876.181 1     -2528.050          48.000  
G22  22327751.187 1 117333119.833 1      -815.776          41.000  
G29  22181615.473 1 116565178.514 1      1014.094          45.000  
G 3  22216596.633 2 116749005.763 1       697.434          38.000  
G16  22118772.858 1 116234929.135 1      3686.096          42.000  
G25  22472773.542 1 118095226.786 1     -3320.612          41.000  
C16  35360383.238 1 184130757.948 1       137.585          48.000  
C 6  35270805.372 1 183664316.926 1       171.600          46.000  
C 9  35205317.305 1 183323292.580 1       532.080          46.000  
C 7  36150629.610 1 188245777.861 1       832.412          45.000  
C26  21491593.097 1 111912334.559 1      1390.517          46.000  
C21  22316033.136 1 116205402.534 1     -2060.314          49.000  
C 3  37068898.964 1 193027451.533 1        95.168          43.000  
C10  37382564.255 1 194660789.340 1      1108.828          41.000  
C 1  37648699.672 1 196046622.959 1       104.997          45.000  
C 2  37508720.988 2 195317710.057 1        70.389          37.000  
C 4  38414875.144 1 200036294.720 1       112.855          41.000  
C29  24474858.554 1 127446972.499 1      2031.386          45.000  
C 5  39536633.128 2 205877589.252 1        78.728          36.000  
G 4  23710058.476 2 124597186.376 1      3518.814          36.000  
C22  25632308.654 8 133474945.170 3     -3370.521          31.000  
C24  25674857.014 4 133695781.101 2      2672.070          28.000  
C30  25347749.908 8 131992345.79523      -213.755          28.000  
> 2021  2 25  2 53  0.9980000  0 25                     
G31  19763695.556 1 103858916.733 1      -444.377          47.000  
G26  19979981.913 1 104995492.559 1      1959.846          46.000  
G32  21107643.008 1 110921404.832 1     -2529.290          48.000  
G22  22327906.441 1 117333936.282 1      -817.659          41.000  
G29  22181422.735 1 116564165.263 1      1012.388          45.000  
G 3  22216463.680 1 116748309.451 1       694.680          38.000  
G16  22118071.604 1 116231243.855 1      3684.556          42.000  
G25  22473405.467 1 118098547.930 1     -3321.811          41.000  
C16  35360356.870 1 184130620.914 1       136.304          48.000  
C 6  35270772.688 1 183664145.903 1       170.227          46.000  
C 9  35205215.186 1 183322761.169 1       530.743          46.000  
C 7  36150469.941 1 188244945.888 1       831.130          45.000  
C26  21491326.527 1 111910944.863 1      1388.939          46.000  
C21  22316429.029 1 116207463.696 1     -2062.197          49.000  
C 3  37068880.903 1 193027356.897 1        93.918          43.000  
C10  37382351.519 1 194659681.206 1      1107.134          41.000  
C 1  37648679.465 1 196046518.292 1       103.985          45.000  
C 2  37508707.569 2 195317640.699 1        68.472          37.000  
C 4  38414853.506 1 200036182.016 1       111.914          41.000  
C29  24474468.646 1 127444941.758 1      2030.053          45.000  
C 5  39536618.190 2 205877511.190 1        77.643          36.000  
G 4  23709389.155 2 124593668.444 1      3517.371          36.000  
C22  25632956.790 8 133478316.191 4     -3370.637          30.000  
C24  25674341.360 4 133693109.622 3      2670.688          27.000  
C30  25347788.334 8 131992560.17323      -215.562          28.000  
> 2021  2 25  2 53  1.9980000  0 25                     
G31  19763780.346 1 103859361.931 1      -445.921          47.000  
G26  19979608.740 1 104993533.435 1      1958.379          46.000  
G32  21108124.373 1 110923935.343 1     -2531.353          48.000  
G22  22328061.521 1 117334754.522 1      -819.101          41.000  
G29  22181230.399 1 116563154.078 1      1010.048          45.000  
G 3  22216331.564 1 116747615.015 1       693.721          38.000  
G16  22117371.205 1 116227560.211 1      3682.848          42.000  
G25  22474037.828 1 118101870.714 1     -3323.762          41.000  
C16  35360331.288 1 184130485.317 1       134.998          48.000  
C 6  35270739.934 1 183663976.323 1       168.842          46.000  
C 9  35205113.259 1 183322231.100 1       529.547          46.000  
C 7  36150310.411 1 188244115.385 1       829.849          45.000  
C26  21491059.870 1 111909556.701 1      1387.488          46.000  
C21  22316825.323 1 116209526.601 1     -2063.653          49.000  
C 3  37068862.877 1 193027263.583 1        92.810          43.000  
C10  37382139.080 1 194658574.480 1      1106.077          41.000  
C 1  37648659.571 1 196046415.035 1       102.607          44.000  
C 2  37508694.638 1 195317572.613 1        67.218          37.000  
C 4  38414832.007 1 200036070.762 1       110.575          41.000  
C29  24474079.035 1 127442912.812 1      2028.073          45.000  
C 5  39536603.148 2 205877434.390 1        76.541          36.000  
G 4  23708719.870 2 124590151.858 1      3516.222          36.000  
C22  25633607.387 8 133481688.672 3     -3372.320          31.000  
C24  25673847.589 4 133690439.526 3      2669.527          28.000  
C30  25347823.984 4 131992776.40823      -217.100          28.000  
> 2021  2 25  2 53  2.9980000  0 25                     
G31  19763865.364 1 103859809.454 1      -448.935          45.000  
G26  19979236.457 1 104991576.774 1      1955.027          45.000  
G32  21108606.208 1 110926468.341 1     -2534.200          47.000  
G22  22328217.875 1 117335575.129 1      -822.372          40.000  
G29  22181038.429 1 116562145.724 1      1006.996          44.000  
G 3  22216199.937 1 116746923.107 1       689.894          36.000  
G16  22116670.666 1 116223878.759 1      3679.784          41.000  
G25  22474670.433 1 118105195.876 1     -3326.707          40.000  
C16  35360305.410 1 184130351.826 1       132.281          43.000  
C 6  35270707.738 1 183663808.845 1       166.058          42.000  
C 9  35205012.100 1 183321703.014 1       526.849          41.000  
C 7  36150151.335 1 188243286.953 1       827.119          40.000  
C26  21490793.632 1 111908170.658 1      1384.633          42.000  
C21  22317221.932 1 116211591.850 1     -2066.623          44.000  
C 3  37068845.340 1 193027172.235 1        90.162          39.000  
C10  37381927.060 1 194657469.774 1      1103.175          37.000  
C 1  37648640.202 1 196046313.877 1       100.030          40.000  
C 2  37508682.091 2 195317506.357 1        65.125          33.000  
C 4  38414811.172 1 200035961.656 1       108.255          36.000  
C29  24473689.948 1 127440886.413 1      2024.997          40.000  
C 5  39536588.874 2 205877359.397 1        73.833          32.000  
G 4  23708051.142 2 124586637.195 1      3513.313          34.000  
C22  25634257.355 4 133485063.257 3     -3376.338          28.000  
C24  25673329.318 4 133687771.147 4      2666.394          25.000  
C30  25347868.081 4 131992995.44423      -221.123          25.000  
> 2021  2 25  2 53  3.9980000  0 25                     
G31  19763951.428 1 103860260.591 1      -453.431          48.000  
G26  19978864.890 1 104989624.088 1      1950.373          48.000  
G32  21109088.864 1 110929004.956 1     -2538.963          50.000  
G22  22328375.032 1 117336399.873 1      -827.276          42.000  
G29  22180847.139 1 116561141.059 1      1002.257          46.000  
G 3  22216068.729 1 116746235.410 1       685.011          39.000  
G16  22115971.017 1 116220201.115 1      3675.305          43.000  
G25  22475303.702 1 118108524.317 1     -3330.303          43.000  
C16  35360280.194 1 184130221.663 1       127.930          46.000  
C 6  35270676.380 1 183663644.694 1       162.006          45.000  
C 9  35204911.657 1 183321178.326 1       522.491          44.000  
C 7  36149992.974 1 188242461.999 1       822.612          43.000  
C26  21490528.040 1 111906788.346 1      1380.238          45.000  
C21  22317619.605 1 116213660.948 1     -2071.360          47.000  
C 3  37068828.779 1 193027084.256 1        85.950          42.000  
C10  37381715.494 1 194656368.576 1      1098.949          39.000  
C 1  37648621.338 1 196046215.897 1        95.967          43.000  
C 2  37508669.894 2 195317443.654 1        60.209          36.000  
C 4  38414790.912 1 200035855.679 1       104.273          39.000  
C29  24473301.576 1 127438863.334 1      2020.798          43.000  
C 5  39536575.210 2 205877287.983 1        69.501          34.000  
G 4  23707383.043 4 124583126.134 2      3509.528          37.000  
C22  25634909.051 4 133488440.983 3     -3379.819          29.000  
C24  25672809.301 4 133685106.662 4      2661.611          25.000  
C30  25347910.869 4 131993217.38713      -223.949          26.000  
> 2021  2 25  2 53  4.9980000  0 25                     
G31  19764038.016 1 103860716.530 1      -458.813          48.000  
G26  19978494.195 1 104987676.433 1      1944.678          48.000  
G32  21109572.479 1 110931546.552 1     -2544.498          50.000  
G22  22328532.887 1 117337229.591 1      -832.761          42.000  
G29  22180657.159 1 116560141.614 1       996.471          46.000  
G 3  22215938.602 2 116745552.780 1       679.988          39.000  
G16  22115272.397 1 116216528.265 1      3670.119          43.000  
G25  22475938.000 1 118111857.571 1     -3336.118          42.000  
C16  35360256.567 1 184130096.071 1       122.937          46.000  
C 6  35270646.069 1 183663485.119 1       156.750          45.000  
C 9  35204811.754 1 183320658.133 1       517.383          44.000  
C 7  36149835.206 1 188241641.652 1       817.111          43.000  
C26  21490263.739 1 111905410.714 1      1374.713          45.000  
C21  22318017.906 1 116215734.950 1     -2077.058          47.000  
C 3  37068812.690 1 193027000.775 1        80.500          42.000  
C10  37381504.747 1 194655271.934 1      1093.859          39.000  
C 1  37648603.678 1 196046122.485 1        90.588          43.000  
C 2  37508658.673 2 195317385.372 1        55.627          36.000  
C 4  38414771.577 1 200035754.270 1        98.483          39.000  
C29  24472913.954 1 127436845.168 1      2015.405          43.000  
C 5  39536562.280 2 205877222.99331        63.899          34.000  
G 4  23706715.642 2 124579619.611 1      3503.486          37.000  
C22  25635555.425 4 133491823.313 3     -3385.158          29.000  
C24  25672299.214 4 133682446.548 4      2657.705          25.000  
C30  25347953.221 4 131993445.077 3      -230.669          27.000  
> 2021  2 25  2 53  5.9980000  0 25                     
G31  19764125.581 1 103861177.540 1      -461.827          48.000  
G26  19978124.529 1 104985734.138 1      1941.464          47.000  
G32  21110056.949 1 110934093.357 1     -2547.806          49.000  
G22  22328691.422 1 117338064.673 1      -836.187          42.000  
G29  22180467.824 1 116559147.563 1       992.703          46.000  
G 3  22215809.645 2 116744875.650 1       676.147          39.000  
G16  22114574.703 1 116212860.570 1      3667.313          43.000  
G25  22476573.030 1 118115195.758 1     -3339.410          43.000  
C16  35360233.096 1 184129975.309 1       119.891          46.000  
C 6  35270616.281 1 183663330.363 1       153.937          45.000  
C 9  35204712.829 1 183320142.714 1       514.801          44.000  
C 7  36149678.591 1 188240826.162 1       814.672          43.000  
C26  21490000.101 1 111904038.100 1      1371.769          45.000  
C21  22318417.342 1 116217814.163 1     -2079.964          47.000  
C 3  37068797.858 1 193026922.067 1        78.138          42.000  
C10  37381295.013 1 194654180.175 1      1091.327          39.000  
C 1  37648586.507 1 196046033.829 1        87.758          43.000  
C 2  37508648.482 2 195317331.904 1        53.057          36.000  
C 4  38414753.167 1 200035657.611 1        95.744          39.000  
C29  24472527.606 1 127434832.063 1      2012.131          44.000  
C 5  39536550.553 2 205877160.78421        61.665          34.000  
G 4  23706049.062 2 124576117.872 1      3501.274          38.000  
C22  25636203.107 4 133495210.339 3     -3386.921          28.000  
C24  25671795.112 4 133679791.388 4      2655.186          26.000  
C30  25348010.073 4 131993677.918 2      -234.131          32.000  
> 2021  2 25  2 53  6.9980000  0 25                     
G31  19764213.356 1 103861639.024 1      -460.900          48.000  
G26  19977754.969 1 104983792.299 1      1942.058          47.000  
G32  21110541.490 1 110936640.637 1     -2546.715          49.000  
G22  22328850.498 1 117338900.184 1      -835.322          42.000  
G29  22180278.978 1 116558154.360 1       993.661          46.000  
G 3  22215680.880 2 116744199.190 1       676.212          39.000  
G16  22113876.502 1 116209193.047 1      3667.831          43.000  
G25  22477208.114 1 118118534.468 1     -3338.147          42.000  
C16  35360210.097 1 184129854.732 1       121.155          46.000  
C 6  35270586.546 1 183663175.802 1       155.176          45.000  
C 9  35204613.886 1 183319627.438 1       516.028          44.000  
C 7  36149521.958 1 188240010.783 1       815.921          43.000  
C26  21489736.795 1 111902665.726 1      1372.811          45.000  
C21  22318816.463 1 116219893.720 1     -2079.212          47.000  
C 3  37068782.327 1 193026843.284 1        79.310          42.000  
C10  37381085.105 1 194653088.411 1      1092.371          39.000  
C 1  37648569.685 1 196045945.219 1        89.295          43.000  
C 2  37508638.117 2 195317278.297 1        53.731          36.000  
C 4  38414734.775 1 200035561.054 1        97.316          39.000  
C29  24472141.101 1 127432819.514 1      2013.158          44.000  
C 5  39536538.617 2 205877100.46831        62.573          34.000  
G 4  23705382.690 2 124572616.350 1      3501.741          37.000  
C22  25636854.611 4 133498597.457 3     -3386.165          28.000  
C24  25671279.859 4 133677136.225 4      2655.246          25.000  
C30  25348056.561 4 131993911.581 2      -233.447          32.000  
> 2021  2 25  2 53  7.9980000  0 25                     
G31  19764300.799 1 103862099.081 1      -459.451          47.000  
G26  19977385.338 1 104981849.472 1      1943.459          47.000  
G32  21111025.890 1 110939186.641 1     -2545.411          49.000  
G22  22329009.644 1 117339734.771 1      -833.781          41.000  
G29  22180089.434 1 116557159.946 1       994.709          46.000  
G 3  22215552.167 2 116743521.835 1       677.122          39.000  
G16  22113178.371 1 116205524.362 1      3669.629          43.000  
G25  22477843.476 1 118121871.490 1     -3336.319          42.000  
C16  35360186.626 1 184129732.559 1       122.882          46.000  
C 6  35270556.724 1 183663019.647 1       156.891          45.000  
C 9  35204514.630 1 183319110.570 1       517.603          44.000  
C 7  36149365.481 1 188239193.978 1       817.512          43.000  
C26  21489473.070 1 111901292.087 1      1374.312          45.000  
C21  22319215.375 1 116221972.227 1     -2077.920          47.000  
C 3  37068767.163 1 193026763.007 1        81.008          42.000  
C10  37380874.917 1 194651995.315 1      1093.880          39.000  
C 1  37648552.165 1 196045854.991 1        90.955          43.000  
C 2  37508627.385 2 195317223.279 1        55.651          36.000  
C 4  38414715.649 1 200035462.809 1        98.754          39.000  
C29  24471754.248 1 127430805.473 1      2014.648          43.000  
C 5  39536526.385 2 205877036.72121        64.419          34.000  
G 4  23704715.917 2 124569113.235 1      3503.567          37.000  
C22  25637505.225 4 133501982.988 3     -3384.849          28.000  
C24  25670768.795 4 133674479.715 4      2657.327          25.000  
C30  25348104.619 4 131994143.924 2      -231.918          31.000  
> 2021  2 25  2 53  8.9980000  0 25                     
G31  19764388.259 1 103862558.828 1      -460.472          47.000  
G26  19977015.673 1 104979906.388 1      1942.314          46.000  
G32  21111510.273 1 110941732.381 1     -2546.456          48.000  
G22  22329168.493 1 117340569.086 1      -835.255          41.000  
G29  22179899.889 1 116556165.612 1       993.559          45.000  
G 3  22215423.594 2 116742844.337 1       676.168          38.000  
G16  22112480.066 1 116201855.144 1      3668.421          42.000  
G25  22478478.769 1 118125208.241 1     -3337.229          41.000  
C16  35360162.545 1 184129609.828 1       122.174          46.000  
C 6  35270526.360 1 183662862.924 1       156.293          45.000  
C 9  35204415.320 1 183318593.073 1       516.949          44.000  
C 7  36149208.587 1 188238376.543 1       816.855          43.000  
C26  21489209.222 1 111899917.932 1      1373.371          45.000  
C21  22319614.409 1 116224050.356 1     -2079.043          47.000  
C 3  37068751.597 1 193026681.944 1        80.208          42.000  
C10  37380664.746 1 194650901.441 1      1093.484          39.000  
C 1  37648534.523 1 196045764.081 1        90.292          43.000  
C 2  37508616.828 2 195317167.388 1        55.485          36.000  
C 4  38414696.663 1 200035363.921 1        98.432          39.000  
C29  24471367.429 1 127428791.228 1      2013.567          43.000  
C 5  39536514.082 2 205876972.09721        63.538          34.000  
G 4  23704049.197 2 124565609.480 2      3503.188          36.000  
C22  25638156.554 4 133505367.687 3     -3385.250          28.000  
C24  25670258.306 4 133671822.420 4      2656.458          26.000  
C30  25348149.396 8 131994376.268 3      -233.408          31.000  
> 2021  2 25  2 53  9.9980000  0 25                     
G31  19764475.825 1 103863019.945 1      -462.229          47.000  
G26  19976646.147 1 104977965.057 1      1939.999          46.000  
G32  21111994.377 1 110944279.707 1     -2548.603          48.000  
G22  22329328.145 1 117341405.147 1      -837.640          41.000  
G29  22179711.252 1 116555172.968 1       991.428          45.000  
G 3  22215294.794 2 116742168.668 1       673.808          38.000  
G16  22111781.795 1 116198187.527 1      3666.339          42.000  
G25  22479114.393 1 118128546.204 1     -3338.835          41.000  
C16  35360139.702 1 184129488.272 1       120.587          46.000  
C 6  35270496.922 1 183662707.379 1       154.480          45.000  
C 9  35204316.151 1 183318076.702 1       515.234          44.000  
C 7  36149051.639 1 188237560.422 1       815.122          44.000  
C26  21488945.689 1 111898545.195 1      1371.403          45.000  
C21  22320013.478 1 116226130.156 1     -2081.031          47.000  
C 3  37068736.590 1 193026602.108 1        78.926          42.000  
C10  37380454.925 1 194649808.963 1      1091.185          39.000  
C 1  37648517.561 1 196045674.368 1        88.753          43.000  
C 2  37508606.445 2 195317112.796 1        53.386          36.000  
C 4  38414677.782 1 200035266.202 1        96.628          39.000  
C29  24470980.871 1 127426778.411 1      2011.711          43.000  
C 5  39536501.553 2 205876908.78222        62.185          34.000  
G 4  23703382.703 2 124562106.932 1      3501.439          36.000  
C22  25638806.732 4 133508753.774 3     -3387.240          28.000  
C24  25669751.831 4 133669166.488 4      2655.163          26.000  
C30  25348200.054 4 131994610.163 3      -234.447          30.000  
> 2021  2 25  2 53 10.9980000  0 25                     
G31  19764563.704 1 103863482.657 1      -463.358          47.000  
G26  19976277.197 1 104976025.549 1      1938.922          46.000  
G32  21112479.319 1 110946828.630 1     -2549.654          48.000  
G22  22329487.414 1 117342243.087 1      -838.662          41.000  
G29  22179523.139 1 116554182.115 1       990.287          45.000  
G 3  22215166.779 2 116741495.033 1       672.862          38.000  
G16  22111084.170 1 116194521.494 1      3665.352          42.000  
G25  22479750.174 1 118131885.575 1     -3339.733          42.000  
C16  35360116.494 1 184129368.053 1       119.830          46.000  
C 6  35270467.256 1 183662553.152 1       153.754          45.000  
C 9  35204217.068 1 183317561.640 1       514.545          44.000  
C 7  36148895.338 1 188236745.673 1       814.299          43.000  
C26  21488682.557 1 111897174.046 1      1370.574          45.000  
C21  22320413.193 1 116228211.668 1     -2082.201          47.000  
C 3  37068721.775 1 193026523.553 1        78.082          42.000  
C10  37380245.505 1 194648717.856 1      1090.580          39.000  
C 1  37648500.356 1 196045585.838 1        88.186          43.000  
C 2  37508596.027 2 195317059.493 1        52.892          36.000  
C 4  38414659.268 1 200035169.644 1        95.979          39.000  
C29  24470594.646 1 127424767.059 1      2010.791          43.000  
C 5  39536489.512 2 205876846.76721        61.519          34.000  
G 4  23702716.175 2 124558605.777 1      3500.864          36.000  
C22  25639458.078 4 133512141.016 3     -3388.341          28.000  
C24  25669238.812 4 133666512.106 4      2653.527          26.000  
C30  25348248.950 4 131994845.833 2      -235.914          31.000  
> 2021  2 25  2 53 11.9980000  0 25                     
G31  19764652.037 1 103863946.961 1      -465.112          47.000  
G26  19975908.683 1 104974087.806 1      1936.508          46.000  
G32  21112964.679 1 110949379.337 1     -2551.649          48.000  
G22  22329647.083 1 117343082.710 1      -840.865          41.000  
G29  22179335.113 1 116553193.334 1       987.901          45.000  
G 3  22215038.677 1 116740823.201 1       670.299          38.000  
G16  22110386.685 1 116190856.974 1      3663.309          42.000  
G25  22480386.095 1 118135226.563 1     -3341.772          41.000  
C16  35360093.355 1 184129249.216 1       118.085          46.000  
C 6  35270437.992 1 183662400.329 1       152.020          45.000  
C 9  35204118.422 1 183317047.874 1       513.037          44.000  
C 7  36148739.176 1 188235932.312 1       812.412          43.000  
C26  21488419.443 1 111895804.313 1      1368.636          45.000  
C21  22320813.047 1 116230294.821 1     -2084.123          47.000  
C 3  37068706.436 1 193026446.243 1        76.342          42.000  
C10  37380036.277 1 194647628.068 1      1088.917          39.000  
C 1  37648483.813 1 196045498.683 1        86.354          43.000  
C 2  37508586.115 2 195317007.386 1        50.906          36.000  
C 4  38414640.893 1 200035074.515 1        94.375          39.000  
C29  24470208.734 1 127422757.489 1      2008.913          44.000  
C 5  39536477.978 2 205876785.88921        59.560          34.000  
G 4  23702050.013 2 124555105.894 1      3498.591          36.000  
C22  25640106.162 4 133515529.561 3     -3389.583          28.000  
C24  25668727.538 4 133663858.825 5      2652.327          25.000  
C30  25348286.084 4 131995083.438 2      -238.848          32.000  
> 2021  2 25  2 53 12.9980000  0 25                     
G31  19764740.859 1 103864413.179 1      -467.267          47.000  
G26  19975540.327 1 104972152.234 1      1934.496          46.000  
G32  21113450.563 1 110951932.014 1     -2553.802          48.000  
G22  22329807.206 1 117343924.579 1      -842.947          41.000  
G29  22179147.296 1 116552206.701 1       985.419          45.000  
G 3  22214910.942 2 116740153.702 1       668.460          38.000  
G16  22109689.374 1 116187194.448 1      3661.477          42.000  
G25  22481022.382 1 118138569.288 1     -3343.303          41.000  
C16  35360071.350 1 184129132.042 1       116.315          46.000  
C 6  35270408.851 1 183662249.161 1       150.226          45.000  
C 9  35204020.300 1 183316535.784 1       511.298          44.000  
C 7  36148583.363 1 188235120.687 1       810.703          43.000  
C26  21488156.625 1 111894436.520 1      1366.685          45.000  
C21  22321213.198 1 116232380.049 1     -2086.295          47.000  
C 3  37068692.231 1 193026370.537 1        75.042          42.000  
C10  37379827.240 1 194646540.030 1      1086.895          39.000  
C 1  37648467.095 1 196045413.092 1        84.984          43.000  
C 2  37508576.622 2 195316956.945 1        49.544          36.000  
C 4  38414623.250 1 200034980.892 1        92.639          39.000  
C29  24469823.102 1 127420749.753 1      2006.906          44.000  
C 5  39536466.914 2 205876726.73521        57.667          34.000  
G 4  23701384.322 2 124551607.750 1      3496.917          36.000  
C22  25640761.139 4 133518919.676 3     -3391.070          27.000  
C24  25668222.302 4 133661207.401 4      2650.071          26.000  
C30  25348330.407 4 131995323.059 2      -240.522          32.000  
> 2021  2 25  2 53 13.9980000  0 25                     
G31  19764830.047 1 103864881.845 1      -468.089          47.000  
G26  19975172.546 1 104970219.389 1      1933.381          46.000  
G32  21113937.127 1 110954487.393 1     -2554.867          48.000  
G22  22329968.132 2 117344769.106 1      -843.838          41.000  
G29  22178960.003 1 116551222.957 1       984.044          45.000  
G 3  22214784.218 2 116739486.938 1       667.470          38.000  
G16  22108992.535 1 116183534.418 1      3660.832          41.000  
G25  22481659.141 1 118141914.452 1     -3345.022          41.000  
C16  35360048.891 1 184129017.136 1       115.533          46.000  
C 6  35270380.250 1 183662100.254 1       149.622          45.000  
C 9  35203922.334 1 183316025.847 1       510.748          44.000  
C 7  36148427.846 1 188234311.363 1       810.086          43.000  
C26  21487894.331 1 111893071.066 1      1366.266          45.000  
C21  22321614.134 1 116234467.917 1     -2087.403          47.000  
C 3  37068677.800 1 193026297.083 1        74.358          42.000  
C10  37379618.798 2 194645454.248 1      1086.850          39.000  
C 1  37648451.373 1 196045329.798 1        83.828          43.000  
C 2  37508567.374 2 195316908.668 2        49.128          36.000  
C 4  38414605.486 2 200034889.611 1        91.985          39.000  
C29  24469438.080 1 127418744.651 1      2005.729          44.000  
C 5  39536456.025 2 205876669.681 2        58.256          35.000  
G 4  23700719.050 4 124548111.724 2      3497.224          37.000  
C22  25641413.969 4 133522312.103 4     -3391.050          27.000  
C24  25667712.843 4 133658558.220 4      2650.271          26.000  
C30  25348372.166 4 131995565.505 2      -242.374          33.000  
> 2021  2 25  2 53 14.9980000  0 25                     
G31  19764919.339 1 103865350.466 1      -468.868          47.000  
G26  19974804.835 1 104968286.703 1      1932.017          47.000  
G32  21114423.622 1 110957042.812 1     -2555.749          48.000  
G22  22330129.355 1 117345613.781 1      -845.153          41.000  
G29  22178772.919 1 116550239.478 1       983.020          45.000  
G 3  22214658.280 1 116738820.479 1       665.608          39.000  
G16  22108295.556 2 116179874.308 1      3660.043          41.000  
G25  22482295.864 1 118145259.451 1     -3345.617          41.000  
C16  35360027.114 1 184128901.943 1       114.856          46.000  
C 6  35270351.841 1 183661951.084 1       148.907          45.000  
C 9  35203824.282 1 183315515.591 1       510.016          44.000  
C 7  36148272.295 1 188233501.799 1       809.311          43.000  
C26  21487632.264 1 111891705.509 1      1365.203          45.000  
C21  22322014.966 1 116236555.815 1     -2088.242          47.000  
C 3  37068663.264 1 193026223.253 1        73.727          42.000  
C10  37379410.337 1 194644368.228 1      1085.729          40.000  
C 1  37648435.284 1 196045246.140 1        83.661          43.000  
C 2  37508557.549 2 195316860.002 1        48.889          36.000  
C 4  38414587.914 1 200034797.963 1        91.632          39.000  
C29  24469053.198 1 127416739.525 1      2004.933          44.000  
C 5  39536445.276 2 205876612.249 1        57.206          35.000  
G 4  23700053.673 4 124544615.425 2      3495.509          37.000  
C22  25642061.843 4 133525704.179 5     -3392.015          27.000  
C24  25667206.315 4 133655908.795 4      2648.522          27.000  
C30  25348415.791 4 131995808.111 2      -243.025          33.000  
> 2021  2 25  2 53 15.9980000  0 25                     
G31  19765008.475 1 103865819.420 1      -469.853          47.000  
G26  19974437.438 1 104966354.506 1      1931.045          47.000  
G32  21114910.047 1 110959598.428 1     -2556.754          48.000  
G22  22330290.752 1 117346459.098 1      -846.409          41.000  
G29  22178585.713 1 116549256.457 1       981.846          45.000  
G 3  22214532.359 1 116738154.860 1       664.146          39.000  
G16  22107598.803 1 116176214.447 1      3659.143          41.000  
G25  22482932.256 1 118148604.612 1     -3345.878          41.000  
C16  35360004.934 1 184128786.790 1       114.386          46.000  
C 6  35270323.135 1 183661801.917 1       148.285          45.000  
C 9  35203726.194 1 183315005.429 1       509.320          44.000  
C 7  36148116.953 1 188232692.270 1       808.640          43.000  
C26  21487369.934 1 111890340.290 1      1364.244          45.000  
C21  22322415.919 1 116238644.091 1     -2089.427          47.000  
C 3  37068649.042 1 193026149.285 1        73.534          42.000  
C10  37379201.999 1 194643282.188 1      1085.226          40.000  
C 1  37648419.421 1 196045162.268 1        82.845          43.000  
C 2  37508548.143 2 195316811.336 1        47.932          36.000  
C 4  38414570.289 1 200034706.062 1        91.174          39.000  
C29  24468668.002 1 127414734.516 1      2003.839          44.000  
C 5  39536434.335 2 205876556.87831        56.950          35.000  
G 4  23699388.558 2 124541119.372 1      3495.392          37.000  
C22  25642714.324 4 133529096.073 4     -3392.627          27.000  
C24  25666699.142 4 133653259.508 4      2647.696          28.000  
C30  25348462.924 4 131996051.035 2      -243.443          33.000  
> 2021  2 25  2 53 16.9980000  0 25                     
G31  19765098.571 1 103866290.958 1      -472.175          47.000  
G26  19974069.919 1 104964425.095 1      1928.570          47.000  
G32  21115397.362 1 110962156.734 1     -2559.185          48.000  
G22  22330452.097 1 117347307.177 1      -848.808          41.000  
G29  22178399.136 1 116548276.368 1       979.324          45.000  
G 3  22214406.124 1 116737492.113 1       661.850          39.000  
G16  22106902.976 1 116172557.140 1      3656.823          41.000  
G25  22483569.276 1 118151952.322 1     -3348.321          41.000  
C16  35359983.052 1 184128673.980 1       112.335          46.000  
C 6  35270294.831 1 183661655.087 1       146.204          45.000  
C 9  35203628.891 1 183314497.534 1       507.373          44.000  
C 7  36147961.873 1 188231885.091 1       806.647          43.000  
C26  21487108.373 1 111888977.547 1      1362.142          45.000  
C21  22322817.658 1 116240735.019 1     -2091.727          47.000  
C 3  37068634.873 1 193026077.568 1        71.244          42.000  
C10  37378994.010 1 194642198.499 1      1083.118          39.000  
C 1  37648403.943 1 196045080.653 1        81.135          43.000  
C 2  37508539.628 2 195316764.888 1        46.034          36.000  
C 4  38414553.467 1 200034616.482 1        88.720          39.000  
C29  24468283.556 1 127412732.122 1      2001.593          44.000  
C 5  39536423.812 2 205876501.73421        54.621          35.000  
G 4  23698723.844 2 124537625.643 1      3493.236          36.000  
C22  25643369.440 4 133532490.189 4     -3394.955          27.000  
C24  25666193.243 4 133650612.443 3      2646.474          28.000  
C30  25348515.763 4 131996296.860 2      -246.575          32.000  
> 2021  2 25  2 53 17.9980000  0 25                     
G31  19765188.439 1 103866763.016 1      -472.639          47.000  
G26  19973702.853 1 104962496.523 1      1928.168          47.000  
G32  21115884.327 1 110964715.748 1     -2559.526          48.000  
G22  22330613.563 1 117348156.117 1      -849.651          41.000  
G29  22178212.942 1 116547297.117 1       978.732          45.000  
G 3  22214279.663 2 116736830.310 1       660.862          38.000  
G16  22106207.061 1 116168900.507 1      3656.190          41.000  
G25  22484206.471 1 118155300.378 1     -3348.377          41.000  
C16  35359961.954 1 184128561.494 1       112.122          46.000  
C 6  35270266.474 1 183661508.595 1       146.124          45.000  
C 9  35203531.484 1 183313989.927 1       507.568          44.000  
C 7  36147807.003 1 188231078.355 1       806.424          43.000  
C26  21486846.602 1 111887615.340 1      1361.752          45.000  
C21  22323219.572 1 116242826.715 1     -2092.188          47.000  
C 3  37068621.610 1 193026006.222 1        70.986          42.000  
C10  37378786.003 1 194641115.262 1      1082.759          39.000  
C 1  37648388.220 1 196044999.383 1        80.983          43.000  
C 2  37508530.850 2 195316718.780 1        46.088          36.000  
C 4  38414536.244 1 200034527.153 1        89.220          39.000  
C29  24467899.128 1 127410730.311 1      2001.309          44.000  
C 5  39536413.063 2 205876446.97421        53.567          35.000  
G 4  23698059.095 2 124534132.215 1      3493.260          36.000  
C22  25644023.370 4 133535884.670 3     -3395.149          27.000  
C24  25665685.389 4 133647965.830 3      2646.820          28.000  
C30  25348559.581 8 131996543.333 3      -246.899          31.000  
> 2021  2 25  2 53 18.9980000  0 25                     
G31  19765278.482 1 103867237.427 1      -476.486          46.000  
G26  19973336.347 1 104960570.564 1      1923.701          46.000  
G32  21116371.764 1 110967277.206 1     -2563.562          48.000  
G22  22330774.943 1 117349007.677 1      -853.747          40.000  
G29  22178026.853 1 116546320.526 1       974.234          44.000  
G 3  22214153.689 2 116736171.201 1       657.209          38.000  
G16  22105511.827 1 116165246.237 1      3652.599          41.000  
G25  22484844.172 1 118158650.697 1     -3352.435          41.000  
C16  35359940.299 1 184128451.128 1       108.386          46.000  
C 6  35270238.693 1 183661364.223 1       142.346          45.000  
C 9  35203434.356 1 183313484.421 1       503.772          44.000  
C 7  36147652.620 1 188230273.768 1       802.757          43.000  
C26  21486585.163 1 111886255.465 1      1357.844          45.000  
C21  22323621.939 1 116244920.888 1     -2096.194          47.000  
C 3  37068608.540 1 193025936.889 1        67.590          42.000  
C10  37378578.381 1 194640034.173 1      1079.112          39.000  
C 1  37648373.196 1 196044920.125 1        77.355          43.000  
C 2  37508522.230 2 195316674.744 1        42.543          36.000  
C 4  38414519.369 1 200034439.869 1        85.185          39.000  
C29  24467515.206 1 127408730.834 1      1997.464          44.000  
C 5  39536402.994 4 205876394.21732        49.952          34.000  
G 4  23697394.643 2 124530640.946 1      3489.260          36.000  
C22  25644674.071 4 133539281.088 4     -3397.998          26.000  
C24  25665176.297 9                      2642.368          27.000  
C30  25348607.848 4 131996792.418 2      -250.471          31.000  
> 2021  2 25  2 53 19.9980000  0 25                     
G31  19765368.787 1 103867713.641 1      -475.733          46.000  
G26  19972970.224 1 104958646.510 1      1924.358          46.000  
G32  21116859.568 1 110969840.629 1     -2563.059          48.000  
G22  22330936.968 1 117349861.051 1      -853.241          40.000  
G29  22177841.462 1 116545346.202 1       974.668          44.000  
G 3  22214028.310 1 116735514.122 1       657.491          38.000  
G16  22104816.750 1 116161593.623 1      3653.042          41.000  
G25  22485482.099 1 118162002.858 1     -3351.569          41.000  
C16  35359919.673 1 184128342.334 1       109.320          46.000  
C 6  35270211.611 1 183661221.426 1       143.359          45.000  
C 9  35203337.420 1 183312980.389 1       504.431          44.000  
C 7  36147498.221 1 188229470.740 1       803.684          43.000  
C26  21486324.387 1 111884897.152 1      1358.751          45.000  
C21  22324024.411 1 116247016.869 1     -2095.681          47.000  
C 3  37068595.243 1 193025868.971 1        68.572          42.000  
C10  37378370.967 1 194638954.544 1      1079.969          39.000  
C 1  37648357.944 1 196044842.431 1        78.190          43.000  
C 2  37508514.150 2 195316632.030 1        43.579          36.000  
C 4  38414502.826 1 200034354.181 1        86.241          39.000  
C29  24467131.563 1 127406733.360 1      1997.896          44.000  
C 5  39536393.082 2 205876342.72221        51.814          34.000  
G 4  23696730.872 2 124527151.072 1      3490.558          36.000  
C22  25645324.859 4 133542679.121 4     -3396.925          25.000  
C24  25664669.577 9               7      2644.404          27.000  
C30  25348656.028 8 131997043.671 3      -251.058          30.000  
> 2021  2 25  2 53 20.9980000  0 25                     
G31  19765459.214 1 103868189.818 1      -476.911          46.000  
G26  19972604.467 1 104956722.714 1      1922.931          46.000  
G32  21117347.912 1 110972404.088 1     -2564.259          48.000  
G22  22331099.604 1 117350714.719 1      -854.675          40.000  
G29  22177656.036 1 116544372.081 1       973.367          44.000  
G 3  22213903.261 2 116734857.416 1       656.434          38.000  
G16  22104121.743 1 116157941.048 1      3651.925          41.000  
G25  22486119.992 1 118165354.814 1     -3352.942          40.000  
C16  35359898.436 1 184128233.261 1       108.508          46.000  
C 6  35270184.004 1 183661078.350 1       142.371          45.000  
C 9  35203240.450 1 183312476.045 1       503.802          44.000  
C 7  36147344.170 1 188228667.506 1       802.541          43.000  
C26  21486063.663 1 111883538.862 1      1357.436          45.000  
C21  22324426.900 1 116249112.987 1     -2096.768          47.000  
C 3  37068582.400 1 193025800.781 1        67.352          42.000  
C10  37378163.921 1 194637874.732 1      1079.148          40.000  
C 1  37648343.251 1 196044764.353 1        77.590          43.000  
C 2  37508506.176 2 195316589.107 1        41.954          36.000  
C 4  38414486.231 1 200034268.106 1        85.493          39.000  
C29  24466747.937 1 127404735.781 1      1996.789          44.000  
C 5  39536383.049 2 205876291.03121        51.413          34.000  
G 4  23696066.630 2 124523661.032 1      3489.124          36.000  
C22  25645976.921 4 133546076.871 5     -3399.234          24.000  
C24  25664164.812 8 133639994.86434      2642.439          28.000  
C30  25348694.558 4 131997295.066 3      -252.708          29.000  
> 2021  2 25  2 53 21.9980000  0 25                     
G31  19765550.112 1 103868668.112 1      -479.129          46.000  
G26  19972238.728 1 104954801.254 1      1920.320          46.000  
G32  21117836.082 1 110974969.873 1     -2566.432          48.000  
G22  22331262.450 1 117351570.686 1      -857.463          40.000  
G29  22177471.255 1 116543400.505 1       971.130          44.000  
G 3  22213779.016 2 116734203.114 1       653.004          38.000  
G16  22103427.207 1 116154290.608 1      3649.251          41.000  
G25  22486758.077 1 118168708.808 1     -3354.108          40.000  
C16  35359878.281 1 184128126.110 1       106.549          46.000  
C 6  35270156.992 1 183660937.203 1       140.485          45.000  
C 9  35203144.037 1 183311973.548 1       501.648          44.000  
C 7  36147190.225 1 188227866.227 1       800.317          44.000  
C26  21485803.236 1 111882182.548 1      1355.132          45.000  
C21  22324829.564 1 116251211.387 1     -2099.537          47.000  
C 3  37068569.626 1 193025734.437 1        65.199          42.000  
C10  37377956.961 1 194636796.882 1      1076.535          40.000  
C 1  37648328.401 1 196044688.234 1        75.625          43.000  
C 2  37508498.375 2 195316547.921 1        39.971          36.000  
C 4  38414470.369 1 200034183.978 1        83.827          39.000  
C29  24466364.661 1 127402740.480 1      1995.021          44.000  
C 5  39536373.276 4 205876241.12122        48.880          34.000  
G 4  23695402.771 2 124520172.747 1      3487.340          36.000  
C22  25646632.317 4 133549476.369 5     -3399.890          24.000  
C24  25663659.244 8 133637353.62224      2640.999          28.000  
C30  25348750.957 4 131997548.804 3      -253.876          31.000  
> 2021  2 25  2 53 22.9980000  0 25                     
G31  19765641.691 1 103869148.954 1      -482.907          46.000  
G26  19971873.757 1 104952882.753 1      1916.473          46.000  
G32  21118324.356 1 110977538.018 1     -2570.452          48.000  
G22  22331425.854 1 117352429.881 1      -861.028          40.000  
G29  22177286.702 1 116542431.377 1       966.592          44.000  
G 3  22213655.852 2 116733552.132 1       649.055          38.000  
G16  22102733.107 1 116150642.981 1      3646.134          40.000  
G25  22487397.017 1 118172064.963 1     -3358.554          41.000  
C16  35359858.091 1 184128021.210 1       102.991          47.000  
C 6  35270130.362 1 183660798.267 1       136.945          45.000  
C 9  35203047.677 1 183311473.409 1       498.468          44.000  
C 7  36147036.698 1 188227067.341 1       797.003          43.000  
C26  21485543.420 1 111880829.054 1      1351.766          45.000  
C21  22325233.292 1 116253312.543 1     -2103.128          47.000  
C 3  37068557.027 1 193025670.353 1        62.141          42.000  
C10  37377750.368 1 194635721.481 1      1073.622          40.000  
C 1  37648313.830 1 196044614.039 1        72.195          43.000  
C 2  37508491.186 2 195316509.281 1        37.292          36.000  
C 4  38414454.350 1 200034101.656 1        80.392          39.000  
C29  24465981.855 1 127400747.227 1      1990.922          44.000  
C 5  39536364.325 2 205876193.83221        46.222          34.000  
G 4  23694739.540 2 124516687.162 1      3484.146          36.000  
C22  25647287.991 4 133552877.958 5     -3403.223          24.000  
C24  25663151.740 4 133634715.16924      2637.090          27.000  
C30  25348806.152 4 131997804.945 2      -258.526          33.000  
> 2021  2 25  2 53 23.9980000  0 25                     
G31  19765733.706 1 103869632.241 1      -483.221          46.000  
G26  19971508.663 1 104950966.623 1      1915.941          46.000  
G32  21118813.469 1 110980109.017 1     -2570.952          48.000  
G22  22331589.694 1 117353291.103 1      -861.650          40.000  
G29  22177102.933 1 116541465.558 1       965.930          44.000  
G 3  22213532.636 1 116732903.383 1       648.720          38.000  
G16  22102039.042 1 116146997.354 1      3645.392          41.000  
G25  22488036.340 1 118175423.905 1     -3358.505          40.000  
C16  35359838.407 1 184127918.561 1       102.808          46.000  
C 6  35270104.170 1 183660661.624 1       136.798          45.000  
C 9  35202952.032 1 183310975.305 1       498.224          44.000  
C 7  36146883.624 1 188226270.554 1       797.066          44.000  
C26  21485283.866 1 111879477.464 1      1351.457          45.000  
C21  22325637.422 1 116255416.009 1     -2103.547          47.000  
C 3  37068545.527 1 193025608.228 1        62.011          42.000  
C10  37377544.281 1 194634648.008 1      1073.307          40.000  
C 1  37648300.219 1 196044542.279 1        72.152          43.000  
C 2  37508483.979 2 195316472.302 1        37.063          36.000  
C 4  38414438.924 1 200034021.976 1        79.828          39.000  
C29  24465599.818 1 127398757.076 1      1990.306          44.000  
C 5  39536355.564 2 205876148.08321        45.003          34.000  
G 4  23694076.851 2 124513203.313 1      3483.960          36.000  
C22  25647943.858 8               6     -3403.945          23.000  
C24  25662646.399 4 133632078.20524      2636.715          27.000  
C30  25348848.312 4 131998064.207 2      -258.728          32.000  
> 2021  2 25  2 53 24.9980000  0 25                     
G31  19765826.035 1 103870116.467 1      -485.842          46.000  
G26  19971144.303 1 104949051.807 1      1912.920          46.000  
G32  21119303.052 1 110982680.928 1     -2573.594          48.000  
G22  22331753.830 1 117354153.791 1      -864.338          40.000  
G29  22176919.532 1 116540500.762 1       963.087          44.000  
G 3  22213409.420 1 116732256.202 1       645.216          38.000  
G16  22101345.570 1 116143352.897 1      3642.322          41.000  
G25  22488675.542 1 118178783.502 1     -3360.998          40.000  
C16  35359818.374 1 184127816.606 1       100.427          46.000  
C 6  35270077.733 1 183660525.643 1       134.399          45.000  
C 9  35202856.545 1 183310477.942 1       495.740          44.000  
C 7  36146730.917 1 188225474.617 1       794.396          44.000  
C26  21485024.590 1 111878126.980 1      1348.989          45.000  
C21  22326041.307 1 116257520.666 1     -2106.316          47.000  
C 3  37068533.888 1 193025546.837 1        59.792          42.000  
C10  37377338.141 1 194633575.397 1      1071.165          40.000  
C 1  37648286.398 1 196044471.030 1        69.824          43.000  
C 2  37508477.086 2 195316436.170 1        34.804          36.000  
C 4  38414423.637 1 200033942.698 1        77.579          39.000  
C29  24465217.693 1 127396767.609 1      1987.834          44.000  
C 5  39536346.857 2 205876103.22422        43.013          34.000  
G 4  23693414.319 2 124509720.394 1      3481.366          36.000  
C22  25648597.909 9                     -3405.329          22.000  
C24  25662143.693 4 133629442.32523      2634.755          28.000  
C30  25348906.020 4 131998324.437 2      -261.143          32.000  
> 2021  2 25  2 53 25.9980000  0 25                     
G31  19765918.469 1 103870602.450 1      -487.032          46.000  
G26  19970780.204 1 104947138.895 1      1912.010          46.000  
G32  21119792.775 1 110985254.726 1     -2575.081          48.000  
G22  22331918.246 1 117355018.352 1      -865.044          40.000  
G29  22176736.357 1 116539538.106 1       961.245          44.000  
G 3  22213286.204 1 116731610.996 1       644.612          38.000  
G16  22100652.640 1 116139710.065 1      3642.138          41.000  
G25  22489315.197 1 118182144.828 1     -3362.144          40.000  
C16  35359799.092 1 184127716.155 1        99.524          46.000  
C 6  35270052.151 1 183660391.198 1       133.569          45.000  
C 9  35202761.511 1 183309982.009 1       495.190          44.000  
C 7  36146578.472 1 188224680.176 1       793.468          44.000  
C26  21484765.315 1 111876778.092 1      1348.271          45.000  
C21  22326445.733 1 116259627.122 1     -2107.396          47.000  
C 3  37068521.778 1 193025486.826 1        59.222          42.000  
C10  37377132.491 1 194632504.264 1      1070.065          40.000  
C 1  37648272.840 1 196044401.273 1        68.599          43.000  
C 2  37508470.490 2 195316401.377 1        34.548          36.000  
C 4  38414408.752 1 200033864.917 1        76.469          39.000  
C29  24464835.812 1 127394780.003 1      1986.044          44.000  
C 5  39536338.341 4 205876059.691 2        42.704          34.000  
G 4  23692751.716 2 124506238.925 1      3480.664          36.000  
C22  25649248.698 9                     -3406.868          22.000  
C24  25661639.190 2 133626807.91922      2633.452          29.000  
C30  25348954.026 4 131998586.729 2      -263.089          31.000  
> 2021  2 25  2 53 26.9980000  0 25                     
G31  19766011.182 1 103871089.527 1      -486.730          46.000  
G26  19970416.751 1 104945227.438 1      1911.608          46.000  
G32  21120282.829 1 110987829.732 1     -2574.770          48.000  
G22  22332082.802 1 117355884.430 1      -866.054          40.000  
G29  22176553.304 1 116538576.792 1       961.437          44.000  
G 3  22213163.616 2 116730967.398 1       643.873          38.000  
G16  22099959.901 1 116136068.537 1      3641.907          41.000  
G25  22489954.869 1 118185507.072 1     -3362.157          40.000  
C16  35359780.088 1 184127616.599 1       100.128          47.000  
C 6  35270026.638 1 183660257.623 1       134.027          45.000  
C 9  35202666.721 1 183309486.974 1       495.264          44.000  
C 7  36146426.097 1 188223886.717 1       793.820          44.000  
C26  21484506.528 1 111875430.397 1      1347.971          45.000  
C21  22326850.630 1 116261734.908 1     -2107.538          47.000  
C 3  37068510.453 1 193025427.728 1        59.255          42.000  
C10  37376927.189 1 194631434.160 1      1070.515          40.000  
C 1  37648259.822 1 196044332.306 1        69.209          43.000  
C 2  37508463.876 1 195316367.558 1        34.264          37.000  
C 4  38414394.024 1 200033787.918 1        77.356          39.000  
C29  24464454.577 1 127392793.426 1      1986.945          44.000  
C 5  39536330.000 4 205876017.107 2        43.491          34.000  
G 4  23692089.620 2 124502758.376 1      3481.266          36.000  
C22  25649901.807 9                     -3406.393          21.000  
C24  25661134.006 2 133624174.02812      2633.380          29.000  
C30  25349005.957 4 131998850.253 2      -263.217          32.000  
> 2021  2 25  2 53 27.9980000  0 25                     
G31  19766103.756 1 103871576.835 1      -488.219          46.000  
G26  19970053.001 1 104943316.417 1      1910.116          46.000  
G32  21120772.535 1 110990404.936 1     -2576.172          48.000  
G22  22332248.125 1 117356751.038 1      -867.399          40.000  
G29  22176370.269 1 116537615.895 1       959.678          44.000  
G 3  22213041.413 2 116730324.506 1       641.669          38.000  
G16  22099267.092 1 116132427.231 1      3640.430          41.000  
G25  22490594.525 1 118188869.374 1     -3363.448          40.000  
C16  35359760.911 1 184127517.013 1        98.773          47.000  
C 6  35270000.742 1 183660124.014 1       132.910          45.000  
C 9  35202571.373 1 183308991.908 1       494.116          44.000  
C 7  36146273.757 1 188223093.257 1       792.706          44.000  
C26  21484247.794 1 111874082.929 1      1346.557          45.000  
C21  22327255.441 1 116263843.027 1     -2109.031          47.000  
C 3  37068499.529 1 193025368.487 1        58.569          42.000  
C10  37376721.660 1 194630364.048 1      1069.433          40.000  
C 1  37648246.420 1 196044263.137 1        68.374          43.000  
C 2  37508457.315 2 195316333.686 1        33.371          37.000  
C 4  38414378.982 1 200033710.680 1        76.328          39.000  
C29  24464072.906 1 127390806.976 1      1985.357          44.000  
C 5  39536321.659 4 205875974.566 2        42.058          34.000  
G 4  23691427.454 2 124499277.955 1      3480.154          36.000  
C22  25650548.704 9                     -3410.405          21.000  
C24  25660628.369 2 133621540.709 2      2632.777          29.000  
C30  25349056.022 4 131999114.218 2      -266.036          31.000  
> 2021  2 25  2 53 28.9980000  0 25                     
G31  19766196.887 1 103872066.247 1      -490.272          46.000  
G26  19969689.583 1 104941407.398 1      1908.160          46.000  
G32  21121262.624 1 110992982.276 1     -2578.510          47.000  
G22  22332413.327 1 117357619.585 1      -869.208          40.000  
G29  22176187.670 1 116536657.677 1       956.693          44.000  
G 3  22212919.802 1 116729683.772 1       639.868          39.000  
G16  22098574.231 1 116128787.538 1      3639.101          41.000  
G25  22491234.843 1 118192234.021 1     -3365.896          40.000  
C16  35359742.501 1 184127419.224 1        97.119          47.000  
C 6  35269975.457 1 183659992.230 1       130.896          45.000  
C 9  35202476.688 1 183308498.551 1       492.847          45.000  
C 7  36146121.486 1 188222301.436 1       791.094          43.000  
C26  21483989.286 1 111872737.190 1      1345.378          45.000  
C21  22327660.704 1 116265952.992 1     -2110.706          47.000  
C 3  37068488.186 1 193025310.696 1        56.810          42.000  
C10  37376516.585 1 194629295.392 1      1068.038          40.000  
C 1  37648233.629 1 196044195.681 1        66.417          43.000  
C 2  37508451.050 1 195316301.117 1        32.290          37.000  
C 4  38414364.464 1 200033635.262 1        74.378          39.000  
C29  24463691.898 1 127388822.879 1      1982.689          44.000  
C 5  39536313.667 4 205875928.24232        41.460          34.000  
G 4  23690764.939 2 124495799.304 1      3478.184          35.000  
C22  25651204.012 9                     -3415.232          20.000  
C24  25660123.813 2 133618908.897 2      2631.001          29.000  
C30  25349104.324 8 131999380.872 4      -267.531          31.000  
> 2021  2 25  2 53 29.9980000  0 25                     
G31  19766290.351 1 103872557.165 1      -494.397          46.000  
G26  19969326.758 1 104939500.231 1      1905.939          46.000  
G32  21121753.883 1 110995562.752 1     -2583.500          47.000  
G22  22332578.632 1 117358488.723 1      -869.393          41.000  
G29  22176005.891 1 116535702.637 1       949.734          43.000  
G 3  22212798.488 2 116729043.399 1       638.759          39.000  
G16  22097881.807 1 116125149.496 1      3638.087          41.000  
G25  22491875.563 2 118195600.584 1     -3371.957          40.000  
C16  35359724.021 1 184127323.184 1        93.109          47.000  
C 6  35269950.625 1 183659862.283 1       126.947          45.000  
C 9  35202382.283 1 183308006.163 1       490.015          45.000  
C 7  36145969.599 1 188221511.418 1       788.399          44.000  
C26  21483731.128 1 111871392.134 1      1343.956          46.000  
C21  22328066.614 1 116268064.891 1     -2112.897          48.000  
C 3  37068477.419 1 193025254.816 1        55.024          42.000  
C10  37376311.912 1 194628228.289 1      1066.912          40.000  
C 1  37648221.065 1 196044131.014 1        61.875          42.000  
C 2  37508444.856 2 195316269.615 1        31.560          37.000  
C 4  38414350.678 2 200033562.851 1        69.117          39.000  
C29  24463311.518 1 127386841.954 1      1975.927          43.000  
C 5  39536305.762 2 205875887.30221        41.772          35.000  
G 4  23690102.442 2 124492320.175 1      3478.090          36.000  
C22  25651858.064 9                     -3412.303          22.000  
C24  25659616.657 4 133616277.098 3      2634.347          29.000  
C30  25349151.667 9               6      -272.808          30.000  
> 2021  2 25  2 53 30.9980000  0 25                     
G31  19766384.477 2 103873051.813 1      -497.283          46.000  
G26  19968964.264 2 104937594.967 1      1903.179          46.000  
G32  21122245.647 2 110998147.836 1     -2588.655          47.000  
G22  22332743.938 2 117359358.101 1      -869.624          41.000  
G29  22175825.089 4 116534754.306 2       944.589          43.000  
G 3  22212677.035 4 116728404.071 2       639.110          39.000  
G16  22097189.661 4 116121512.142 2      3635.958          41.000  
G25  22492516.998 4 118198973.205 2     -3375.201          41.000  
C16  35359706.204 2 184127230.526 1        89.795          47.000  
C 6  35269926.090 2 183659735.967 1       123.511          45.000  
C 9  35202288.121 2 183307516.266 1       487.738          45.000  
C 7  36145818.149 2 188220723.502 1       785.392          43.000  
C26  21483473.091 2 111870048.051 1      1342.762          46.000  
C21  22328472.611 2 116270178.439 1     -2115.619          48.000  
C 3  37068467.141 2 193025200.697 1        52.084          42.000  
C10  37376107.168 2 194627162.177 1      1064.270          40.000  
C 1  37648209.391 4 196044070.540 2        57.197          42.000  
C 2  37508438.888 2 195316238.290 1        30.052          37.000  
C 4  38414337.678 4 200033495.571 2        63.715          39.000  
C29  24462932.238 4 127384867.581 2      1970.728          43.000  
C 5  39536297.665 4 205875845.72432        41.692          34.000  
G 4  23689440.520 4 124488842.013 2      3478.314          37.000  
C22  25652511.731 9                     -3416.573          25.000  
C24  25659110.758 4 133613644.852 5      2633.067          29.000  
C30  25349204.733 9                      -274.477          21.000  
> 2021  2 25  2 53 31.9980000  0 25                     
G31  19766479.040 4 103873549.142 2      -501.189          46.000  
G26  19968602.190 4 104935691.841 2      1899.618          46.000  
G32  21122738.005 4 111000736.206 2     -2592.905          47.000  
G22  22332909.785 4 117360228.814 2      -873.175          41.000  
G29  22175645.805 4 116533810.143 3       939.514          43.000  
G 3  22212555.651 4 116727766.337 3       635.435          39.000  
G16  22096497.830 4 116117876.372 2      3632.350          40.000  
G25  22493158.764 8 118202349.342 4     -3380.349          39.000  
C16  35359689.138 4 184127140.378 2        86.243          47.000  
C 6  35269902.655 4 183659612.227 2       119.867          45.000  
C 9  35202194.239 4 183307028.328 2       484.656          45.000  
C 7  36145667.344 4 188219937.618 2       782.299          43.000  
C26  21483215.317 4 111868705.449 2      1339.663          46.000  
C21  22328878.834 4 116272294.028 2     -2119.355          48.000  
C 3  37068457.037 4 193025148.425 2        48.609          42.000  
C10  37375902.669 4 194626097.581 2      1061.196          40.000  
C 1  37648198.537 4 196044012.921 2        53.473          42.000  
C 2  37508433.269 4 195316208.060 2        27.373          37.000  
C 4  38414325.428 8 200033431.492 3        59.839          39.000  
C29  24462553.900 8 127382897.104 3      1966.284          43.000  
C 5  39536290.004 8 205875805.78923        38.920          34.000  
G 4  23688779.035 8 124485365.055 3      3474.756          37.000  
C22  25653166.900 9               6     -3419.863          27.000  
C24  25658602.904 8               6      2629.896          29.000  
C30  25349263.837 9                      -285.572          23.000  
> 2021  2 25  2 53 32.9980000  0 25                     
G31  19766574.493 8 103874050.436 3      -503.593          46.000  
G26  19968241.040 8 104933792.623 3      1897.081          46.000  
G32  21123231.218 8 111003328.336 3     -2595.077          47.000  
G22  22333076.033 8 117361103.499 3      -876.145          41.000  
G29  22175466.679 8 116532870.192 4       937.300          44.000  
G 3  22212435.419 8 116727132.858 3       631.958          39.000  
G16  22095806.278 8 116114244.081 3      3630.615          40.000  
G25  22493801.770 8 118205729.442 4     -3381.752          39.000  
C16  35359672.106 8 184127053.825 3        84.180          47.000  
C 6  35269879.585 8 183659492.061 3       117.865          45.000  
C 9  35202101.125 8 183306544.001 3       482.697          45.000  
C 7  36145516.941 8 188219155.189 3       779.937          43.000  
C26  21482957.891 8 111867366.565 3      1337.261          46.000  
C21  22329285.634 8 116274413.271 3     -2121.417          47.000  
C 3  37068447.195 8 193025099.347 3        47.123          42.000  
C10  37375698.589 8 194625036.292 3      1059.172          40.000  
C 1  37648188.119 8 196043958.605 4        52.173          43.000  
C 2  37508428.121 8 195316181.065 3        24.946          37.000  
C 4  38414313.474 8 200033370.799 4        57.830          39.000  
C29  24462176.190 8 127380930.506 4      1963.655          44.000  
C 5  39536282.762 8 205875768.16024        35.911          34.000  
G 4  23688117.811 8 124481891.744 4      3472.994          37.000  
C22  25653822.836 9                     -3422.259          24.000  
C24  25658096.848 8                      2627.735          29.000  
C30  25349325.733 9                      -282.178          25.000  
> 2021  2 25  2 53 33.9980000  0 25                     
G31  19766670.190 8 103874553.008 3      -503.014          46.000  
G26  19967879.698 4 104931894.552 3      1898.153          46.000  
G32  21123725.094 8 111005921.760 3     -2593.910          47.000  
G22  22333242.805 4 117361979.225 3      -874.848          41.000  
G29  22175288.024 8 116531932.098 4       937.241          44.000  
G 3  22212315.012 8 116726500.656 3       633.187          39.000  
G16  22095115.406 8 116110612.606 3      3632.439          40.000  
G25  22494445.456 8 118209111.014 4     -3381.102          40.000  
C16  35359656.192 8 184126968.249 3        84.991          47.000  
C 6  35269856.534 8 183659372.880 3       118.713          45.000  
C 9  35202008.551 8 183306060.579 3       483.350          45.000  
C 7  36145366.956 4 188218373.528 3       781.581          43.000  
C26  21482700.919 4 111866028.575 3      1338.350          46.000  
C21  22329692.713 4 116276533.536 3     -2120.246          48.000  
C 3  37068438.156 8 193025050.901 3        48.974          42.000  
C10  37375494.857 4 194623975.589 3      1061.435          40.000  
C 1  37648177.788 8 196043905.176 3        53.358          42.000  
C 2  37508423.078 8 195316154.526 3        27.503          37.000  
C 4  38414301.940 8 200033311.101 4        58.881          39.000  
C29  24461798.794 8 127378965.379 4      1965.014          44.000  
C 5  39536275.555 8 205875730.82923        39.655          34.000  
G 4  23687457.006 8 124478419.338 4      3473.478          37.000  
C22  25654481.477 9                     -3414.044          22.000  
C24  25657590.582 8               6      2628.687          29.000  
C30  25349379.322 9                      -291.049          26.000  
> 2021  2 25  2 53 34.9980000  0 25                     
G31  19766766.061 4 103875056.477 2      -506.095          46.000  
G26  19967518.601 4 104929997.573 2      1895.067          46.000  
G32  21124218.831 4 111008516.115 3     -2596.852          47.000  
G22  22333409.839 4 117362856.069 2      -877.932          41.000  
G29  22175109.752 4 116530995.156 3       934.310          44.000  
G 3  22212194.833 4 116725869.744 3       629.927          39.000  
G16  22094424.884 4 116106981.935 3      3630.094          40.000  
G25  22495088.950 8 118212493.401 4     -3384.128          40.000  
C16  35359639.422 4 184126883.311 2        82.178          47.000  
C 6  35269834.023 4 183659254.326 2       116.003          45.000  
C 9  35201915.751 4 183305577.775 2       480.548          45.000  
C 7  36145217.024 4 188217592.563 2       778.983          43.000  
C26  21482444.506 4 111864691.413 2      1335.450          46.000  
C21  22330100.088 4 116278654.761 2     -2123.007          47.000  
C 3  37068429.344 4 193025002.989 2        46.059          42.000  
C10  37375291.580 4 194622915.564 3      1058.605          40.000  
C 1  37648167.423 4 196043852.282 3        50.949          42.000  
C 2  37508418.314 4 195316128.542 3        25.040          37.000  
C 4  38414290.841 8 200033251.868 3        57.556          39.000  
C29  24461421.503 8 127377001.127 3      1962.301          44.000  
C 5  39536268.331 8 205875694.15223        36.423          35.000  
G 4  23686796.271 8 124474947.597 4      3470.545          36.000  
C22  25655137.884 9                     -3421.265          19.000  
C24  25657087.318 8               6      2626.964          29.000  
C30  25349423.925 9               6      -288.947          28.000  
> 2021  2 25  2 53 35.9980000  0 25                     
G31  19766862.090 4 103875560.874 3      -507.820          46.000  
G26  19967157.748 8 104928101.546 3      1893.177          46.000  
G32  21124712.497 8 111011111.238 3     -2597.988          47.000  
G22  22333576.733 8 117363734.038 3      -880.612          41.000  
G29  22174931.847 8 116530059.387 3       932.902          44.000  
G 3  22212075.072 8 116725240.226 3       626.702          39.000  
G16  22093733.890 8 116103351.920 4      3628.183          40.000  
G25  22495732.706 8 118215876.768 4     -3385.784          41.000  
C16  35359623.682 4 184126798.979 3        80.951          47.000  
C 6  35269811.006 4 183659136.359 3       114.771          45.000  
C 9  35201823.073 4 183305095.607 3       478.918          45.000  
C 7  36145067.179 8 188216812.091 3       777.453          43.000  
C26  21482187.743 8 111863355.091 3      1333.392          46.000  
C21  22330507.620 8 116280776.781 3     -2124.524          47.000  
C 3  37068419.991 8 193024955.358 3        45.028          42.000  
C10  37375087.779 8 194621855.958 3      1057.133          40.000  
C 1  37648157.476 8 196043799.730 3        50.153          42.000  
C 2  37508413.428 8 195316102.952 4        23.376          37.000  
C 4  38414279.760 8 200033193.075 3        56.260          39.000  
C29  24461044.421 8 127375037.717 3      1961.249          44.000  
C 5  39536261.246 8 205875657.91024        34.620          34.000  
G 4  23686135.868 8 124471476.711 4      3468.650          36.000  
C22  25655791.814 9                     -3420.412          20.000  
C24  25656583.722 8                      2626.763          29.000  
C30  25349483.605 9                      -284.028          26.000  
> 2021  2 25  2 53 36.9980000  0 25                     
G31  19766958.083 4 103876065.562 2      -505.283          46.000  
G26  19966797.000 4 104926205.864 2      1895.751          46.000  
G32  21125206.513 4 111013706.307 3     -2595.839          47.000  
G22  22333743.853 4 117364612.584 2      -877.882          41.000  
G29  22174753.907 4 116529123.918 2       934.637          44.000  
G 3  22211955.608 4 116724611.543 2       629.470          39.000  
G16  22093043.036 8 116099721.954 3      3631.478          41.000  
G25  22496376.707 4 118219260.204 3     -3383.483          40.000  
C16  35359606.825 4 184126714.577 2        83.685          47.000  
C 6  35269788.530 4 183659018.269 2       117.657          45.000  
C 9  35201730.412 4 183304613.473 2       481.805          45.000  
C 7  36144917.229 4 188216031.470 3       780.928          43.000  
C26  21481931.051 4 111862019.061 2      1336.277          46.000  
C21  22330915.100 4 116282898.990 2     -2122.081          47.000  
C 3  37068410.271 4 193024907.386 3        48.304          42.000  
C10  37374884.030 4 194620796.192 3      1060.633          40.000  
C 1  37648147.338 4 196043746.689 3        52.744          42.000  
C 2  37508408.105 4 195316077.175 3        26.897          37.000  
C 4  38414268.086 8 200033133.747 3        59.289          39.000  
C29  24460667.514 8 127373074.197 3      1963.315          43.000  
C 5  39536254.266 8 205875619.67833        36.932          34.000  
G 4  23685475.551 4 124468006.201 3      3471.230          35.000  
C22  25656451.798 9                     -3430.407          19.000  
C24  25656080.022 9                      2626.808          28.000  
C30  25349527.562 9                      -296.559          24.000  
> 2021  2 25  2 53 37.9980000  0 25                     
G31  19767053.606 4 103876567.569 2      -503.587          46.000  
G26  19966435.850 4 104924307.414 3      1897.441          46.000  
G32  21125699.604 8 111016298.659 3     -2593.177          47.000  
G22  22333910.485 4 117365488.326 3      -876.699          41.000  
G29  22174575.304 4 116528186.204 3       937.005          43.000  
G 3  22211835.585 4 116723980.287 3       630.874          40.000  
G16  22092351.658 8 116096088.832 3      3633.733          41.000  
G25  22497020.183 8 118222641.108 3     -3381.613          41.000  
C16  35359590.631 4 184126627.216 2        86.115          47.000  
C 6  35269765.269 4 183658897.239 3       119.977          45.000  
C 9  35201637.298 4 183304128.333 2       483.893          45.000  
C 7  36144766.738 4 188215247.769 3       782.853          43.000  
C26  21481673.939 4 111860680.079 2      1337.791          46.000  
C21  22331322.162 4 116285018.284 3     -2119.802          48.000  
C 3  37068400.603 4 193024856.116 3        51.245          42.000  
C10  37374680.142 8 194619733.178 3      1062.777          40.000  
C 1  37648136.169 4 196043690.544 3        56.197          42.000  
C 2  37508402.574 8 195316047.977 3        29.336          37.000  
C 4  38414256.045 8 200033071.398 3        62.307          39.000  
C29  24460289.786 8 127371108.160 3      1966.056          44.000  
C 5  39536246.623 8 205875579.94924        39.792          34.000  
G 4  23684814.380 8 124464532.579 3      3474.092          34.000  
C22  25657113.703 9                     -3416.149          17.000  
C24  25655577.769 9                      2636.953          27.000  
C30  25349581.082 9                      -286.965          24.000  
> 2021  2 25  2 53 38.9980000  0 25                     
G31  19767148.587 4 103877066.022 2      -495.941          46.000  
G26  19966073.915 4 104922405.689 2      1904.702          47.000  
G32  21126192.311 4 111018887.260 3     -2586.349          47.000  
G22  22334076.838 4 117366361.054 2      -868.743          41.000  
G29  22174396.126 4 116527244.962 3       943.516          43.000  
G 3  22211714.987 4 116723346.189 3       638.265          40.000  
G16  22091659.844 4 116092452.279 3      3640.457          42.000  
G25  22497663.067 8 118226018.217 3     -3374.007          41.000  
C16  35359572.762 4 184126536.039 2        93.622          47.000  
C 6  35269740.943 4 183658772.359 2       127.606          45.000  
C 9  35201543.329 4 183303639.502 2       491.791          45.000  
C 7  36144615.393 4 188214460.288 2       790.592          44.000  
C26  21481416.060 4 111859337.749 2      1345.677          46.000  
C21  22331728.595 4 116287134.220 2     -2112.898          48.000  
C 3  37068390.535 4 193024800.954 2        58.508          42.000  
C10  37374475.276 4 194618666.462 3      1070.469          40.000  
C 1  37648124.443 4 196043630.289 3        63.380          42.000  
C 2  37508396.414 4 195316015.101 3        37.010          37.000  
C 4  38414243.167 8 200033004.891 3        69.220          38.000  
C29  24459911.273 8 127369138.242 3      1973.059          44.000  
C 5  39536238.421 8 205875536.75323        47.061          34.000  
G 4  23684152.616 8 124461055.680 4      3480.808          33.000  
C22  25657770.093 9                     -3413.507          18.000  
C24  25655072.812 9                      2636.447          27.000  
C30  25349648.562 9                      -279.819          25.000  
> 2021  2 25  2 53 39.9980000  0 25                     
G31  19767242.801 4 103877561.936 2      -498.235          46.000  
G26  19965711.579 4 104920501.510 3      1902.898          47.000  
G32  21126684.354 4 111021473.307 3     -2587.143          47.000  
G22  22334242.476 4 117367231.345 3      -871.093          41.000  
G29  22174216.336 4 116526301.487 3       941.791          43.000  
G 3  22211594.004 8 116722709.855 3       634.990          40.000  
G16  22090967.333 8 116088812.940 3      3639.631          41.000  
G25  22498305.514 8 118229392.714 3     -3375.969          41.000  
C16  35359554.998 4 184126442.086 2        91.858          47.000  
C 6  35269716.670 4 183658644.722 2       125.763          45.000  
C 9  35201449.045 4 183303147.855 2       489.697          45.000  
C 7  36144463.820 4 188213670.005 3       789.206          44.000  
C26  21481157.849 4 111857992.751 2      1343.505          46.000  
C21  22332134.591 4 116289247.609 3     -2114.373          48.000  
C 3  37068379.332 8 193024742.801 3        58.077          42.000  
C10  37374270.114 4 194617596.844 3      1069.298          40.000  
C 1  37648112.612 4 196043567.114 3        62.729          42.000  
C 2  37508389.713 8 195315979.232 3        35.782          37.000  
C 4  38414229.888 8 200032935.484 3        69.271          38.000  
C29  24459532.464 8 127367165.847 3      1971.293          44.000  
C 5  39536229.504 8 205875490.51833        46.143          33.000  
G 4  23683490.886 9               6      3478.355          32.000  
C22  25658428.961 9                     -3413.507          17.000  
C24  25654565.692 9                      2637.001          27.000  
C30  25349695.642 9                      -281.931          26.000  
> 2021  2 25  2 53 40.9980000  0 25                     
G31  19767337.032 4 103878056.272 2      -495.665          46.000  
G26  19965349.050 4 104918595.772 2      1905.552          47.000  
G32  21127175.683 4 111024057.396 2     -2583.659          47.000  
G22  22334407.660 4 117368100.341 2      -868.125          41.000  
G29  22174036.913 4 116525356.452 2       944.792          43.000  
G 3  22211472.655 4 116722072.519 2       637.366          39.000  
G16  22090274.280 4 116085171.734 2      3642.988          41.000  
G25  22498946.984 4 118232765.556 3     -3373.797          40.000  
C16  35359536.675 4 184126346.199 2        94.678          47.000  
C 6  35269691.769 4 183658515.075 2       128.998          45.000  
C 9  35201354.116 4 183302654.380 2       492.517          45.000  
C 7  36144311.654 4 188212877.688 2       792.621          43.000  
C26  21480899.202 4 111856646.215 2      1346.081          46.000  
C21  22332540.344 4 116291359.240 2     -2111.069          47.000  
C 3  37068367.291 4 193024682.400 2        61.279          42.000  
C10  37374064.446 4 194616525.139 2      1073.124          40.000  
C 1  37648099.856 4 196043501.580 2        66.265          42.000  
C 2  37508382.105 4 195315941.245 2        39.351          37.000  
C 4  38414216.189 4 200032863.690 3        72.405          38.000  
C29  24459153.498 4 127365191.500 2      1975.074          44.000  
C 5  39536220.378 4 205875442.33023        50.507          32.000  
G 4  23682831.547 9               6      3484.380          30.000  
C22  25659088.928 9                     -3407.861          18.000  
C24  25654066.615 9                      2639.426          26.000  
C30  25349745.602 9               7      -279.525          27.000  
> 2021  2 25  2 53 41.9980000  0 25                     
G31  19767430.722 4 103878548.891 2      -495.977          46.000  
G26  19964986.051 4 104916688.454 2      1904.634          47.000  
G32  21127667.220 4 111026639.874 3     -2583.808          47.000  
G22  22334572.721 4 117368967.752 2      -869.760          41.000  
G29  22173856.844 4 116524410.118 2       944.407          43.000  
G 3  22211350.975 4 116721433.719 2       635.861          39.000  
G16  22089581.227 4 116081528.693 3      3641.567          40.000  
G25  22499588.524 4 118236136.594 3     -3372.995          39.000  
C16  35359517.829 4 184126248.351 2        94.971          47.000  
C 6  35269666.501 4 183658383.494 2       129.053          45.000  
C 9  35201259.117 4 183302158.915 2       492.432          45.000  
C 7  36144158.877 4 188212083.403 2       792.275          44.000  
C26  21480640.328 4 111855297.818 2      1345.471          46.000  
C21  22332945.416 4 116293469.207 2     -2111.916          48.000  
C 3  37068355.809 4 193024619.884 3        61.208          42.000  
C10  37373858.254 4 194615451.431 2      1072.237          40.000  
C 1  37648087.030 4 196043434.013 2        66.280          42.000  
C 2  37508374.374 4 195315901.166 2        38.355          37.000  
C 4  38414202.089 4 200032789.894 3        73.088          39.000  
C29  24458774.060 4 127363215.548 3      1975.286          44.000  
C 5  39536210.989 8 205875394.09133        48.660          31.000  
G 4  23682166.414 9               6      3481.165          29.000  
C22  25659745.353 9                     -3396.260          18.000  
C24  25653558.605 9                      2637.901          24.000  
C30  25349797.325 9                      -279.822          27.000  
> 2021  2 25  2 53 42.9980000  0 25                     
G31  19767524.465 4 103879042.261 2      -496.894          46.000  
G26  19964623.243 4 104914782.065 2      1904.589          47.000  
G32  21128158.985 2 111029222.933 2     -2583.927          47.000  
G22  22334738.202 4 117369836.301 2      -870.653          42.000  
G29  22173677.054 4 116523464.596 2       943.584          43.000  
G 3  22211229.644 4 116720796.300 2       634.344          39.000  
G16  22088888.191 4 116077886.331 2      3642.310          40.000  
G25  22500230.291 4 118239508.266 2     -3374.045          41.000  
C16  35359498.948 4 184126150.954 2        94.543          47.000  
C 6  35269641.407 4 183658252.330 2       128.674          45.000  
C 9  35201164.345 4 183301663.985 2       491.809          45.000  
C 7  36144006.537 4 188211289.610 2       792.352          43.000  
C26  21480381.628 4 111853950.261 2      1344.570          46.000  
C21  22333350.767 4 116295579.964 2     -2111.704          47.000  
C 3  37068343.716 4 193024557.666 2        61.689          42.000  
C10  37373652.080 4 194614378.169 2      1072.606          40.000  
C 1  37648074.151 2 196043366.646 1        66.904          42.000  
C 2  37508366.469 4 195315861.495 2        39.227          37.000  
C 4  38414188.129 4 200032716.264 2        73.172          39.000  
C29  24458394.797 4 127361240.130 2      1975.182          44.000  
C 5  39536201.462 8 205875344.41425        48.370          30.000  
G 4  23681504.510 9               6      3482.140          29.000  
C22  25660401.219 9                     -3418.181          20.000  
C24  25653053.979 9                      2641.168          22.000  
C30  25349849.990 9               7      -279.854          27.000  
> 2021  2 25  2 53 43.9980000  0 25                     
G31  19767618.138 2 103879534.276 1      -496.239          47.000  
G26  19964260.261 4 104912874.393 2      1905.103          46.000  
G32  21128650.558 4 111031804.277 2     -2582.878          47.000  
G22  22334903.403 4 117370703.856 2      -870.517          41.000  
G29  22173496.933 4 116522517.749 2       944.067          43.000  
G 3  22211108.417 4 116720158.097 2       634.799          39.000  
G16  22088194.493 4 116074242.404 2      3643.040          40.000  
G25  22500871.324 4 118242878.464 2     -3373.912          41.000  
C16  35359480.137 4 184126051.864 2        95.593          47.000  
C 6  35269615.738 4 183658119.432 2       129.749          45.000  
C 9  35201068.875 2 183301167.460 1       492.761          45.000  
C 7  36143854.214 4 188210494.049 2       793.484          44.000  
C26  21480122.719 4 111852601.366 2      1345.648          46.000  
C21  22333755.943 4 116297689.282 2     -2111.050          47.000  
C 3  37068331.047 4 193024493.486 2        63.227          41.000  
C10  37373445.661 4 194613303.138 2      1073.861          40.000  
C 1  37648060.785 4 196043297.154 2        68.259          42.000  
C 2  37508358.529 4 195315820.051 3        39.968          37.000  
C 4  38414173.401 4 200032640.473 2        75.232          37.000  
C29  24458014.976 4 127359262.975 2      1975.631          44.000  
C 5  39536191.201 9                        65.869          29.000  
G 4  23680838.837 9               6      3482.318          29.000  
C22  25661050.786 9                     -3401.424          23.000  
C24  25652550.872 9                      2640.220          19.000  
C30  25349907.872 9                      -280.118          27.000  
> 2021  2 25  2 53 44.9980000  0 24                     
G31  19767711.444 4 103880025.020 2      -493.325          46.000  
G26  19963897.053 4 104910965.558 2      1908.256          47.000  
G32  21129141.537 2 111034384.402 2     -2580.107          47.000  
G22  22335068.238 4 117371570.233 2      -867.356          41.000  
G29  22173316.638 4 116521570.005 2       946.257          43.000  
G 3  22210986.737 4 116719518.910 2       637.291          39.000  
G16  22087500.969 4 116070597.056 2      3646.149          40.000  
G25  22501512.253 4 118246247.386 2     -3371.612          39.000  
C16  35359460.470 2 184125951.249 2        98.840          47.000  
C 6  35269589.720 4 183657985.005 2       133.093          45.000  
C 9  35200973.213 2 183300669.390 1       495.996          45.000  
C 7  36143701.158 4 188209696.942 2       796.830          43.000  
C26  21479863.374 4 111851251.095 2      1348.695          46.000  
C21  22334160.666 4 116299797.342 2     -2107.832          47.000  
C 3  37068318.413 4 193024427.589 2        67.027          41.000  
C10  37373238.719 4 194612226.510 2      1077.177          40.000  
C 1  37648047.086 4 196043226.023 2        72.090          42.000  
C 2  37508350.398 4 195315776.863 2        43.706          37.000  
C 4  38414158.656 4 200032563.160 2        78.282          38.000  
C29  24457634.858 4 127357284.630 2      1978.515          44.000  
G 4  23680173.983 9               6      3484.829          29.000  
C22  25661704.000 9                     -3398.409          22.000  
C24  25652044.554 9                      2641.122          18.000  
C30  25349963.451 9               6      -279.305          28.000  
> 2021  2 25  2 53 45.9980000  0 24                     
G31  19767804.942 4 103880515.082 2      -494.644          47.000  
G26  19963533.931 4 104909056.309 2      1907.056          46.000  
G32  21129631.975 2 111036963.799 1     -2581.625          47.000  
G22  22335232.688 4 117372436.338 2      -868.648          41.000  
G29  22173135.993 4 116520621.724 2       944.399          44.000  
G 3  22210865.231 4 116718879.631 2       635.748          39.000  
G16  22086806.974 4 116066951.086 2      3645.629          40.000  
G25  22502152.816 4 118249615.337 2     -3372.667          40.000  
C16  35359441.153 4 184125849.704 2        98.108          47.000  
C 6  35269563.928 2 183657849.627 2       132.135          45.000  
C 9  35200877.010 4 183300170.430 2       494.946          45.000  
C 7  36143547.666 4 188208898.980 2       795.797          43.000  
C26  21479604.099 4 111849900.245 2      1347.436          46.000  
C21  22334565.354 4 116301904.882 2     -2109.096          47.000  
C 3  37068305.570 4 193024360.758 2        65.508          41.000  
C10  37373032.038 4 194611149.038 2      1076.421          40.000  
C 1  37648033.335 4 196043153.813 2        70.891          42.000  
C 2  37508341.969 4 195315732.813 2        43.503          37.000  
C 4  38414143.684 4 200032484.688 2        76.568          38.000  
C29  24457254.862 4 127355305.479 2      1976.708          44.000  
G 4  23679510.212 8 124436665.29634      3482.788          31.000  
C22  25662357.371 9                     -3400.080          21.000  
C24  25651543.646 9                      2639.054          18.000  
C30  25350012.713 9                      -280.602          28.000  
> 2021  2 25  2 53 46.9980000  0 24                     
G31  19767897.760 2 103881003.369 2      -492.885          47.000  
G26  19963170.094 4 104907145.225 2      1907.995          46.000  
G32  21130122.344 4 111039540.881 2     -2578.065          47.000  
G22  22335397.139 4 117373300.940 2      -868.258          41.000  
G29  22172955.087 4 116519671.597 2       947.792          44.000  
G 3  22210743.324 4 116718239.132 2       635.920          39.000  
G16  22086112.856 4 116063302.917 2      3646.702          39.000  
G25  22502793.588 4 118252981.493 2     -3369.746          41.000  
C16  35359420.893 2 184125745.973 2       100.372          47.000  
C 6  35269537.614 4 183657712.027 2       134.692          45.000  
C 9  35200780.911 4 183299669.442 2       496.979          45.000  
C 7  36143393.808 4 188208098.644 2       798.353          43.000  
C26  21479344.283 4 111848547.580 2      1348.652          46.000  
C21  22334969.641 4 116304010.353 2     -2107.205          47.000  
C 3  37068291.923 4 193024291.248 2        68.804          41.000  
C10  37372824.451 4 194610069.169 2      1078.403          40.000  
C 1  37648018.904 4 196043078.881 2        74.364          42.000  
C 2  37508332.895 4 195315686.375 3        44.436          37.000  
C 4  38414128.310 4 200032403.423 2        80.997          39.000  
C29  24456874.464 4 127353324.080 2      1980.800          45.000  
G 4  23678850.506 8 124433177.70823      3483.347          36.000  
C22  25663011.964 9                     -3393.853          20.000  
C24  25651054.952 9                      2635.586          20.000  
C30  25350064.767 9               7      -276.331          28.000  
> 2021  2 25  2 53 47.9980000  0 24                     
G31  19767990.456 4 103881490.486 2      -493.060          47.000  
G26  19962806.222 4 104905233.151 2      1907.576          46.000  
G32  21130612.852 4 111042116.910 2     -2579.275          47.000  
G22  22335561.660 4 117374164.595 2      -868.726          42.000  
G29  22172773.849 4 116518720.684 2       946.664          44.000  
G 3  22210621.347 4 116717597.909 2       634.649          40.000  
G16  22085418.268 4 116059653.526 3      3646.269          40.000  
G25  22503434.046 8 118256346.413 3     -3370.409          39.000  
C16  35359401.000 4 184125640.858 2       100.128          47.000  
C 6  35269510.827 4 183657573.019 2       134.265          45.000  
C 9  35200684.342 4 183299167.043 2       496.631          45.000  
C 7  36143239.914 4 188207296.984 2       797.663          43.000  
C26  21479084.205 4 111847193.739 2      1348.108          46.000  
C21  22335373.928 4 116306114.783 2     -2107.818          47.000  
C 3  37068278.574 4 193024220.319 2        68.072          41.000  
C10  37372616.828 4 194608987.905 2      1078.423          39.000  
C 1  37648004.333 4 196043002.477 2        74.094          42.000  
C 2  37508323.821 4 195315638.416 3        45.304          37.000  
C 4  38414112.325 4 200032320.770 3        80.134          40.000  
C29  24456493.718 4 127351341.582 2      1979.904          45.000  
G 4  23678187.608 8 124429688.76023      3483.107          37.000  
C22  25663657.779 9                     -3398.492          23.000  
C24  25650553.730 9                      2639.382          21.000  
C30  25350120.154 9               6      -278.915          30.000  
> 2021  2 25  2 53 48.9980000  0 24                     
G31  19768082.785 4 103881976.378 2      -489.580          47.000  
G26  19962442.455 4 104903320.290 2      1911.120          46.000  
G32  21131102.750 4 111044691.721 2     -2575.313          47.000  
G22  22335725.744 4 117375027.618 2      -865.536          41.000  
G29  22172592.576 4 116517768.596 2       950.137          43.000  
G 3  22210499.073 4 116716956.017 3       638.316          39.000  
G16  22084723.610 4 116056003.230 3      3650.151          40.000  
G25  22504073.945 4 118259709.719 3     -3366.388          40.000  
C16  35359380.234 4 184125534.318 2       103.784          47.000  
C 6  35269483.867 4 183657432.591 2       138.068          45.000  
C 9  35200587.790 4 183298663.247 2       500.647          45.000  
C 7  36143085.829 4 188206494.045 2       801.576          43.000  
C26  21478823.812 4 111845838.861 2      1351.949          46.000  
C21  22335777.900 4 116308218.342 2     -2104.646          47.000  
C 3  37068264.753 4 193024148.003 2        71.868          41.000  
C10  37372409.048 4 194607905.512 2      1081.697          40.000  
C 1  37647989.466 4 196042924.535 2        77.755          42.000  
C 2  37508314.607 4 195315589.298 3        48.449          37.000  
C 4  38414096.516 4 200032236.427 3        83.780          39.000  
C29  24456112.745 4 127349357.689 3      1983.032          43.000  
G 4  23677521.463 8 124426198.56223      3486.919          36.000  
C22  25664307.974 9                     -3394.677          23.000  
C24  25650043.991 9                      2637.922          20.000  
C30  25350172.016 8 132004953.89835      -276.762          31.000  
> 2021  2 25  2 53 49.9980000  0 24                     
G31  19768174.974 4 103882460.814 2      -489.421          47.000  
G26  19962078.059 4 104901406.070 2      1910.444          46.000  
G32  21131592.420 4 111047264.971 2     -2575.985          47.000  
G22  22335889.933 4 117375889.413 2      -865.451          42.000  
G29  22172411.163 4 116516815.324 2       949.666          44.000  
G 3  22210376.852 4 116716313.206 2       638.116          40.000  
G16  22084028.707 4 116052351.313 2      3649.490          39.000  
G25  22504714.194 4 118263071.648 2     -3365.727          42.000  
C16  35359359.992 4 184125426.026 2       103.674          47.000  
C 6  35269456.400 4 183657290.387 2       138.062          45.000  
C 9  35200490.714 4 183298157.754 2       500.842          45.000  
C 7  36142931.063 4 188205689.306 2       801.414          43.000  
C26  21478563.316 4 111844482.500 2      1351.978          46.000  
C21  22336181.489 4 116310320.380 2     -2104.980          47.000  
C 3  37068250.374 4 193024073.725 2        71.875          41.000  
C10  37372200.832 4 194606821.221 2      1081.758          40.000  
C 1  37647974.127 4 196042844.608 3        77.413          42.000  
C 2  37508304.783 4 195315538.266 2        48.661          36.000  
C 4  38414079.694 4 200032150.151 3        83.761          38.000  
C29  24455731.423 4 127347372.248 2      1982.974          43.000  
G 4  23676856.627 8 124422706.88523      3487.735          36.000  
C22  25664954.487 9               7     -3394.301          25.000  
C24  25649532.124 9                      2642.793          18.000  
C30  25350222.063 9               7      -272.831          30.000  
> 2021  2 25  2 53 50.9980000  0 24                     
G31  19768266.640 4 103882943.695 2      -485.654          47.000  
G26  19961713.315 4 104899490.364 2      1914.556          47.000  
G32  21132081.637 4 111049836.510 2     -2572.148          46.000  
G22  22336053.407 4 117376749.879 2      -861.706          41.000  
G29  22172229.576 4 116515860.654 2       953.344          44.000  
G 3  22210254.578 4 116715669.224 2       642.296          39.000  
G16  22083333.298 4 116048697.635 2      3653.475          39.000  
G25  22505353.465 4 118266431.860 3     -3361.932          40.000  
C16  35359338.231 4 184125315.881 2       107.947          47.000  
C 6  35269428.602 4 183657146.301 2       142.322          45.000  
C 9  35200393.220 4 183297650.459 2       504.858          45.000  
C 7  36142776.297 4 188204882.687 2       805.448          43.000  
C26  21478302.452 4 111843124.565 2      1355.423          46.000  
C21  22336584.659 4 116312420.860 2     -2101.556          47.000  
C 3  37068236.065 4 193023997.391 2        75.822          41.000  
C10  37371992.250 4 194605735.039 2      1085.651          39.000  
C 1  37647958.561 4 196042762.554 2        81.976          42.000  
C 2  37508294.679 4 195315485.268 3        52.381          36.000  
C 4  38414062.889 4 200032061.779 2        88.345          38.000  
C29  24455349.664 4 127345385.119 3      1987.147          44.000  
G 4  23676193.501 8 124419213.55123      3491.957          35.000  
C22  25665603.356 9                     -3388.289          26.000  
C24  25649022.124 9                      2651.561          18.000  
C30  25350268.167 9                      -272.439          29.000  
> 2021  2 25  2 53 51.9980000  0 24                     
G31  19768358.393 4 103883425.270 2      -484.990          47.000  
G26  19961348.483 4 104897573.440 2      1914.994          46.000  
G32  21132570.697 4 111052406.446 3     -2571.615          47.000  
G22  22336216.654 4 117377609.335 3      -861.128          40.000  
G29  22172047.762 4 116514904.760 2       953.458          43.000  
G 3  22210131.990 4 116715024.505 2       642.441          39.000  
G16  22082637.593 4 116045042.394 3      3654.602          39.000  
G25  22505992.841 8 118269790.637 3     -3361.372          42.000  
C16  35359317.291 4 184125204.101 2       108.759          47.000  
C 6  35269400.472 4 183657000.565 2       143.262          45.000  
C 9  35200295.499 4 183297141.585 2       506.219          45.000  
C 7  36142621.025 4 188204074.386 2       806.458          43.000  
C26  21478041.641 4 111841765.291 2      1357.052          46.000  
C21  22336987.846 4 116314519.911 2     -2100.547          47.000  
C 3  37068220.918 4 193023919.134 3        77.214          40.000  
C10  37371783.144 4 194604647.114 2      1086.748          39.000  
C 1  37647942.367 4 196042678.511 3        83.068          42.000  
C 2  37508284.087 8 195315430.449 3        54.377          37.000  
C 4  38414045.212 8 200031971.395 3        89.217          38.000  
C29  24454967.784 4 127343396.362 3      1987.599          45.000  
G 4  23675528.369 8 124415718.91123      3492.900          34.000  
C22  25666246.414 9                     -3387.358          25.000  
C24  25648515.370 9                      2649.965          18.000  
C30  25350322.123 9               7      -270.614          33.000  
> 2021  2 25  2 53 52.9980000  0 24                     
G31  19768449.955 4 103883906.225 3      -482.593          47.000  
G26  19960983.704 4 104895656.086 2      1916.623          46.000  
G32  21133059.669 4 111054975.754 3     -2569.040          47.000  
G22  22336380.110 4 117378468.430 3      -859.695          40.000  
G29  22171866.175 8 116513948.503 3       956.113          44.000  
G 3  22210009.245 8 116714379.605 3       643.731          39.000  
G16  22081942.359 4 116041386.519 3      3656.390          39.000  
G25  22506631.222 8 118273148.766 3     -3359.079          41.000  
C16  35359295.600 4 184125091.443 2       111.517          47.000  
C 6  35269372.412 4 183656853.955 2       145.502          44.000  
C 9  35200197.655 4 183296631.893 2       508.130          45.000  
C 7  36142465.473 4 188203265.207 2       808.632          43.000  
C26  21477780.412 4 111840405.417 2      1358.635          46.000  
C21  22337390.719 4 116316618.439 2     -2099.016          47.000  
C 3  37068205.702 4 193023839.890 2        79.677          41.000  
C10  37371574.073 4 194603558.298 2      1088.776          39.000  
C 1  37647925.947 4 196042593.480 3        85.232          42.000  
C 2  37508273.372 8 195315374.749 3        56.157          36.000  
C 4  38414027.936 8 200031879.959 3        92.465          38.000  
C29  24454585.659 8 127341406.970 3      1990.161          45.000  
G 4  23674862.294 8 124412223.58224      3494.858          33.000  
C22  25666900.204 9 133654253.44035     -3387.548          31.000  
C24  25648005.474 9                      2646.422          17.000  
C30  25350377.946 9 132006016.38835      -269.076          32.000  
> 2021  2 25  2 53 53.9980000  0 24                     
G31  19768541.499 4 103884386.409 3      -484.521          46.000  
G26  19960618.663 4 104893738.366 3      1914.032          46.000  
G32  21133548.432 4 111057544.216 2     -2571.014          46.000  
G22  22336543.636 4 117379327.401 3      -862.802          41.000  
G29  22171684.013 8 116512991.429 3       954.664          42.000  
G 3  22209886.466 4 116713734.642 3       641.122          39.000  
G16  22081246.601 4 116037730.136 3      3653.796          39.000  
G25  22507270.284 8 118276505.652 3     -3359.896          41.000  
C16  35359273.927 4 184124977.793 2       109.778          46.000  
C 6  35269344.405 4 183656706.285 2       143.921          44.000  
C 9  35200099.620 4 183296121.239 3       507.062          44.000  
C 7  36142309.870 4 188202455.180 2       806.922          42.000  
C26  21477519.112 4 111839045.025 2      1356.506          46.000  
C21  22337793.714 4 116318716.484 3     -2100.927          46.000  
C 3  37068190.119 4 193023759.683 3        78.031          41.000  
C10  37371364.880 4 194602468.720 3      1087.212          40.000  
C 1  37647909.299 4 196042507.164 2        84.279          41.000  
C 2  37508262.553 8 195315318.263 3        53.780          36.000  
C 4  38414009.962 8 200031787.226 3        90.602          38.000  
C29  24454203.447 4 127339416.493 3      1988.596          44.000  
G 4  23674197.703 8 124408727.56624      3492.673          32.000  
C22  25667548.514 8 133657639.66224     -3388.932          31.000  
C24  25647497.847 9                      2646.422          15.000  
C30  25350428.709 9 132006303.41034      -271.590          32.000  
> 2021  2 25  2 53 54.9980000  0 23                     
G31  19768633.199 8 103884868.666 3      -483.717          47.000  
G26  19960254.198 4 104891822.844 2      1915.137          46.000  
G32  21134037.580 4 111060114.662 2     -2570.709          47.000  
G22  22336707.528 4 117380188.787 3      -861.993          40.000  
G29  22171502.269 8 116512036.662 3       954.343          43.000  
G 3  22209764.174 8 116713092.304 3       641.786          39.000  
G16  22080551.350 4 116034075.723 3      3654.762          38.000  
G25  22507909.433 8 118279864.676 3     -3359.863          42.000  
C16  35359252.237 4 184124865.894 3       110.870          47.000  
C 6  35269316.292 4 183656560.375 3       145.087          45.000  
C 9  35200001.742 4 183295612.429 3       507.751          45.000  
C 7  36142154.772 4 188201646.931 2       808.216          43.000  
C26  21477258.301 4 111837686.686 3      1357.803          46.000  
C21  22338197.024 4 116320816.595 2     -2099.912          46.000  
C 3  37068174.902 4 193023681.090 2        79.197          41.000  
C10  37371155.983 4 194601380.909 2      1088.057          40.000  
C 1  37647892.983 4 196042422.426 3        85.223          42.000  
C 2  37508251.804 4 195315263.441 3        56.284          36.000  
C 4  38413992.530 8 200031695.991 3        91.874          38.000  
C29  24453821.619 8 127337427.947 3      1988.871          44.000  
G 4  23673536.339 8 124405233.14715      3494.379          31.000  
C22  25668199.704 8 133661027.34923     -3386.302          35.000  
C30  25350480.710 8 132006573.27224      -270.094          35.000  
> 2021  2 25  2 53 55.9980000  0 23                     
G31  19768724.883 4 103885349.825 2      -483.688          47.000  
G26  19959889.383 4 104889906.365 2      1914.732          46.000  
G32  21134526.622 4 111062683.846 3     -2571.178          47.000  
G22  22336871.735 4 117381049.228 2      -861.798          41.000  
G29  22171320.420 4 116511081.018 3       952.843          44.000  
G 3  22209641.796 4 116712449.286 2       641.551          39.000  
G16  22079855.575 4 116030420.052 3      3654.752          39.000  
G25  22508548.356 8 118283222.401 3     -3360.419          42.000  
C16  35359230.197 4 184124752.607 2       110.980          47.000  
C 6  35269287.831 4 183656413.050 2       145.093          45.000  
C 9  35199903.811 4 183295102.274 2       507.739          45.000  
C 7  36141999.151 4 188200837.247 2       808.019          43.000  
C26  21476997.420 4 111836327.228 2      1357.546          46.000  
C21  22338600.298 4 116322915.621 2     -2100.536          47.000  
C 3  37068159.965 4 193023600.873 3        79.484          41.000  
C10  37370946.633 4 194600291.648 2      1087.987          40.000  
C 1  37647875.987 4 196042336.062 3        84.669          42.000  
C 2  37508241.194 8 195315207.151 3        55.639          36.000  
C 4  38413974.713 4 200031603.187 3        91.084          38.000  
C29  24453439.459 8 127335438.170 3      1987.625          45.000  
G 4  23672872.917 9               6      3494.255          30.000  
C22  25668849.550 8 133664413.49024     -3387.183          36.000  
C30  25350531.682 8 132006842.29224      -271.144          34.000  
> 2021  2 25  2 53 56.9980000  0 24                     
G31  19768816.846 4 103885832.210 3      -485.116          47.000  
G26  19959524.883 4 104887991.432 2      1912.997          46.000  
G32  21135015.856 4 111065254.259 3     -2572.044          47.000  
G22  22337035.558 4 117381911.439 2      -864.004          42.000  
G29  22171138.798 4 116510126.692 3       951.874          44.000  
G 3  22209519.522 4 116711808.093 3       639.131          40.000  
G16  22079160.149 4 116026765.753 3      3653.633          38.000  
G25  22509187.836 8 118286581.148 3     -3360.312          42.000  
C16  35359209.082 4 184124640.305 3       109.973          47.000  
C 6  35269259.771 4 183656266.676 3       144.269          45.000  
C 9  35199806.299 4 183294593.108 3       506.750          45.000  
C 7  36141843.827 4 188200028.665 3       807.103          43.000  
C26  21476736.644 4 111834969.089 2      1356.037          46.000  
C21  22339003.521 4 116325016.064 2     -2101.903          47.000  
C 3  37068144.626 4 193023521.677 3        78.208          41.000  
C10  37370737.597 4 194599203.501 2      1086.736          40.000  
C 1  37647859.618 4 196042250.494 3        84.595          42.000  
C 2  37508230.584 4 195315151.942 3        54.347          36.000  
C 4  38413957.210 8 200031511.097 3        91.215          38.000  
C29  24453057.718 8 127333449.423 3      1987.354          45.000  
G 4  23672202.532 9               6      3493.023          29.000  
C22  25669499.536 8 133667800.48524     -3387.177          36.000  
C30  25350579.670 8 132007112.65025      -273.106          34.000  
C14  24340238.937 9 126745979.67424      2159.960          41.000  
> 2021  2 25  2 53 57.9980000  0 24                     
G31  19768908.546 4 103886315.533 2      -485.227          47.000  
G26  19959160.715 4 104886077.519 2      1912.330          46.000  
G32  21135504.881 4 111067825.370 2     -2572.461          46.000  
G22  22337199.991 4 117382774.810 2      -865.079          39.000  
G29  22170957.455 4 116509173.407 2       951.152          44.000  
G 3  22209397.790 4 116711168.321 2       637.665          40.000  
G16  22078464.897 4 116023112.222 2      3652.077          39.000  
G25  22509827.247 4 118289940.655 3     -3361.353          42.000  
C16  35359187.235 2 184124528.599 2       109.875          47.000  
C 6  35269231.798 4 183656120.900 2       144.147          45.000  
C 9  35199708.543 4 183294084.616 2       506.665          45.000  
C 7  36141688.764 4 188199220.639 2       806.289          43.000  
C26  21476476.130 2 111833611.901 1      1355.367          46.000  
C21  22339406.987 4 116327117.359 2     -2102.808          47.000  
C 3  37068129.689 4 193023442.806 2        77.690          41.000  
C10  37370528.752 4 194598115.870 2      1086.589          40.000  
C 1  37647843.268 4 196042165.201 2        84.100          42.000  
C 2  37508219.975 4 195315097.212 2        53.898          36.000  
C 4  38413939.429 4 200031419.315 2        90.073          38.000  
C29  24452675.907 4 127331461.380 2      1986.543          44.000  
G 4  23671539.738 8               6      3489.730          28.000  
C22  25670149.504 8 133671187.69023     -3387.147          35.000  
C30  25350630.189 8 132007384.01724      -273.173          33.000  
C14  24339822.662 9 126743818.58822      2159.649          39.000  
> 2021  2 25  2 53 58.9980000  0 24                     
G31  19769000.893 4 103886800.316 2      -488.708          47.000  
G26  19958797.052 4 104884165.310 2      1909.303          46.000  
G32  21135994.569 4 111070397.848 3     -2576.072          46.000  
G22  22337364.721 4 117383640.113 3      -868.177          42.000  
G29  22170776.322 8 116508221.691 3       947.102          44.000  
G 3  22209276.476 8 116710530.640 3       633.870          40.000  
G16  22077769.611 8 116019460.123 3      3650.357          39.000  
G25  22510466.937 8 118293301.528 4     -3365.426          42.000  
C16  35359166.434 4 184124418.079 2       107.056          47.000  
C 6  35269203.913 4 183655976.259 2       141.473          45.000  
C 9  35199611.241 4 183293577.391 2       503.845          45.000  
C 7  36141533.771 4 188198413.815 2       803.919          43.000  
C26  21476215.825 4 111832256.245 2      1352.460          46.000  
C21  22339810.890 4 116329220.217 3     -2105.438          46.000  
C 3  37068114.716 4 193023364.992 3        75.303          41.000  
C10  37370320.205 4 194597029.508 3      1083.665          39.000  
C 1  37647827.074 4 196042080.859 3        81.210          42.000  
C 2  37508209.923 8 195315043.688 3        51.154          36.000  
C 4  38413921.839 8 200031328.364 3        87.403          38.000  
C29  24452294.533 8 127329474.564 3      1982.281          45.000  
G 4  23670868.951 9               7      3488.499          27.000  
C22  25670801.968 8 133674575.88124     -3390.991          37.000  
C30  25350683.394 8 132007657.07225      -277.451          35.000  
C14  24339407.748 8 126741659.35823      2155.212          41.000  
> 2021  2 25  2 53 59.9980000  0 24                     
G31  19769093.222 4 103887287.126 2      -488.259          47.000  
G26  19958433.581 4 104882255.414 2      1909.341          46.000  
G32  21136484.397 4 111072972.406 3     -2574.962          46.000  
G22  22337530.114 4 117384507.755 3      -868.786          40.000  
G29  22170595.904 8 116507272.298 3       947.176          44.000  
G 3  22209155.720 4 116709895.363 2       633.479          41.000  
G16  22077075.057 4 116015810.204 3      3649.955          39.000  
G25  22511106.802 8 118296664.222 3     -3365.890          43.000  
C16  35359145.267 4 184124309.324 2       107.941          47.000  
C 6  35269176.342 4 183655833.409 2       142.139          45.000  
C 9  35199514.200 4 183293071.927 2       504.456          45.000  
C 7  36141379.320 4 188197608.836 3       804.569          43.000  
C26  21475955.991 4 111830902.589 2      1352.839          46.000  
C21  22340215.159 4 116331325.260 2     -2105.325          47.000  
C 3  37068099.919 4 193023288.923 3        76.187          41.000  
C10  37370111.971 4 194595944.984 3      1084.526          39.000  
C 1  37647811.177 4 196041998.232 3        82.283          40.000  
C 2  37508200.186 4 195314991.906 3        52.092          36.000  
C 4  38413904.685 8 200031239.149 3        87.845          38.000  
C29  24451913.298 8 127327489.698 3      1982.835          45.000  
G 4  23670206.297 9                      3490.021          26.000  
C22  25671452.965 8 133677965.75824     -3389.143          35.000  
C30  25350736.565 8 132007932.36224      -277.895          36.000  
C14  24338994.143 8 126739502.25522      2155.021          40.000  
> 2021  2 25  2 54  0.9980000  0 24                     
G31  19769185.447 4 103887772.676 3      -485.317          47.000  
G26  19958069.779 8 104880344.333 3      1912.481          45.000  
G32  21136973.893 8 111075545.377 3     -2571.656          46.000  
G22  22337695.263 4 117385374.457 3      -866.078          41.000  
G29  22170414.666 8 116506321.590 3       950.148          43.000  
G 3  22209034.633 8 116709259.449 3       635.099          41.000  
G16  22076380.416 8 116012158.762 3      3653.082          39.000  
G25  22511746.300 8 118300025.473 3     -3364.025          41.000  
C16  35359124.082 4 184124198.974 3       111.407          47.000  
C 6  35269148.805 4 183655688.931 3       145.416          45.000  
C 9  35199416.810 4 183292564.990 3       507.495          45.000  
C 7  36141224.397 4 188196802.217 3       808.635          43.000  
C26  21475695.669 4 111829547.751 3      1355.670          47.000  
C21  22340618.905 4 116333428.959 3     -2101.902          47.000  
C 3  37068085.103 4 193023211.020 3        80.074          41.000  
C10  37369903.476 4 194594858.782 3      1088.518          39.000  
C 1  37647794.721 8 196041913.560 3        86.552          42.000  
C 2  37508189.925 8 195314938.482 3        55.442          36.000  
C 4  38413887.078 8 200031147.827 3        92.892          38.000  
C29  24451531.504 8 127325503.157 3      1986.165          45.000  
G 4  23669544.270 9                      3491.637          26.000  
C22  25672102.480 8 133681353.55824     -3384.649          34.000  
C30  25350790.260 8 132008206.49223      -277.046          37.000  
C14  24338578.828 8 126737344.32123      2156.434          41.000  
> 2021  2 25  2 54  1.9980000  0 24                     
G31  19769277.968 4 103888258.154 2      -484.056          47.000  
G26  19957706.326 4 104878433.486 3      1912.443          46.000  
G32  21137463.755 8 111078118.407 3     -2571.251          46.000  
G22  22337860.290 4 117386241.420 3      -865.511          41.000  
G29  22170233.812 8 116505371.184 3       950.398          44.000  
G 3  22208913.651 8 116708623.867 3       635.889          41.000  
G16  22075685.531 8 116008507.355 3      3653.965          39.000  
G25  22512386.269 8 118303386.525 4     -3362.734          43.000  
C16  35359102.968 4 184124088.367 3       112.463          47.000  
C 6  35269121.339 4 183655544.169 3       146.124          45.000  
C 9  35199319.630 4 183292057.736 2       508.643          45.000  
C 7  36141069.212 4 188195995.413 3       809.396          43.000  
C26  21475435.556 4 111828192.846 2      1356.900          46.000  
C21  22341023.017 4 116335532.794 3     -2101.744          47.000  
C 3  37068069.677 8 193023132.805 3        80.663          41.000  
C10  37369694.876 4 194593772.409 3      1088.730          39.000  
C 1  37647778.667 8 196041828.621 3        86.719          41.000  
C 2  37508179.403 4 195314884.757 3        56.037          36.000  
C 4  38413869.750 8 200031056.266 3        93.238          39.000  
C29  24451149.920 8 127323516.646 3      1986.698          44.000  
G 4  23668882.593 9                      3490.625          26.000  
C22  25672751.244 8 133684741.10024     -3384.923          33.000  
C30  25350842.837 8 132008480.80624      -276.837          36.000  
C14  24338164.874 8 126735186.44823      2157.856          40.000  
> 2021  2 25  2 54  2.9980000  0 24                     
G31  19769370.314 4 103888743.826 3      -482.664          47.000  
G26  19957342.960 8 104876523.043 3      1913.809          46.000  
G32  21137953.199 8 111080691.493 3     -2569.582          46.000  
G22  22338025.299 4 117387108.996 3      -865.039          41.000  
G29  22170053.133 8 116504421.026 3       951.720          43.000  
G 3  22208792.913 8 116707989.038 3       636.528          40.000  
G16  22074990.698 8 116004856.131 3      3654.830          39.000  
G25  22513025.820 8 118306747.488 4     -3360.409          40.000  
C16  35359081.451 4 184123977.681 3       114.075          47.000  
C 6  35269093.261 4 183655399.294 3       148.242          45.000  
C 9  35199222.275 4 183291550.449 3       510.278          45.000  
C 7  36140914.219 8 188195188.579 3       810.827          43.000  
C26  21475175.251 4 111826838.230 3      1357.756          46.000  
C21  22341427.216 4 116337636.912 3     -2100.740          46.000  
C 3  37068054.792 8 193023054.398 3        82.012          41.000  
C10  37369486.241 8 194592685.986 3      1090.548          39.000  
C 1  37647762.316 8 196041743.298 3        88.428          41.000  
C 2  37508169.160 8 195314830.957 4        57.185          36.000  
C 4  38413852.038 8 200030964.261 4        94.534          38.000  
C29  24450768.720 8 127321530.071 3      1987.844          44.000  
G 4  23668219.415 9                      3492.348          25.000  
C22  25673404.214 9 133688120.84035     -3384.687          34.000  
C30  25350895.467 8 132008755.215 3      -273.099          37.000  
C14  24337750.204 8 126733029.12323      2159.017          40.000  
> 2021  2 25  2 54  3.9980000  0 24                     
G31  19769462.504 4 103889228.339 2      -481.753          47.000  
G26  19956978.966 4 104874611.525 3      1913.762          46.000  
G32  21138442.538 4 111083263.151 3     -2569.854          47.000  
G22  22338190.361 4 117387975.741 3      -865.856          41.000  
G29  22169872.314 4 116503469.768 3       952.653          43.000  
G 3  22208672.000 8 116707353.618 3       637.045          40.000  
G16  22074295.709 8 116001203.627 3      3653.552          38.000  
G25  22513665.231 4 118310107.231 3     -3358.339          42.000  
C16  35359060.249 4 184123865.486 2       114.819          47.000  
C 6  35269065.062 4 183655252.889 2       148.962          45.000  
C 9  35199124.327 4 183291041.780 2       511.292          45.000  
C 7  36140759.226 4 188194380.198 3       810.613          43.000  
C26  21474914.981 4 111825482.498 2      1357.679          46.000  
C21  22341831.328 4 116339739.812 3     -2101.338          47.000  
C 3  37068039.454 8 193022974.240 3        81.939          41.000  
C10  37369277.083 4 194591598.020 3      1089.596          39.000  
C 1  37647745.546 4 196041656.139 3        88.879          41.000  
C 2  37508158.724 8 195314775.599 3        56.694          36.000  
C 4  38413834.186 8 200030870.364 3        96.144          39.000  
C29  24450386.910 8 127319542.051 3      1989.049          42.000  
G 4  23667555.190 9                      3494.021          25.000  
C22  25674055.822 8 133691506.14724     -3384.495          35.000  
C30  25350948.097 8 132009028.895 3      -272.698          37.000  
C14  24337335.901 4 126730871.01423      2159.659          40.000  
> 2021  2 25  2 54  4.9980000  0 23                     
G31  19769554.676 4 103889712.329 2      -482.380          47.000  
G26  19956615.373 4 104872699.843 2      1914.061          46.000  
G32  21138931.912 4 111085834.371 2     -2568.598          46.000  
G22  22338354.969 4 117388842.303 2      -865.635          43.000  
G29  22169691.058 4 116502518.223 2       952.312          43.000  
G 3  22208551.140 4 116706718.182 3       635.949          41.000  
G16  22073600.597 4 115997550.699 2      3655.193          39.000  
G25  22514304.170 4 118313466.165 3     -3359.125          42.000  
C16  35359038.175 4 184123752.564 2       114.978          47.000  
C 6  35269036.932 4 183655105.754 2       149.298          45.000  
C 9  35199026.554 4 183290532.391 2       510.889          45.000  
C 7  36140603.954 4 188193571.186 2       811.927          43.000  
C26  21474654.414 4 111824126.292 2      1357.928          46.000  
C21  22342235.074 4 116341842.432 2     -2100.345          46.000  
C 3  37068023.940 4 193022893.393 2        83.442          41.000  
C10  37369067.960 4 194590509.519 2      1090.986          38.000  
C 1  37647728.794 4 196041568.165 2        90.396          41.000  
C 2  37508148.010 4 195314719.577 3        58.225          36.000  
C 4  38413815.881 4 200030775.665 3        96.840          37.000  
C29  24450004.942 4 127317553.435 2      1990.172          41.000  
C22  25674703.470 8 133694890.70223     -3382.414          35.000  
C30  25351000.570 8 132009302.068 3      -273.048          37.000  
C14  24336921.336 8 126728712.63623      2158.702          40.000  
> 2021  2 25  2 54  5.9980000  0 23                     
G31  19769647.249 4 103890198.973 2      -485.080          47.000  
G26  19956252.095 4 104870791.076 2      1909.783          46.000  
G32  21139421.670 4 111088408.142 3     -2572.751          46.000  
G22  22338520.327 4 117389712.006 2      -869.223          42.000  
G29  22169510.483 4 116501569.410 2       949.652          43.000  
G 3  22208431.048 4 116706086.030 3       632.696          40.000  
G16  22072906.113 4 115993900.507 3      3650.217          39.000  
G25  22514943.581 4 118316827.595 3     -3360.214          40.000  
C16  35359017.217 4 184123641.991 2       112.250          47.000  
C 6  35269009.203 4 183654960.951 2       146.362          45.000  
C 9  35198929.077 4 183290025.412 2       508.740          46.000  
C 7  36140449.048 4 188192764.616 2       807.704          43.000  
C26  21474394.406 4 111822772.866 2      1354.651          46.000  
C21  22342639.343 4 116343947.805 2     -2104.472          46.000  
C 3  37068008.933 4 193022814.779 3        79.721          40.000  
C10  37368859.761 4 194589423.423 2      1086.843          39.000  
C 1  37647712.251 4 196041482.318 2        86.283          41.000  
C 2  37508137.470 4 195314666.005 3        54.275          36.000  
C 4  38413798.047 8 200030682.990 3        93.656          38.000  
C29  24449623.218 4 127315567.208 3      1987.265          41.000  
C22  25675354.084 8 133698277.41523     -3385.273          35.000  
C30  25351054.020 4 132009578.038 3      -275.302          38.000  
C14               4              12      2156.576          40.000  
> 2021  2 25  2 54  6.9980000  0 23                     
G31  19769740.503 4 103890688.371 2      -487.279          47.000  
G26  19955889.654 4 104868885.225 2      1907.163          46.000  
G32  21139911.916 4 111090984.412 2     -2575.332          46.000  
G22  22338686.313 4 117390584.819 2      -871.503          42.000  
G29  22169330.275 4 116500623.411 2       947.455          43.000  
G 3  22208311.269 4 116705457.176 3       630.568          40.000  
G16  22072212.083 4 115990252.933 3      3648.452          39.000  
G25  22515584.074 4 118320191.619 3     -3362.250          43.000  
C16  35358996.364 4 184123533.852 2       109.869          47.000  
C 6  35268981.894 4 183654818.517 2       144.128          45.000  
C 9  35198832.315 4 183289520.950 2       506.512          45.000  
C 7  36140294.597 4 188191960.446 2       805.310          43.000  
C26  21474135.113 4 111821422.216 2      1352.295          46.000  
C21  22343044.136 4 116346055.929 2     -2107.308          47.000  
C 3  37067994.066 4 193022738.432 2        77.167          41.000  
C10  37368651.720 4 194588339.742 2      1084.303          39.000  
C 1  37647696.215 4 196041398.494 2        85.161          41.000  
C 2  37508127.803 4 195314614.746 3        52.628          37.000  
C 4  38413780.544 4 200030592.366 3        91.801          38.000  
C29  24449242.280 4 127313583.407 3      1985.104          40.000  
C22  25676004.279 8 133701666.24324     -3387.573          33.000  
C30  25351107.557 8 132009856.845 3      -277.153          40.000  
C14               4               3      2153.549          40.000  
> 2021  2 25  2 54  7.9980000  0 24                     
G31  19769833.425 8 103891177.187 3      -482.642          47.000  
G26  19955526.637 4 104866978.972 3      1912.304          46.000  
G32  21140402.163 8 111093560.205 3     -2569.431          46.000  
G22  22338852.300 4 117391457.294 3      -867.269          42.000  
G29  22169150.416 8 116499677.219 3       951.854          43.000  
G 3  22208191.369 8 116704828.203 3       634.191          40.000  
G16  22071517.913 8 115986604.800 3      3653.785          39.000  
G25  22516223.939 8 118323555.002 3     -3358.642          42.000  
C16  35358975.598 4 184123424.876 3       115.411          47.000  
C 6  35268954.218 4 183654675.302 3       149.292          45.000  
C 9  35198735.030 4 183289015.653 3       511.523          45.000  
C 7  36140140.040 4 188191155.472 3       811.447          43.000  
C26  21473875.384 4 111820070.917 3      1357.578          46.000  
C21  22343448.737 4 116348163.557 2     -2101.640          47.000  
C 3  37067979.250 4 193022661.154 3        83.472          41.000  
C10  37368443.574 4 194587255.233 2      1090.304          39.000  
C 1  37647679.811 4 196041313.886 3        90.618          41.000  
C 2  37508117.804 8 195314562.680 3        56.928          36.000  
C 4  38413763.042 8 200030500.925 3        97.691          40.000  
C29  24448861.237 8 127311599.138 3      1990.370          38.000  
G 4  23664898.639 9                      3488.769          30.000  
C22  25676654.247 8 133705054.27624     -3382.721          36.000  
C30  25351160.763 8 132010135.494 4      -273.929          39.000  
C14               8               3      2157.869          40.000  
> 2021  2 25  2 54  8.9980000  0 24                     
G31  19769925.667 4 103891661.532 2      -479.710          47.000  
G26  19955163.149 4 104865068.698 2      1914.378          46.000  
G32  21140891.484 4 111096131.438 2     -2567.623          46.000  
G22  22339017.658 4 117392326.005 2      -864.177          42.000  
G29  22168969.631 4 116498726.486 2       953.775          43.000  
G 3  22208071.189 4 116704195.439 3       637.102          41.000  
G16  22070822.836 4 115982952.501 2      3656.106          39.000  
G25  22516862.896 4 118326913.471 3     -3354.881          39.000  
C16  35358953.576 4 184123311.276 2       118.030          47.000  
C 6  35268925.948 4 183654527.364 2       152.252          45.000  
C 9  35198637.117 4 183288505.788 2       514.502          45.000  
C 7  36139984.541 4 188190346.042 2       813.656          43.000  
C26  21473615.167 4 111818715.520 2      1360.031          46.000  
C21  22343852.884 4 116350267.114 2     -2099.680          47.000  
C 3  37067963.510 4 193022579.289 2        85.802          40.000  
C10  37368234.433 4 194586166.345 2      1092.754          39.000  
C 1  37647662.728 4 196041224.311 2        93.053          41.000  
C 2  37508106.880 4 195314506.165 3        60.796          37.000  
C 4  38413744.178 4 200030404.480 3        99.180          39.000  
C29  24448479.060 4 127309610.094 3      1991.550          39.000  
G 4  23664226.003 9 124356346.74134      3497.266          35.000  
C22  25677304.076 4 133708437.39623     -3380.378          36.000  
C30  25351213.637 4 132010409.533 3      -271.315          39.000  
C14               4               3      2161.166          40.000  
> 2021  2 25  2 54  9.9980000  0 24                     
G31  19770017.351 8 103892142.532 3      -475.710          47.000  
G26  19954799.050 8 104863155.339 3      1917.760          46.000  
G32  21141379.846 8 111098699.252 4     -2563.891          46.000  
G22  22339182.406 8 117393191.756 4      -861.184          40.000  
G29  22168788.132 8 116497772.536 4       957.646          42.000  
G 3  22207950.346 8 116703559.888 4       640.496          41.000  
G16  22070127.078 8 115979296.903 4      3659.163          39.000  
G25  22517501.521 8 118330268.471 4     -3350.298          42.000  
C16  35358930.804 8 184123194.057 3       122.327          47.000  
C 6  35268896.999 8 183654375.848 3       156.189          45.000  
C 9  35198538.401 8 183287992.362 3       518.744          45.000  
C 7  36139828.466 8 188189533.094 3       817.105          43.000  
C26  21473354.391 8 111817356.852 3      1363.691          47.000  
C21  22344255.879 8 116352367.464 3     -2096.468          47.000  
C 3  37067947.229 8 193022493.773 3        89.078          41.000  
C10  37368024.402 8 194585073.998 4      1096.146          39.000  
C 1  37647644.754 8 196041131.009 4        96.920          41.000  
C 2  37508095.293 8 195314446.164 4        63.737          37.000  
C 4  38413724.861 8 200030304.151 4       103.385          38.000  
C29  24448096.516 8 127307617.492 4      1996.073          40.000  
G 4  23663571.462 9 124352851.06824      3500.951          38.000  
C22  25677952.770 8 133711816.80624     -3376.593          37.000  
C30  25351265.691 8 132010680.331 4      -266.493          40.000  
C14               8               4      2165.234          40.000  
> 2021  2 25  2 54 10.9980000  0 24                     
G31  19770108.650 8 103892621.670 3      -474.016          47.000  
G26  19954434.445 8 104861240.298 4      1919.527          46.000  
G32  21141868.086 8 111101265.159 4     -2561.631          45.000  
G22  22339347.136 8 117394055.967 4      -859.973          40.000  
G29  22168606.178 8 116496816.923 4       960.104          43.000  
G 3  22207829.172 8 116702923.001 4       640.706          40.000  
G16  22069431.007 8 115975639.356 4      3662.059          39.000  
G25  22518139.571 8 118333621.425 4     -3349.205          43.000  
C16  35358908.083 8 184123074.740 3       124.158          47.000  
C 6  35268867.351 8 183654222.179 4       158.362          45.000  
C 9  35198439.389 8 183287476.863 3       520.654          46.000  
C 7  36139672.043 8 188188717.992 3       820.004          43.000  
C26  21473092.952 8 111815996.347 4      1365.326          47.000  
C21  22344659.119 8 116354466.022 3     -2094.250          46.000  
C 3  37067930.320 8 193022405.985 4        92.104          41.000  
C10  37367814.354 8 194583979.487 4      1098.923          39.000  
C 1  37647626.675 8 196041035.360 3        99.585          41.000  
C 2  37508083.409 8 195314383.921 4        66.578          37.000  
C 4  38413705.334 8 200030201.525 4       106.355          38.000  
C29  24447713.536 8 127305622.977 4      1998.890          40.000  
G 4  23662897.744 9 124349353.53624      3502.404          38.000  
C22  25678601.569 8 133715193.92824     -3373.869          38.000  
C30  25351317.466 8 132010949.589 4      -265.480          40.000  
C14               8               4      2165.411          40.000  
> 2021  2 25  2 54 11.9980000  0 24                     
G31  19770199.042 8 103893096.489 3      -471.427          47.000  
G26  19954069.038 8 104859321.385 3      1922.234          46.000  
G32  21142355.906 8 111103826.754 4     -2559.420          46.000  
G22  22339510.976 8 117394916.482 4      -857.277          39.000  
G29  22168423.823 8 116495857.066 4       961.625          43.000  
G 3  22207706.968 8 116702282.438 4       643.802          39.000  
G16  22068734.307 8 115971977.894 4      3664.209          38.000  
G25  22518776.836 8 118336969.669 4     -3345.892          39.000  
C16  35358884.055 8 184122950.917 3       127.008          47.000  
C 6  35268836.743 8 183654064.007 3       161.145          45.000  
C 9  35198339.643 8 183286956.927 3       523.474          45.000  
C 7  36139514.711 8 188187898.666 3       822.111          43.000  
C26  21472830.971 8 111814631.807 3      1368.216          47.000  
C21  22345061.294 8 116356560.671 3     -2091.672          46.000  
C 3  37067912.625 8 193022313.812 4        95.133          41.000  
C10  37367603.276 8 194582880.809 3      1101.514          39.000  
C 1  37647607.445 8 196040935.048 3       102.773          42.000  
C 2  37508070.653 8 195314317.495 4        69.684          37.000  
C 4  38413684.813 8 200030094.144 4       109.274          38.000  
C29  24447329.300 8 127303623.893 4      2001.231          40.000  
G 4  23662232.769 8 124345851.72124      3505.054          38.000  
C22  25679249.374 8 133718566.53224     -3370.277          37.000  
C30  25351368.612 8 132011214.469 4      -262.812          41.000  
C14               8               4      2168.344          40.000  
> 2021  2 25  2 54 12.9980000  0 24                     
G31  19770288.475 4 103893567.853 3      -468.120          47.000  
G26  19953703.438 4 104857399.289 3      1925.132          46.000  
G32  21142842.698 4 111106384.930 3     -2556.020          46.000  
G22  22339674.257 8 117395773.888 3      -854.278          36.000  
G29  22168240.369 8 116494893.969 3       964.899          44.000  
G 3  22207584.433 8 116701638.939 3       646.156          38.000  
G16  22068036.874 8 115968313.008 3      3667.642          37.000  
G25  22519413.175 8 118340314.445 4     -3341.942          42.000  
C16  35358859.659 4 184122823.440 2       130.750          47.000  
C 6  35268805.699 4 183653902.150 3       164.996          45.000  
C 9  35198239.130 4 183286433.363 3       526.709          45.000  
C 7  36139356.490 4 188187075.687 3       825.733          43.000  
C26  21472568.346 4 111813263.906 2      1370.960          47.000  
C21  22345463.085 4 116358652.042 3     -2088.480          46.000  
C 3  37067894.250 4 193022217.905 3        98.829          41.000  
C10  37367391.500 4 194581778.509 3      1105.341          39.000  
C 1  37647587.674 4 196040830.972 3       106.146          41.000  
C 2  37508057.164 8 195314247.379 3        73.478          37.000  
C 4  38413663.296 8 200029982.947 3       113.787          38.000  
C29  24446945.081 8 127301621.338 4      2005.245          40.000  
G 4  23661565.734 8 124342346.32523      3508.652          38.000  
C22  25679896.498 8 133721935.36523     -3367.280          37.000  
C30  25351418.816 8 132011476.092 4      -258.658          41.000  
C14               8               3      2171.334          41.000  
> 2021  2 25  2 54 13.9980000  0 25                     
G31  19770378.099 4 103894037.684 2      -465.376          47.000  
G26  19953337.542 4 104855475.617 3      1926.987          46.000  
G32  21143328.965 8 111108941.183 3     -2553.808          45.000  
G22  22339837.190 4 117396630.029 3      -853.899          37.000  
G29  22168057.002 4 116493929.425 3       967.684          43.000  
G 3  22207461.793 4 116700994.363 3       647.769          40.000  
G16  22067339.284 8 115964646.209 3      3668.429          38.000  
G25  22520048.939 8 118343657.509 3     -3339.225          43.000  
C16  35358835.211 4 184122694.077 2       133.307          47.000  
C 6  35268774.341 4 183653738.378 2       167.645          45.000  
C 9  35198138.303 4 183285907.968 2       529.767          46.000  
C 7  36139198.042 4 188186250.679 3       827.814          43.000  
C26  21472305.301 4 111811894.388 2      1373.021          47.000  
C21  22345864.527 4 116360741.654 3     -2087.002          47.000  
C 3  37067875.369 8 193022119.756 3       100.619          41.000  
C10  37367179.515 8 194580674.141 3      1106.759          39.000  
C 1  37647567.066 8 196040724.568 3       109.077          41.000  
C 2  37508043.204 8 195314175.177 3        74.927          36.000  
C 4  38413641.780 8 200029869.496 3       115.359          38.000  
C29  24446560.374 8 127299616.955 3      2007.705          38.000  
G 4  23660898.665 8 124338839.34223      3511.635          37.000  
C22  25680542.976 8 133725301.76624     -3365.494          37.000  
C24  25637388.989 9                      2657.559          18.000  
C30  25351468.916 8 132011736.594 3      -257.552          42.000  
C14               4               3      2173.474          40.000  
> 2021  2 25  2 54 14.9980000  0 24                     
G31  19770467.025 4 103894505.641 2      -464.698          47.000  
G26  19952971.297 4 104853550.628 2      1928.281          46.000  
G32  21143815.338 4 111111495.545 3     -2552.467          46.000  
G22  22339999.913 8 117397485.033 3      -851.713          37.000  
G29  22167873.321 4 116492962.945 3       968.486          43.000  
G 3  22207338.908 4 116700348.858 3       648.236          37.000  
G16  22066641.118 8 115960978.025 3      3671.487          38.000  
G25  22520684.459 8 118346998.264 3     -3338.861          42.000  
C16  35358809.804 4 184122562.620 2       134.692          47.000  
C 6  35268742.721 4 183653572.485 2       169.080          45.000  
C 9  35198037.039 4 183285380.632 2       530.859          46.000  
C 7  36139039.350 4 188185423.865 2       829.828          43.000  
C26  21472042.239 4 111810523.433 2      1374.162          47.000  
C21  22346265.708 4 116362829.892 2     -2085.300          46.000  
C 3  37067856.314 4 193022019.713 3       102.720          41.000  
C10  37366967.023 4 194579568.141 2      1109.026          39.000  
C 1  37647546.265 4 196040615.882 3       111.555          41.000  
C 2  37508029.052 8 195314101.340 3        77.598          36.000  
C 4  38413619.496 8 200029753.609 3       117.327          38.000  
C29  24446174.794 8 127297610.407 3      2007.606          40.000  
G 4  23660230.531 8 124335330.85123      3511.390          37.000  
C22  25681189.192 8 133728666.086 4     -3361.265          36.000  
C30  25351518.335 8 132011995.036 3      -256.934          42.000  
C14               4               3      2173.400          41.000  
> 2021  2 25  2 54 15.9980000  0 24                     
G31  19770555.673 8 103894971.058 3      -458.943          47.000  
G26  19952604.720 8 104851623.419 3      1932.747          46.000  
G32  21144300.768 8 111114047.548 3     -2546.372          45.000  
G22  22340161.851 8 117398337.780 3      -847.306          37.000  
G29  22167688.785 8 116491994.304 3       974.180          43.000  
G 3  22207215.710 8 116699701.108 3       653.469          37.000  
G16  22065942.569 8 115957307.424 4      3675.667          39.000  
G25  22521319.664 8 118350336.453 3     -3332.677          38.000  
C16  35358784.257 4 184122428.488 3       140.552          47.000  
C 6  35268710.421 8 183653403.946 3       174.457          45.000  
C 9  35197935.165 8 183284850.544 3       536.407          46.000  
C 7  36138879.855 8 188184594.418 3       835.588          43.000  
C26  21471778.357 4 111809149.890 3      1379.834          47.000  
C21  22346666.295 8 116364915.857 3     -2080.736          47.000  
C 3  37067836.473 8 193021916.978 3       108.002          41.000  
C10  37366754.305 8 194578459.491 3      1113.706          39.000  
C 1  37647524.801 8 196040504.554 4       116.740          41.000  
C 2  37508014.446 8 195314024.803 4        81.290          36.000  
C 4  38413596.689 8 200029634.939 4       125.052          37.000  
C29  24445789.248 8 127295601.405 3      2014.386          41.000  
G 4  23659564.055 8 124331819.45123      3517.103          37.000  
C22  25681834.693 8 133732027.780 4     -3357.030          36.000  
C30  25351567.405 8 132012251.146 4      -250.313          41.000  
C14               8               3      2179.189          40.000  
> 2021  2 25  2 54 16.9980000  0 24                     
G31  19770643.255 4 103895431.947 3      -456.435          47.000  
G26  19952237.376 4 104849692.096 3      1935.703          46.000  
G32  21144785.762 4 111116595.217 3     -2543.108          46.000  
G22  22340323.214 8 117399186.470 3      -844.276          37.000  
G29  22167503.516 8 116491021.312 3       977.054          44.000  
G 3  22207091.866 8 116699049.397 3       654.534          37.000  
G16  22065243.338 8 115953632.598 3      3678.789          39.000  
G25  22521954.468 8 118353669.811 3     -3330.183          44.000  
C16  35358757.820 4 184122289.687 3       143.347          47.000  
C 6  35268676.864 4 183653230.711 3       177.716          45.000  
C 9  35197832.522 8 183284315.791 3       539.032          46.000  
C 7  36138720.081 4 188183760.497 3       839.086          43.000  
C26  21471513.654 4 111807772.045 3      1382.377          47.000  
C21  22347065.992 4 116366997.661 3     -2077.413          47.000  
C 3  37067816.178 8 193021809.650 3       111.689          41.000  
C10  37366540.610 8 194577346.387 3      1117.715          39.000  
C 1  37647502.674 8 196040388.513 3       120.191          41.000  
C 2  37507998.776 8 195313943.738 3        85.001          36.000  
C 4  38413572.765 8 200029511.590 3       128.253          36.000  
C29  24445402.464 8 127293587.837 3      2017.621          42.000  
G 4  23658894.821 8 124328303.37823      3519.672          40.000  
C22  25682479.200 8 133735384.893 4     -3353.153          36.000  
C30  25351615.742 8 132012502.814 3      -248.564          43.000  
C14               8               3      2181.182          42.000  
> 2021  2 25  2 54 17.9980000  0 24                     
G31  19770730.192 8 103895889.939 3      -454.065          47.000  
G26  19951869.089 8 104847758.132 4      1937.309          45.000  
G32  21145269.918 8 111119139.838 3     -2541.397          46.000  
G22  22340484.436 8 117400032.756 4      -843.177          35.000  
G29  22167317.706 8 116490045.503 4       978.763          44.000  
G 3  22206967.306 8 116698395.260 4       658.222          37.000  
G16  22064543.462 8 115949954.905 4      3680.658          39.000  
G25  22522587.911 8 118356999.949 4     -3327.662          43.000  
C16  35358730.336 8 184122147.734 3       145.715          47.000  
C 6  35268643.011 8 183653054.295 3       179.895          45.000  
C 9  35197729.147 8 183283777.937 4       541.748          46.000  
C 7  36138559.050 8 188182923.482 3       840.889          43.000  
C26  21471248.621 8 111806391.414 4      1384.554          47.000  
C21  22347465.236 8 116369076.705 3     -2075.892          47.000  
C 3  37067794.819 8 193021699.090 3       113.635          41.000  
C10  37366326.182 8 194576230.261 4      1119.293          39.000  
C 1  37647479.849 8 196040269.037 4       122.087          41.000  
C 2  37507982.547 8 195313859.575 4        87.489          37.000  
C 4  38413548.457 8 200029384.757 4       130.588          38.000  
C29  24445015.523 8 127291571.085 4      2018.925          41.000  
G 4  23658225.117 8 124324784.42924      3523.092          37.000  
C22  25683123.392 8 133738738.602 4     -3351.064          36.000  
C30  25351663.730 8 132012751.729 4      -246.750          41.000  
C14               8               4      2183.561          40.000  
> 2021  2 25  2 54 18.9980000  0 24                     
G31  19770817.251 8 103896345.862 3      -450.757          47.000  
G26  19951500.837 8 104845822.377 3      1939.774          45.000  
G32  21145753.795 8 111121682.398 3     -2538.890          46.000  
G22  22340645.170 8 117400877.302 4      -841.471          37.000  
G29  22167131.862 8 116489067.826 4       982.006          43.000  
G 3  22206842.607 8 116697739.645 4       659.667          37.000  
G16  22063843.272 8 115946275.218 4      3682.668          39.000  
G25  22523221.563 8 118360327.821 4     -3322.253          40.000  
C16  35358702.258 8 184122003.519 3       148.969          47.000  
C 6  35268608.651 8 183652875.585 3       183.472          45.000  
C 9  35197625.388 8 183283237.807 3       545.410          45.000  
C 7  36138398.020 8 188182084.268 3       843.411          43.000  
C26  21470983.046 8 111805008.802 3      1387.047          47.000  
C21  22347864.183 8 116371153.883 3     -2073.726          46.000  
C 3  37067772.832 8 193021586.174 3       116.752          41.000  
C10  37366111.457 8 194575111.923 4      1121.750          39.000  
C 1  37647456.484 8 196040147.095 3       125.546          41.000  
C 2  37507965.812 8 195313773.117 4        90.228          36.000  
C 4  38413523.782 8 200029255.447 4       133.198          36.000  
C29  24444627.971 8 127289552.332 4      2022.668          41.000  
G 4  23657555.378 8 124321263.41924      3525.510          33.000  
C22  25683766.869 8 133742089.834 4     -3348.119          35.000  
C30  25351711.177 8 132012998.660 4      -242.450          43.000  
C14               8               4      2186.155          40.000  
> 2021  2 25  2 54 19.9980000  0 23                     
G31  19770903.892 8 103896800.773 3      -449.256          48.000  
G26  19951132.393 8 104843885.885 4      1941.140          45.000  
G32  21146237.446 8 111124224.040 4     -2536.719          45.000  
G22  22340805.485 8 117401721.155 4      -839.845          37.000  
G29  22166945.249 8 116488089.462 4       983.341          43.000  
G 3  22206717.715 8 116697083.518 4       659.306          37.000  
G16  22063142.786 8 115942594.628 4      3684.527          39.000  
G25  22523854.640 8 118363654.742 4     -3321.661          42.000  
C16  35358674.634 8 184121858.068 3       150.836          47.000  
C 6  35268574.117 8 183652695.653 4       185.278          45.000  
C 9  35197521.403 8 183282696.453 4       546.625          45.000  
C 7  36138236.640 8 188181243.896 4       845.222          43.000  
C26  21470717.087 8 111803625.205 3      1388.406          47.000  
C21  22348262.973 8 116373230.221 3     -2072.223          47.000  
C 3  37067751.228 8 193021472.046 4       118.364          41.000  
C10  37365896.348 8 194573992.454 3      1123.882          39.000  
C 1  37647432.926 8 196040023.908 4       127.920          41.000  
C 2  37507949.060 8 195313685.524 4        91.099          36.000  
C 4  38413498.741 8 200029124.901 4       134.785          37.000  
C29  24444239.861 8 127287532.468 4      2024.947          42.000  
C22  25684410.345 8 133745439.920 4     -3345.726          35.000  
C30  25351758.398 8 132013244.880 4      -241.585          43.000  
C14               8               4      2186.585          40.000  
> 2021  2 25  2 54 20.9980000  0 23                     
G31  19770990.427 4 103897254.893 3      -451.248          47.000  
G26  19950763.722 8 104841948.872 3      1939.635          45.000  
G32  21146721.026 8 111126765.017 3     -2537.906          46.000  
G22  22340966.062 8 117402564.516 4      -841.531          36.000  
G29  22166758.759 8 116487110.543 3       981.380          43.000  
G 3  22206592.859 8 116696426.841 4       658.369          37.000  
G16  22062442.282 8 115938913.278 3      3683.703          39.000  
G25  22524487.577 8 118366980.570 3     -3324.060          43.000  
C16  35358646.732 4 184121711.612 3       149.591          47.000  
C 6  35268539.513 8 183652514.746 3       183.771          45.000  
C 9  35197417.190 8 183282154.067 3       545.001          45.000  
C 7  36138075.260 8 188180402.564 3       844.766          43.000  
C26  21470451.390 4 111802240.795 3      1387.081          47.000  
C21  22348661.448 8 116375305.934 3     -2073.092          46.000  
C 3  37067728.979 8 193021356.837 3       118.072          40.000  
C10  37365681.344 8 194572872.029 3      1123.270          39.000  
C 1  37647408.775 8 196039899.653 3       126.918          41.000  
C 2  37507932.098 8 195313596.832 4        91.131          36.000  
C 4  38413473.368 8 200028993.176 4       134.940          37.000  
C29  24443851.768 8 127285511.843 3      2023.198          42.000  
C22  25685053.683 8 133748788.924 4     -3346.600          35.000  
C30  25351805.618 8 132013490.447 3      -244.278          44.000  
C14               8               3      2184.623          42.000  
> 2021  2 25  2 54 21.9980000  0 23                     
G31  19771076.911 4 103897709.882 2      -451.207          47.000  
G26  19950395.139 4 104840012.986 2      1939.304          45.000  
G32  21147204.798 4 111129306.661 2     -2539.803          46.000  
G22  22341126.901 4 117403409.254 2      -841.132          36.000  
G29  22166573.175 4 116486132.514 2       980.378          42.000  
G 3  22206468.596 4 116695771.767 2       658.904          37.000  
G16  22061741.778 4 115935232.891 2      3682.553          39.000  
G25  22525120.409 4 118370306.945 2     -3322.609          40.000  
C16  35358618.497 4 184121565.729 2       149.921          47.000  
C 6  35268505.032 4 183652334.338 2       183.887          45.000  
C 9  35197313.082 4 183281612.327 2       546.210          45.000  
C 7  36137913.881 4 188179561.922 2       843.511          43.000  
C26  21470186.042 4 111800857.443 2      1386.953          47.000  
C21  22349060.203 4 116377382.653 2     -2074.007          46.000  
C 3  37067707.376 4 193021242.119 2       116.967          40.000  
C10  37365466.374 4 194571752.293 2      1122.626          39.000  
C 1  37647384.676 4 196039775.607 2       126.414          41.000  
C 2  37507915.311 4 195313508.834 3        91.048          36.000  
C 4  38413448.153 4 200028861.725 3       132.533          37.000  
C29  24443463.780 4 127283491.711 2      2022.355          41.000  
C22  25685697.124 8 133752138.226 3     -3348.532          35.000  
C30  25351853.065 4 132013736.920 2      -243.853          43.000  
C14               4               2      2186.521          41.000  
> 2021  2 25  2 54 22.9980000  0 23                     
G31  19771162.940 4 103898162.824 2      -451.423          47.000  
G26  19950026.485 4 104838075.461 3      1939.532          45.000  
G32  21147688.222 4 111131846.556 3     -2540.079          45.000  
G22  22341287.198 8 117404252.189 3      -840.689          35.000  
G29  22166386.353 4 116485152.815 3       979.532          43.000  
G 3  22206343.705 8 116695115.028 3       659.215          37.000  
G16  22061041.186 8 115931550.680 3      3683.630          39.000  
G25  22525752.700 8 118373631.147 3     -3323.091          41.000  
C16  35358589.931 4 184121417.703 3       149.719          47.000  
C 6  35268470.044 4 183652151.793 2       184.137          45.000  
C 9  35197208.712 4 183281068.371 2       546.246          45.000  
C 7  36137752.170 4 188178719.234 2       843.857          42.000  
C26  21469919.961 4 111799472.051 3      1387.386          46.000  
C21  22349458.888 4 116379457.687 3     -2073.591          45.000  
C 3  37067684.830 4 193021125.282 3       118.078          40.000  
C10  37365250.951 4 194570630.548 3      1123.216          39.000  
C 1  37647360.629 4 196039649.533 3       125.858          41.000  
C 2  37507898.088 8 195313418.738 3        91.790          36.000  
C 4  38413422.501 8 200028728.090 3       133.026          37.000  
C29  24443075.862 8 127281469.782 3      2020.705          41.000  
C22  25686339.938 8 133755485.518 3     -3348.495          34.000  
C30  25351899.884 8 132013981.508 3      -244.585          45.000  
C14               4               3      2185.901          41.000  
> 2021  2 25  2 54 23.9980000  0 23                     
G31  19771249.388 8 103898617.114 3      -449.843          47.000  
G26  19949658.041 8 104836139.225 3      1939.511          45.000  
G32  21148171.366 8 111134388.053 3     -2539.738          45.000  
G22  22341447.688 8 117405096.209 4      -840.030          38.000  
G29  22166200.282 8 116484175.289 3       979.596          43.000  
G 3  22206218.692 8 116694459.518 4       660.096          37.000  
G16  22060340.944 8 115927869.425 4      3683.705          39.000  
G25  22526386.125 8 118376957.156 3     -3322.553          42.000  
C16  35358561.906 4 184121270.771 3       150.757          47.000  
C 6  35268435.074 4 183651970.403 3       184.888          45.000  
C 9  35197104.517 8 183280525.310 3       547.772          46.000  
C 7  36137590.424 4 188177877.480 3       844.998          42.000  
C26  21469654.055 8 111798087.546 3      1388.887          47.000  
C21  22349857.538 8 116381533.850 3     -2073.576          46.000  
C 3  37067662.477 8 193021009.326 3       118.297          40.000  
C10  37365035.581 8 194569509.572 3      1123.674          39.000  
C 1  37647336.792 8 196039524.617 3       127.143          41.000  
C 2  37507880.917 8 195313329.173 3        92.510          37.000  
C 4  38413396.989 8 200028595.780 3       134.193          37.000  
C29  24442688.380 8 127279449.655 4      2022.991          41.000  
C22  25686982.961 8 133758833.787 4     -3347.616          34.000  
C30  25351947.261 8 132014228.235 3      -243.541          45.000  
C14               8               3      2188.117          41.000  
> 2021  2 25  2 54 24.9980000  0 23                     
G31  19771335.470 8 103899070.454 3      -447.211          47.000  
G26  19949289.371 8 104834202.157 3      1941.728          46.000  
G32  21148654.911 8 111136928.332 3     -2536.338          46.000  
G22  22341608.003 8 117405939.565 4      -836.988          36.000  
G29  22166014.123 8 116483196.846 4       982.862          43.000  
G 3  22206093.783 8 116693803.624 4       661.252          36.000  
G16  22059640.230 8 115924187.067 4      3686.149          39.000  
G25  22527018.905 8 118380281.899 4     -3318.968          41.000  
C16  35358533.497 8 184121122.570 3       153.790          47.000  
C 6  35268400.016 8 183651787.700 3       188.062          45.000  
C 9  35196999.938 8 183279981.119 4       550.244          46.000  
C 7  36137428.468 8 188177034.468 3       847.694          42.000  
C26  21469387.677 8 111796702.180 3      1390.831          47.000  
C21  22350255.892 8 116383609.045 3     -2070.817          47.000  
C 3  37067640.175 8 193020891.864 3       121.585          41.000  
C10  37364820.228 8 194568387.335 3      1126.415          39.000  
C 1  37647312.327 8 196039398.134 3       130.303          41.000  
C 2  37507863.537 8 195313238.330 4        95.429          37.000  
C 4  38413371.285 8 200028461.884 4       137.823          37.000  
C29  24442300.304 8 127277428.329 4      2025.318          41.000  
C22  25687625.496 8 133762180.475 4     -3344.656          34.000  
C30  25351994.552 8 132014474.107 4      -240.969          45.000  
C14               8               4      2189.337          41.000  
> 2021  2 25  2 54 25.9980000  0 23                     
G31  19771421.413 4 103899521.038 3      -450.025          47.000  
G26  19948920.421 4 104832262.737 2      1938.478          46.000  
G32  21149137.968 4 111139466.164 3     -2541.061          46.000  
G22  22341768.249 8 117406780.624 3      -840.499          38.000  
G29  22165827.336 4 116482215.992 3       978.208          42.000  
G 3  22205968.525 8 116693145.325 3       659.575          37.000  
G16  22058939.203 4 115920502.189 3      3683.462          39.000  
G25  22527651.266 8 118383603.754 3     -3323.190          41.000  
C16  35358504.198 4 184120971.487 2       150.885          47.000  
C 6  35268364.383 4 183651602.126 3       185.016          45.000  
C 9  35196894.765 4 183279433.935 3       548.004          46.000  
C 7  36137265.954 4 188176188.703 3       844.375          42.000  
C26  21469121.299 4 111795314.080 3      1388.767          47.000  
C21  22350654.176 4 116385681.845 2     -2074.526          47.000  
C 3  37067616.862 4 193020771.614 2       117.726          41.000  
C10  37364604.403 4 194567262.391 3      1123.021          39.000  
C 1  37647287.443 4 196039268.764 3       126.518          41.000  
C 2  37507845.563 4 195313144.676 3        92.094          37.000  
C 4  38413345.057 8 200028325.152 3       133.030          38.000  
C29  24441911.601 8 127275404.362 3      2021.234          43.000  
C22  25688269.618 8 133765524.391 4     -3348.814          33.000  
C30  25352041.493 8 132014717.371 3      -243.985          44.000  
C14               8               3      2187.752          42.000  
> 2021  2 25  2 54 26.9980000  0 23                     
G31  19771507.233 8 103899971.711 3      -447.664          47.000  
G26  19948551.453 4 104830323.594 3      1940.948          46.000  
G32  21149620.694 4 111142004.184 3     -2538.225          46.000  
G22  22341928.442 8 117407621.871 4      -838.153          36.000  
G29  22165640.741 8 116481235.582 3       980.836          43.000  
G 3  22205842.884 8 116692487.426 3       661.714          37.000  
G16  22058237.966 8 115916817.394 3      3685.931          39.000  
G25  22528282.947 8 118386925.578 3     -3320.621          39.000  
C16  35358474.864 4 184120820.286 3       153.394          47.000  
C 6  35268328.488 4 183651416.421 3       187.885          45.000  
C 9  35196789.540 8 183278886.568 3       550.739          46.000  
C 7  36137103.423 8 188175342.807 3       847.263          42.000  
C26  21468854.870 4 111793926.010 3      1391.154          47.000  
C21  22351052.111 4 116387754.824 3     -2071.752          47.000  
C 3  37067593.827 8 193020651.111 3       121.393          41.000  
C10  37364388.265 8 194566137.267 3      1126.426          39.000  
C 1  37647262.402 8 196039139.250 3       129.960          41.000  
C 2  37507827.519 8 195313050.754 3        95.199          36.000  
C 4  38413318.759 8 200028188.161 3       136.648          38.000  
C29  24441522.461 8 127273380.563 3      2023.234          43.000  
C22  25688910.355 8 133768868.079 4     -3345.152          33.000  
C30  25352088.207 8 132014961.022 3      -242.626          42.000  
C14               8               3      2190.337          40.000  
> 2021  2 25  2 54 27.9980000  0 23                     
G31  19771593.088 4 103900422.743 2      -449.819          47.000  
G26  19948182.503 4 104828385.024 2      1938.024          46.000  
G32  21150103.716 4 111144542.467 2     -2540.561          45.000  
G22  22342088.704 4 117408463.777 3      -841.120          37.000  
G29  22165454.564 4 116480255.657 2       978.769          43.000  
G 3  22205717.731 8 116691830.322 3       658.853          37.000  
G16  22057536.729 4 115913132.902 2      3683.135          39.000  
G25  22528915.046 4 118390247.609 2     -3321.119          39.000  
C16  35358445.775 4 184120669.148 2       151.477          47.000  
C 6  35268292.820 4 183651230.789 2       185.773          45.000  
C 9  35196684.699 4 183278339.327 2       548.657          46.000  
C 7  36136941.066 4 188174497.034 2       844.572          43.000  
C26  21468588.440 4 111792538.301 2      1388.318          47.000  
C21  22351450.202 4 116389828.226 2     -2074.645          47.000  
C 3  37067570.671 4 193020530.582 2       118.776          41.000  
C10  37364172.039 4 194565012.263 2      1123.413          39.000  
C 1  37647237.693 4 196039009.589 2       128.075          41.000  
C 2  37507809.371 4 195312956.888 2        92.283          37.000  
C 4  38413292.601 4 200028051.138 2       133.302          36.000  
C29  24441133.600 4 127271356.944 2      2022.050          43.000  
C22  25689553.466 8 133772211.510 4     -3345.674          32.000  
C30  25352135.043 4 132015205.134 2      -243.955          42.000  
C14               4               3      2187.329          42.000  
> 2021  2 25  2 54 28.9980000  0 23                     
G31  19771679.013 4 103900873.339 3      -446.551          47.000  
G26  19947813.588 4 104826446.392 3      1941.598          46.000  
G32  21150586.825 4 111147080.546 3     -2537.461          45.000  
G22  22342248.636 8 117409305.663 3      -837.370          36.000  
G29  22165268.423 8 116479275.711 3       981.592          43.000  
G 3  22205592.909 8 116691173.249 3       662.991          37.000  
G16  22056835.544 4 115909448.263 3      3686.757          39.000  
G25  22529547.302 8 118393569.061 3     -3318.465          42.000  
C16  35358417.279 4 184120517.450 3       154.895          47.000  
C 6  35268257.204 4 183651044.567 3       189.069          45.000  
C 9  35196579.719 4 183277791.431 3       552.301          46.000  
C 7  36136778.639 4 188173650.778 3       848.716          42.000  
C26  21468321.643 4 111791150.191 3      1393.031          47.000  
C21  22351848.451 4 116391901.514 3     -2071.025          47.000  
C 3  37067547.392 4 193020409.518 3       122.792          41.000  
C10  37363955.901 4 194563886.833 2      1127.565          39.000  
C 1  37647212.687 8 196038879.400 3       131.060          41.000  
C 2  37507791.415 8 195312862.451 3        97.325          36.000  
C 4  38413266.077 8 200027913.410 3       137.807          38.000  
C29  24440745.036 8 127269333.034 3      2024.285          43.000  
C22  25690196.017 8 133775554.668 4     -3343.140          32.000  
C30  25352181.845 8 132015449.003 3      -241.146          42.000  
C14               8               3      2191.400          41.000  
> 2021  2 25  2 54 29.9980000  0 23                     
G31  19771764.414 8 103901322.250 3      -447.896          47.000  
G26  19947444.499 8 104824506.189 3      1940.661          46.000  
G32  21151069.533 8 111149617.164 3     -2538.626          45.000  
G22  22342408.515 8 117410145.823 3      -838.890          36.000  
G29  22165081.932 8 116478294.578 4       979.629          43.000  
G 3  22205467.390 8 116690514.656 4       660.336          37.000  
G16  22056133.941 8 115905761.698 3      3686.402          39.000  
G25  22530178.948 8 118396888.878 4     -3320.480          40.000  
C16  35358387.858 4 184120363.841 3       154.315          47.000  
C 6  35268220.872 4 183650856.484 3       188.446          45.000  
C 9  35196474.232 8 183277241.531 3       551.617          46.000  
C 7  36136615.899 4 188172802.624 3       847.939          43.000  
C26  21468054.690 8 111789760.222 3      1391.475          47.000  
C21  22352246.369 4 116393973.117 3     -2071.690          46.000  
C 3  37067523.992 4 193020286.404 3       122.352          41.000  
C10  37363739.414 4 194562759.375 3      1127.032          39.000  
C 1  37647187.157 8 196038747.277 3       131.094          41.000  
C 2  37507772.813 8 195312765.902 3        96.764          36.000  
C 4  38413239.343 8 200027773.884 4       137.597          38.000  
C29  24440355.984 8 127267307.669 4      2023.416          44.000  
C22  25690838.971 8 133778895.724 4     -3342.971          32.000  
C30  25352228.646 8 132015691.583 4      -242.940          43.000  
C14               8               4      2188.863          40.000  
> 2021  2 25  2 54 30.9980000  0 23                     
G31  19771849.903 4 103901772.264 3      -447.928          47.000  
G26  19947075.304 4 104822567.186 3      1939.761          46.000  
G32  21151552.154 4 111152154.650 2     -2538.823          46.000  
G22  22342568.568 8 117410987.258 4      -839.897          36.000  
G29  22164895.372 4 116477314.722 3       978.806          43.000  
G 3  22205342.673 8 116689857.638 4       659.096          37.000  
G16  22055433.000 4 115902076.081 3      3685.284          39.000  
G25  22530810.471 8 118400209.679 4     -3320.416          39.000  
C16  35358358.088 4 184120211.031 3       154.181          47.000  
C 6  35268184.838 4 183650669.148 2       188.324          45.000  
C 9  35196368.519 4 183276692.489 3       551.447          46.000  
C 7  36136452.966 4 188171955.160 2       848.024          43.000  
C26  21467787.736 8 111788371.295 3      1391.115          47.000  
C21  22352644.181 4 116396045.744 2     -2072.481          47.000  
C 3  37067500.172 4 193020163.821 2       122.261          41.000  
C10  37363523.153 4 194561632.597 2      1126.801          39.000  
C 1  37647161.924 4 196038615.683 2       130.214          41.000  
C 2  37507754.316 8 195312669.959 3        96.246          37.000  
C 4  38413212.854 4 200027634.813 2       138.214          38.000  
C29  24439966.966 4 127265283.175 2      2023.270          42.000  
C22  25691479.045 8 133782237.271 3     -3343.776          31.000  
C30  25352275.692 4 132015935.538 3      -243.180          44.000  
C14               8               4      2189.318          40.000  
> 2021  2 25  2 54 31.9980000  0 23                     
G31  19771935.636 8 103902223.370 3      -449.346          47.000  
G26  19946706.512 4 104820629.729 3      1937.227          45.000  
G32  21152035.507 4 111154693.462 2     -2541.193          45.000  
G22  22342728.988 8 117411830.279 3      -841.337          38.000  
G29  22164709.178 4 116476336.156 3       978.096          45.000  
G 3  22205218.131 8 116689202.101 4       658.538          36.000  
G16  22054731.746 4 115898391.859 3      3683.267          39.000  
G25  22531442.518 8 118403531.370 3     -3320.793          39.000  
C16  35358328.928 4 184120059.165 3       152.338          47.000  
C 6  35268149.274 4 183650482.754 3       186.847          45.000  
C 9  35196263.294 8 183276144.326 3       550.031          46.000  
C 7  36136290.487 4 188171108.864 2       845.797          43.000  
C26  21467521.411 8 111786983.582 3      1389.714          47.000  
C21  22353042.430 4 116398119.863 2     -2074.863          47.000  
C 3  37067476.963 4 193020042.323 3       120.137          41.000  
C10  37363306.927 4 194560507.007 3      1124.804          39.000  
C 1  37647136.900 4 196038485.019 2       128.494          41.000  
C 2  37507735.941 8 195312575.117 3        94.765          36.000  
C 4  38413186.434 4 200027496.721 3       135.363          38.000  
C29  24439578.192 8 127263259.846 3      2021.923          43.000  
C22  25692118.002 8 133785579.867 4     -3346.737          30.000  
C30  25352322.301 8 132016180.610 3      -244.350          43.000  
C14               8               4      2188.299          40.000  
> 2021  2 25  2 54 32.9980000  0 23                     
G31  19772021.526 4 103902674.687 2      -450.401          47.000  
G26  19946337.771 4 104818692.660 2      1937.256          46.000  
G32  21152518.791 4 111157232.647 2     -2540.832          46.000  
G22  22342889.757 4 117412673.619 3      -841.306          37.000  
G29  22164523.246 4 116475358.273 2       976.995          44.000  
G 3  22205093.502 8 116688547.070 3       657.504          37.000  
G16  22054030.841 4 115894707.772 2      3684.660          39.000  
G25  22532075.350 8 118406853.235 3     -3322.481          42.000  
C16  35358299.961 4 184119907.251 2       152.551          47.000  
C 6  35268113.606 4 183650296.346 2       186.499          45.000  
C 9  35196158.157 4 183275596.064 2       549.780          46.000  
C 7  36136127.834 4 188170262.503 2       846.460          43.000  
C26  21467255.034 4 111785595.934 2      1389.709          47.000  
C21  22353440.993 4 116400194.224 2     -2074.202          46.000  
C 3  37067453.650 4 193019920.647 2       121.763          41.000  
C10  37363090.545 4 194559381.338 2      1126.236          39.000  
C 1  37647111.789 4 196038354.316 2       129.041          41.000  
C 2  37507717.810 4 195312480.107 2        95.345          36.000  
C 4  38413159.805 4 200027358.558 3       136.102          38.000  
C29  24439190.100 4 127261236.857 2      2020.800          43.000  
C22  25692762.055 8 133788922.275 5     -3342.527          30.000  
C30  25352369.365 4 132016426.279 3      -246.506          44.000  
C14               4               3      2187.299          42.000  
> 2021  2 25  2 54 33.9980000  0 23                     
G31  19772107.765 4 103903127.108 2      -453.161          47.000  
G26  19945969.432 4 104816756.950 3      1933.400          46.000  
G32  21153002.197 4 111159773.250 2     -2545.246          46.000  
G22  22343050.421 8 117413518.221 3      -845.775          36.000  
G29  22164337.017 4 116474382.050 2       972.590          43.000  
G 3  22204969.064 8 116687893.372 3       653.833          37.000  
G16  22053329.900 4 115891024.918 3      3679.736          39.000  
G25  22532707.973 4 118410176.163 3     -3324.972          40.000  
C16  35358271.412 4 184119756.310 2       149.469          47.000  
C 6  35268078.165 4 183650110.933 2       183.368          45.000  
C 9  35196053.002 4 183275048.656 3       546.704          46.000  
C 7  36135965.407 4 188169417.176 2       842.858          43.000  
C26  21466988.743 4 111784209.305 3      1386.166          47.000  
C21  22353839.713 4 116402269.891 2     -2078.350          47.000  
C 3  37067430.441 4 193019799.948 2       117.703          41.000  
C10  37362874.755 4 194558256.658 2      1122.178          39.000  
C 1  37647086.766 4 196038224.642 2       125.059          41.000  
C 2  37507699.557 8 195312385.913 3        92.099          37.000  
C 4  38413133.508 4 200027221.487 3       131.686          37.000  
C29  24438801.989 4 127259215.199 2      2017.355          44.000  
C22  25693403.629 8               6     -3345.352          29.000  
C30  25352417.405 4 132016673.304 3      -248.884          44.000  
C14               8               3      2183.929          41.000  
> 2021  2 25  2 54 34.9980000  0 23                     
G31  19772193.759 8 103903579.653 4      -454.253          47.000  
G26  19945601.040 8 104814821.706 3      1932.935          46.000  
G32  21153485.568 8 111162313.919 3     -2544.630          46.000  
G22  22343211.242 8 117414363.402 4      -845.430          38.000  
G29  22164150.701 8 116473405.967 4       973.170          43.000  
G 3  22204844.574 8 116687240.432 4       652.677          37.000  
G16  22052628.820 8 115887342.290 3      3680.750          39.000  
G25  22533340.404 8 118413498.890 4     -3324.711          43.000  
C16  35358242.044 8 184119605.227 3       149.152          47.000  
C 6  35268042.357 8 183649925.324 3       183.417          45.000  
C 9  35195947.812 8 183274501.116 4       546.246          46.000  
C 7  36135802.893 8 188168571.825 3       842.742          43.000  
C26  21466722.191 8 111782822.895 4      1385.732          47.000  
C21  22354238.154 8 116404345.921 3     -2078.355          47.000  
C 3  37067407.407 8 193019679.091 3       118.413          41.000  
C10  37362658.896 8 194557132.018 3      1122.616          39.000  
C 1  37647061.882 8 196038094.658 3       126.202          41.000  
C 2  37507681.356 8 195312291.752 4        92.338          37.000  
C 4  38413106.914 8 200027084.017 4       132.599          37.000  
C29  24438413.652 8 127257193.484 4      2017.860          43.000  
C22  25694045.588 9               7     -3342.781          28.000  
C30  25352464.957 8 132016920.477 4      -249.429          43.000  
C14               8               4      2182.831          41.000  
> 2021  2 25  2 54 35.9980000  0 23                     
G31  19772279.859 4 103904031.389 2      -451.379          47.000  
G26  19945232.788 4 104812885.840 2      1934.924          45.000  
G32  21153968.991 4 111164853.951 2     -2542.880          46.000  
G22  22343371.767 4 117415207.869 3      -843.376          37.000  
G29  22163965.136 4 116472429.552 2       974.906          43.000  
G 3  22204720.224 8 116686586.838 3       655.673          37.000  
G16  22051927.810 4 115883658.829 2      3682.684          39.000  
G25  22533972.485 4 118416820.849 3     -3321.723          42.000  
C16  35358212.623 4 184119453.172 2       151.575          47.000  
C 6  35268006.462 4 183649738.765 2       185.693          45.000  
C 9  35195842.273 4 183273952.547 3       548.871          45.000  
C 7  36135640.379 4 188167725.461 2       845.489          43.000  
C26  21466455.918 4 111781435.565 3      1388.420          47.000  
C21  22354636.961 4 116406421.208 2     -2076.548          47.000  
C 3  37067383.954 4 193019557.138 2       120.646          41.000  
C10  37362442.688 4 194556006.346 2      1124.572          39.000  
C 1  37647036.806 4 196037963.658 2       128.329          41.000  
C 2  37507663.121 4 195312196.371 3        94.655          36.000  
C 4  38413080.407 4 200026945.461 2       136.568          38.000  
C29  24438025.420 4 127255171.120 2      2020.597          45.000  
C22  25694689.832 9                     -3342.708          27.000  
C30  25352512.177 4 132017167.175 3      -246.448          43.000  
C14               8               3      2186.485          41.000  
> 2021  2 25  2 54 36.9980000  0 23                     
G31  19772365.818 4 103904484.914 3      -452.052          47.000  
G26  19944864.798 4 104810952.024 2      1934.118          46.000  
G32  21154452.676 4 111167395.867 2     -2543.151          46.000  
G22  22343532.884 8 117416054.495 3      -844.345          36.000  
G29  22163779.884 4 116471455.197 3       974.581          44.000  
G 3  22204596.327 8 116685935.502 4       654.203          37.000  
G16  22051227.358 4 115879977.246 2      3681.808          39.000  
G25  22534604.968 8 118420144.438 3     -3322.119          43.000  
C16  35358183.603 4 184119302.643 2       151.379          47.000  
C 6  35267970.689 4 183649553.715 2       185.742          45.000  
C 9  35195737.205 8 183273405.474 3       548.596          45.000  
C 7  36135478.092 4 188166880.743 2       844.883          43.000  
C26  21466189.942 4 111780050.036 3      1387.493          47.000  
C21  22355035.995 4 116408498.452 2     -2077.265          47.000  
C 3  37067360.623 4 193019436.687 2       120.207          41.000  
C10  37362226.794 4 194554882.281 3      1124.083          39.000  
C 1  37647011.939 4 196037834.093 2       128.646          41.000  
C 2  37507645.182 4 195312102.545 3        94.704          36.000  
C 4  38413054.249 4 200026808.502 3       135.823          37.000  
C29  24437636.978 4 127253150.537 2      2020.440          44.000  
C22  25695334.792 9                     -3343.926          27.000  
C30  25352560.148 8 132017415.848 3      -247.582          43.000  
C14               8               4      2184.900          41.000  
> 2021  2 25  2 54 37.9980000  0 23                     
G31  19772452.249 8 103904938.109 3      -452.459          47.000  
G26  19944496.930 4 104809018.157 3      1933.440          46.000  
G32  21154936.484 4 111169937.599 3     -2543.748          46.000  
G22  22343694.194 8 117416900.972 4      -845.587          36.000  
G29  22163594.388 8 116470480.890 3       973.568          43.000  
G 3  22204472.570 8 116685284.110 4       653.700          37.000  
G16  22050526.680 8 115876295.354 3      3681.014          39.000  
G25  22535237.242 8 118423467.550 4     -3321.970          43.000  
C16  35358155.072 4 184119151.614 3       151.135          47.000  
C 6  35267935.108 4 183649368.179 3       185.193          45.000  
C 9  35195632.190 8 183272857.820 3       548.450          46.000  
C 7  36135315.840 4 188166035.565 3       844.664          42.000  
C26  21465923.861 8 111778664.107 3      1387.314          47.000  
C21  22355434.593 4 116410575.508 3     -2077.798          46.000  
C 3  37067337.519 4 193019315.651 3       120.154          41.000  
C10  37362010.795 8 194553757.717 3      1124.073          39.000  
C 1  37646987.038 4 196037704.018 3       128.338          41.000  
C 2  37507627.034 8 195312008.140 3        94.308          36.000  
C 4  38413027.707 8 200026670.899 3       136.066          38.000  
C29  24437249.269 8 127251129.722 3      2019.558          43.000  
C22  25695972.423 9                     -3344.155          26.000  
C30  25352608.014 8 132017664.385 4      -248.152          43.000  
C14               8               4      2184.724          40.000  
> 2021  2 25  2 54 38.9980000  0 23                     
G31  19772538.471 8 103905390.594 3      -450.160          47.000  
G26  19944129.132 4 104807083.814 3      1936.206          46.000  
G32  21155420.117 4 111172478.653 3     -2540.822          46.000  
G22  22343855.138 8 117417746.947 4      -842.651          35.000  
G29  22163408.648 4 116469506.166 3       975.175          42.000  
G 3  22204348.482 8 116684632.537 4       655.492          37.000  
G16  22049825.844 4 115872612.815 3      3684.329          39.000  
G25  22535869.045 8 118426789.948 4     -3320.382          40.000  
C16  35358125.843 4 184118999.640 3       153.650          47.000  
C 6  35267899.509 4 183649181.690 3       188.086          45.000  
C 9  35195527.069 8 183272309.225 3       551.086          46.000  
C 7  36135153.274 4 188165189.483 3       847.434          42.000  
C26  21465657.518 8 111777277.500 3      1389.831          47.000  
C21  22355833.435 4 116412652.013 3     -2074.781          47.000  
C 3  37067313.943 4 193019193.623 2       123.566          41.000  
C10  37361794.779 4 194552632.281 3      1127.284          39.000  
C 1  37646961.613 4 196037572.901 3       130.972          41.000  
C 2  37507608.519 8 195311912.758 3        97.772          36.000  
C 4  38413000.991 8 200026532.299 3       138.251          37.000  
C29  24436860.984 4 127249108.221 3      2021.132          43.000  
C22  25696615.481 9                     -3339.312          26.000  
C30  25352655.147 8 132017912.544 3      -247.059          43.000  
C14               8               4      2186.784          40.000  
> 2021  2 25  2 54 39.9980000  0 23                     
G31  19772624.640 4 103905843.459 2      -454.647          47.000  
G26  19943761.159 4 104805149.879 2      1931.482          46.000  
G32  21155903.994 4 111175020.133 2     -2546.140          46.000  
G22  22344016.116 8 117418593.411 3      -847.194          37.000  
G29  22163223.257 4 116468532.182 2       969.816          44.000  
G 3  22204224.638 8 116683981.502 3       650.687          37.000  
G16  22049124.869 4 115868930.337 3      3680.371          39.000  
G25  22536501.563 4 118430112.731 3     -3325.546          40.000  
C16  35358096.439 4 184118847.759 2       149.432          47.000  
C 6  35267863.754 4 183648995.313 2       183.789          45.000  
C 9  35195421.408 4 183271760.697 2       547.205          46.000  
C 7  36134990.812 4 188164343.415 2       843.114          42.000  
C26  21465391.246 4 111775891.037 3      1385.576          47.000  
C21  22356232.365 4 116414728.778 3     -2079.405          47.000  
C 3  37067290.525 4 193019071.446 2       119.404          41.000  
C10  37361578.728 4 194551506.739 3      1123.489          39.000  
C 1  37646936.415 4 196037441.737 2       126.827          41.000  
C 2  37507590.423 4 195311817.162 3        93.910          37.000  
C 4  38412974.152 4 200026393.714 3       133.472          38.000  
C29  24436472.926 4 127247087.128 2      2016.488          43.000  
C22  25697255.590 9                     -3344.073          26.000  
C30  25352703.048 4 132018161.391 2      -251.913          43.000  
C14               8               3      2182.166          40.000  
> 2021  2 25  2 54 40.9980000  0 23                     
G31  19772710.879 4 103906295.409 3      -451.515          47.000  
G26  19943392.907 4 104803215.511 3      1934.951          45.000  
G32  21156387.504 4 111177561.040 3     -2542.292          46.000  
G22  22344177.024 8 117419439.192 3      -842.794          37.000  
G29  22163038.215 8 116467557.657 3       973.525          43.000  
G 3  22204100.357 8 116683329.790 4       654.250          37.000  
G16  22048424.312 4 115865247.284 3      3684.103          39.000  
G25  22537133.784 8 118433434.298 3     -3321.785          42.000  
C16  35358066.983 4 184118694.876 2       153.088          47.000  
C 6  35267827.789 4 183648807.927 2       187.372          45.000  
C 9  35195315.747 4 183271211.042 3       550.763          46.000  
C 7  36134828.351 4 188163496.503 2       847.393          43.000  
C26  21465124.763 4 111774503.718 3      1389.135          47.000  
C21  22356630.998 4 116416805.048 3     -2075.734          46.000  
C 3  37067266.828 4 193018948.384 3       123.647          41.000  
C10  37361362.345 4 194550380.396 3      1127.667          39.000  
C 1  37646911.060 4 196037309.680 3       130.994          41.000  
C 2  37507571.804 4 195311720.681 3        97.675          36.000  
C 4  38412947.279 8 200026254.138 3       138.714          38.000  
C29  24436084.484 8 127245065.295 3      2019.970          43.000  
C22  25697896.275 9                     -3340.987          25.000  
C30  25352750.774 8 132018409.397 3      -248.198          44.000  
C14               8               3      2185.630          41.000  
> 2021  2 25  2 54 41.9980000  0 23                     
G31  19772797.345 4 103906749.776 2      -456.235          47.000  
G26  19943025.336 4 104801283.550 2      1928.877          46.000  
G32  21156871.120 4 111180104.169 2     -2548.222          46.000  
G22  22344338.369 4 117420287.728 2      -849.937          37.000  
G29  22162853.435 4 116466585.866 2       967.402          44.000  
G 3  22203976.897 4 116682681.088 3       647.943          37.000  
G16  22047723.529 4 115861566.394 2      3677.182          39.000  
G25  22537766.407 4 118436758.322 2     -3325.972          43.000  
C16  35358038.138 2 184118544.034 2       148.407          47.000  
C 6  35267792.155 4 183648622.575 2       182.758          45.000  
C 9  35195210.767 4 183270663.500 2       545.782          46.000  
C 7  36134666.291 4 188162651.575 2       841.500          43.000  
C26  21464858.962 4 111773118.718 2      1383.383          47.000  
C21  22357030.171 4 116418883.561 2     -2081.999          47.000  
C 3  37067243.340 4 193018827.101 2       117.411          41.000  
C10  37361146.521 4 194549255.965 2      1121.312          40.000  
C 1  37646886.123 4 196037179.391 2       125.340          41.000  
C 2  37507553.638 4 195311626.029 2        92.128          37.000  
C 4  38412920.982 4 200026116.443 2       132.057          37.000  
C29  24435696.706 4 127243045.760 2      2015.234          43.000  
C22  25698537.762 9                     -3346.394          25.000  
C30  25352798.972 4 132018660.201 2      -253.235          42.000  
C14               4               2      2179.824          41.000  
> 2021  2 25  2 54 42.9980000  0 23                     
G31  19772883.654 4 103907204.601 2      -456.158          47.000  
G26  19942657.817 4 104799352.358 2      1928.943          46.000  
G32  21157355.014 4 111182647.904 2     -2548.099          45.000  
G22  22344500.028 8 117421136.873 3      -850.342          37.000  
G29  22162668.515 4 116465614.785 3       967.671          43.000  
G 3  22203853.908 8 116682033.074 4       648.813          37.000  
G16  22047023.461 8 115857886.046 3      3677.513          38.000  
G25  22538399.030 8 118440082.649 3     -3325.232          42.000  
C16  35358009.485 4 184118393.482 2       148.456          47.000  
C 6  35267756.452 4 183648437.522 2       182.587          45.000  
C 9  35195105.647 4 183270116.159 3       546.265          46.000  
C 7  36134504.108 4 188161806.960 2       842.427          43.000  
C26  21464592.985 4 111771734.141 3      1384.051          47.000  
C21  22357429.467 4 116420962.729 2     -2081.833          47.000  
C 3  37067220.253 4 193018706.066 3       118.008          41.000  
C10  37360930.644 4 194548131.899 3      1121.718          40.000  
C 1  37646861.291 4 196037049.333 2       126.062          41.000  
C 2  37507535.507 8 195311531.608 3        92.753          37.000  
C 4  38412894.789 4 200025978.922 3       133.342          38.000  
C29  24435308.927 4 127241026.813 3      2014.186          42.000  
C22  25699178.918 9                     -3345.033          25.000  
C30  25352847.309 4 132018911.635 3      -253.423          43.000  
C14               8               3      2180.296          41.000  
> 2021  2 25  2 54 43.9980000  0 23                     
G31  19772970.329 4 103907660.591 2      -455.260          47.000  
G26  19942290.612 4 104797422.568 2      1929.449          46.000  
G32  21157839.397 4 111185192.716 2     -2546.939          46.000  
G22  22344661.739 8 117421987.520 3      -848.972          37.000  
G29  22162484.136 4 116464645.064 3       968.413          43.000  
G 3  22203730.936 8 116681386.810 3       648.894          37.000  
G16  22046323.411 4 115854206.851 3      3678.857          39.000  
G25  22539031.600 8 118443408.067 3     -3324.977          40.000  
C16  35357980.761 4 184118243.822 2       149.542          47.000  
C 6  35267721.185 4 183648253.316 2       183.990          45.000  
C 9  35195000.666 4 183269569.763 3       547.119          46.000  
C 7  36134341.996 4 188160963.315 2       843.269          43.000  
C26  21464327.271 4 111770350.787 3      1384.696          47.000  
C21  22357829.077 4 116423043.149 3     -2081.023          47.000  
C 3  37067196.818 4 193018585.794 2       119.656          41.000  
C10  37360714.872 4 194547008.775 2      1123.025          39.000  
C 1  37646836.512 4 196036919.962 2       127.595          41.000  
C 2  37507517.516 4 195311438.061 3        94.089          36.000  
C 4  38412868.509 4 200025842.060 3       134.843          37.000  
C29  24434921.288 4 127239008.713 3      2016.407          43.000  
C22  25699821.697 9                     -3343.852          25.000  
C30  25352895.803 8 132019164.370 3      -252.507          44.000  
C14               8               3      2180.863          41.000  
> 2021  2 25  2 54 44.9980000  0 23                     
G31  19773057.336 4 103908117.447 3      -457.401          47.000  
G26  19941923.442 4 104795493.853 3      1927.556          46.000  
G32  21158323.728 4 111187738.683 2     -2548.523          46.000  
G22  22344823.939 8 117422839.193 4      -851.280          35.000  
G29  22162300.071 4 116463676.707 3       966.343          43.000  
G 3  22203608.174 8 116680741.569 3       646.480          38.000  
G16  22045623.622 4 115850528.553 3      3677.250          39.000  
G25  22539664.659 8 118446734.253 3     -3327.028          41.000  
C16  35357952.038 4 184118094.826 3       148.004          47.000  
C 6  35267685.814 4 183648069.804 3       182.263          45.000  
C 9  35194896.052 4 183269023.916 3       545.514          46.000  
C 7  36134180.058 4 188160120.365 2       841.517          42.000  
C26  21464061.748 4 111768968.147 3      1382.903          47.000  
C21  22358228.495 4 116425124.558 3     -2082.606          47.000  
C 3  37067174.097 4 193018466.158 2       118.067          41.000  
C10  37360499.344 4 194545886.268 3      1121.476          39.000  
C 1  37646811.576 4 196036791.337 3       125.841          41.000  
C 2  37507499.804 8 195311345.118 3        91.906          36.000  
C 4  38412842.124 4 200025705.991 3       133.884          37.000  
C29  24434534.329 4 127236991.801 3      2014.909          43.000  
C22  25700467.390 9                     -3347.640          26.000  
C30  25352944.698 4 132019418.304 3      -254.183          44.000  
C14               8               3      2178.626          41.000  
> 2021  2 25  2 54 45.9980000  0 23                     
G31  19773144.534 4 103908575.699 3      -455.897          47.000  
G26  19941556.673 4 104793566.850 3      1928.656          46.000  
G32  21158808.652 4 111190286.229 2     -2546.709          46.000  
G22  22344985.999 8 117423692.479 3      -849.994          36.000  
G29  22162116.512 4 116462710.073 3       968.433          43.000  
G 3  22203485.813 8 116680098.145 3       647.100          37.000  
G16  22044923.816 4 115846851.754 3      3678.663          39.000  
G25  22540298.399 8 118450061.674 3     -3324.697          43.000  
C16  35357923.438 4 184117947.048 3       149.774          47.000  
C 6  35267650.756 4 183647887.504 3       184.052          45.000  
C 9  35194791.298 4 183268479.196 3       547.363          46.000  
C 7  36134018.347 4 188159278.692 3       843.643          42.000  
C26  21463796.453 4 111767586.850 3      1384.556          47.000  
C21  22358628.611 4 116427207.569 2     -2081.137          47.000  
C 3  37067151.587 4 193018347.716 2       120.237          41.000  
C10  37360283.852 4 194544765.077 3      1123.373          39.000  
C 1  37646787.076 4 196036663.888 3       128.633          41.000  
C 2  37507481.987 8 195311253.280 3        94.040          37.000  
C 4  38412816.577 4 200025571.035 3       137.010          38.000  
C29  24434147.301 4 127234976.391 3      2017.005          43.000  
C22  25701110.221 9                     -3345.912          25.000  
C30  25352994.013 8 132019673.786 3      -252.289          43.000  
C14               8               3      2180.190          40.000  
> 2021  2 25  2 54 46.9980000  0 23                     
G31  19773231.925 4 103909033.777 2      -459.011          47.000  
G26  19941190.376 4 104791639.872 2      1926.228          46.000  
G32  21159293.559 4 111192833.680 2     -2549.073          46.000  
G22  22345148.356 8 117424545.784 3      -852.646          36.000  
G29  22161932.150 4 116461743.601 2       965.380          44.000  
G 3  22203363.278 8 116679454.840 3       643.603          37.000  
G16  22044224.028 4 115843174.769 2      3676.844          39.000  
G25  22540931.876 8 118453388.836 3     -3327.924          43.000  
C16  35357895.186 4 184117798.861 2       147.083          47.000  
C 6  35267615.681 4 183647704.795 2       181.482          45.000  
C 9  35194686.580 4 183267934.056 2       544.623          46.000  
C 7  36133856.932 4 188158436.649 2       841.533          42.000  
C26  21463531.314 4 111766205.344 2      1381.661          47.000  
C21  22359028.518 4 116429290.515 2     -2083.321          47.000  
C 3  37067128.535 4 193018228.772 2       118.445          41.000  
C10  37360068.621 4 194543643.466 2      1121.923          39.000  
C 1  37646762.558 4 196036535.961 2       126.984          41.000  
C 2  37507464.118 4 195311160.934 3        92.711          37.000  
C 4  38412790.751 4 200025435.685 3       134.289          38.000  
C29  24433759.993 4 127232960.802 3      2015.027          43.000  
C22  25701752.354 9                     -3346.601          23.000  
C30  25353043.100 4 132019929.402 3      -255.886          41.000  
C14               4               3      2176.668          40.000  
> 2021  2 25  2 54 47.9980000  0 23                     
G31  19773319.874 8 103909495.525 3      -462.227          47.000  
G26  19940824.287 8 104789716.710 3      1921.840          46.000  
G32  21159779.024 4 111195384.747 3     -2553.810          46.000  
G22  22345311.760 8 117425403.047 4      -856.605          37.000  
G29  22161748.871 8 116460781.091 3       960.605          43.000  
G 3  22203241.440 8 116678815.556 4       640.735          36.000  
G16  22043524.623 8 115839501.301 3      3672.417          40.000  
G25  22541565.756 8 118456719.645 4     -3331.095          42.000  
C16  35357867.300 4 184117654.038 3       143.585          47.000  
C 6  35267581.147 4 183647525.460 3       177.887          45.000  
C 9  35194582.576 8 183267392.282 3       541.443          46.000  
C 7  36133695.849 4 188157597.967 3       836.926          43.000  
C26  21463266.629 8 111764827.427 3      1377.937          47.000  
C21  22359429.262 4 116431377.089 3     -2087.966          47.000  
C 3  37067106.286 4 193018113.007 3       113.848          41.000  
C10  37359853.843 4 194542525.171 3      1117.135          39.000  
C 1  37646738.651 4 196036411.222 3       122.356          41.000  
C 2  37507447.035 8 195311071.862 3        88.254          37.000  
C 4  38412765.169 8 200025303.499 3       129.290          38.000  
C29  24433373.366 8 127230948.835 3      2009.654          43.000  
C22  25702394.522 9                     -3350.868          22.000  
C30  25353092.519 8 132020188.912 3      -259.491          42.000  
C14               8               4      2173.575          41.000  
> 2021  2 25  2 54 48.9980000  0 23                     
G31  19773407.649 8 103909957.096 3      -464.436          47.000  
G26  19940458.391 8 104787793.764 3      1919.383          46.000  
G32  21160264.280 8 111197935.905 3     -2556.122          46.000  
G22  22345475.094 8 117426260.417 4      -858.937          37.000  
G29  22161565.661 8 116459818.728 4       957.892          43.000  
G 3  22203119.847 8 116678176.586 4       637.682          37.000  
G16  22042826.073 8 115835827.953 4      3670.254          39.000  
G25  22542199.233 8 118460050.113 4     -3333.537          42.000  
C16  35357839.136 4 184117508.886 3       141.614          47.000  
C 6  35267546.491 8 183647345.778 3       175.934          45.000  
C 9  35194478.434 8 183266850.091 3       539.557          46.000  
C 7  36133534.766 8 188156759.065 3       835.408          43.000  
C26  21463002.119 8 111763449.369 3      1375.832          47.000  
C21  22359829.971 8 116433463.795 3     -2089.885          47.000  
C 3  37067083.862 8 193017997.006 3       112.652          41.000  
C10  37359639.118 8 194541406.720 3      1115.403          39.000  
C 1  37646714.675 8 196036286.215 3       120.240          41.000  
C 2  37507429.881 8 195310982.541 4        86.786          37.000  
C 4  38412739.971 8 200025170.963 4       128.455          38.000  
C29  24432987.018 8 127228936.796 3      2007.510          43.000  
C22  25703039.674 9                     -3347.368          21.000  
C30  25353142.532 8 132020448.345 4      -262.061          43.000  
C14               8               4      2171.200          41.000  
> 2021  2 25  2 54 49.9980000  0 23                     
G31  19773495.999 8 103910421.016 4      -464.632          47.000  
G26  19940093.036 8 104785873.387 4      1919.144          46.000  
G32  21160750.181 8 111200489.397 4     -2556.190          46.000  
G22  22345638.480 8 117427120.416 5      -859.021          37.000  
G29  22161382.818 8 116458858.955 4       957.571          43.000  
G 3  22202998.498 8 116677540.319 5       637.257          36.000  
G16  22042127.489 8 115832156.911 4      3670.555          39.000  
G25  22542833.409 8 118463382.725 4     -3333.520          41.000  
C16  35357811.896 8 184117365.831 3       141.779          47.000  
C 6  35267512.446 8 183647168.194 4       176.215          45.000  
C 9  35194374.762 8 183266309.989 4       539.764          46.000  
C 7  36133374.242 8 188155922.281 3       835.600          42.000  
C26  21462737.853 8 111762073.592 4      1376.184          47.000  
C21  22360231.169 8 116435552.949 3     -2090.149          47.000  
C 3  37067062.119 8 193017883.012 4       112.192          41.000  
C10  37359424.812 8 194540290.353 4      1115.785          39.000  
C 1  37646690.960 8 196036163.126 4       120.843          41.000  
C 2  37507413.251 8 195310895.222 4        86.986          37.000  
C 4  38412714.895 8 200025040.417 4       128.140          38.000  
C29  24432601.386 8 127226927.016 4      2007.658          41.000  
C22  25703683.483 9                     -3350.396          20.000  
C30  25353192.910 8 132020710.321 4      -262.422          43.000  
C14               8               4      2171.846          41.000  
> 2021  2 25  2 54 50.9980000  0 23                     
G31  19773584.699 8 103910888.119 3      -468.471          47.000  
G26  19939728.222 8 104783956.359 3      1915.751          46.000  
G32  21161236.536 8 111203046.183 3     -2559.113          46.000  
G22  22345802.809 8 117427983.736 4      -863.593          37.000  
G29  22161201.074 8 116457902.774 3       954.003          43.000  
G 3  22202878.161 8 116676907.531 4       633.077          38.000  
G16  22041429.410 8 115828488.997 3      3667.409          39.000  
G25  22543468.074 8 118466718.539 4     -3336.723          41.000  
C16  35357785.145 4 184117225.700 3       138.501          47.000  
C 6  35267479.081 4 183646993.550 3       172.668          45.000  
C 9  35194271.526 8 183265772.779 3       536.365          46.000  
C 7  36133213.944 8 188155088.430 3       832.559          43.000  
C26  21462474.180 8 111760700.904 3      1372.453          47.000  
C21  22360633.118 8 116437645.318 3     -2093.663          47.000  
C 3  37067040.499 8 193017771.784 3       109.783          41.000  
C10  37359210.785 8 194539176.928 3      1112.458          39.000  
C 1  37646667.873 8 196036042.928 3       117.776          41.000  
C 2  37507396.970 8 195310810.706 4        83.777          37.000  
C 4  38412689.958 8 200024912.714 4       125.782          36.000  
C29  24432216.172 8 127224920.519 4      2003.820          43.000  
C22  25704325.773 9                     -3357.087          21.000  
C30  25353244.179 8 132020975.747 4      -266.103          44.000  
C14               8               4      2167.241          41.000  
> 2021  2 25  2 54 51.9980000  0 23                     
G31  19773673.922 8 103911356.941 3      -467.236          47.000  
G26  19939363.739 8 104782041.498 4      1916.419          46.000  
G32  21161723.589 8 111205605.027 3     -2557.320          46.000  
G22  22345967.748 8 117428849.072 4      -862.815          37.000  
G29  22161019.452 8 116456948.668 4       955.331          44.000  
G 3  22202758.121 8 116676276.818 5       633.166          38.000  
G16  22040732.082 8 115824823.130 4      3667.979          40.000  
G25  22544103.262 8 118470055.843 4     -3335.295          41.000  
C16  35357758.236 8 184117087.156 3       139.709          47.000  
C 6  35267445.961 8 183646820.471 3       174.506          45.000  
C 9  35194168.745 8 183265237.052 4       537.518          46.000  
C 7  36133054.135 8 188154256.326 3       833.886          42.000  
C26  21462210.751 8 111759329.945 4      1373.401          47.000  
C21  22361035.241 8 116439739.756 3     -2092.446          47.000  
C 3  37067019.436 8 193017662.239 3       111.725          40.000  
C10  37358997.142 8 194538065.208 3      1114.394          39.000  
C 1  37646645.101 8 196035924.358 3       120.040          41.000  
C 2  37507381.230 8 195310727.784 4        85.657          36.000  
C 4  38412665.772 8 200024786.666 4       127.183          37.000  
C29  24431830.907 8 127222915.846 3      2005.681          45.000  
C22  25704971.431 9                     -3360.521          19.000  
C30  25353295.308 8 132021243.018 4      -264.886          45.000  
C14               8               5      2167.653          41.000  
> 2021  2 25  2 54 52.9980000  0 23                     
G31  19773763.197 8 103911826.172 4      -468.598          47.000  
G26  19938999.518 8 104780127.096 4      1915.366          46.000  
G32  21162210.607 8 111208164.241 3     -2558.718          46.000  
G22  22346132.496 8 117429715.036 5      -863.738          36.000  
G29  22160837.969 8 116455995.327 4       953.845          44.000  
G 3  22202638.396 8 116675646.859 5       632.574          38.000  
G16  22040034.544 8 115821157.399 4      3667.444          39.000  
G25  22544738.502 8 118473393.577 5     -3336.397          42.000  
C16  35357731.398 8 184116948.708 3       139.038          47.000  
C 6  35267412.421 8 183646647.505 3       173.669          45.000  
C 9  35194065.963 8 183264701.408 4       536.761          46.000  
C 7  36132894.204 8 188153424.270 3       833.480          43.000  
C26  21461947.602 8 111757959.259 4      1372.417          47.000  
C21  22361437.538 8 116441834.513 3     -2093.227          47.000  
C 3  37066998.478 8 193017552.623 3       110.962          41.000  
C10  37358783.726 8 194536953.530 3      1113.469          39.000  
C 1  37646622.415 8 196035805.748 4       119.570          41.000  
C 2  37507365.455 8 195310644.772 4        85.588          36.000  
C 4  38412641.464 8 200024660.534 4       127.569          37.000  
C29  24431445.937 8 127220911.539 4      2005.525          43.000  
C22  25705617.351 9                     -3360.521          17.000  
C30  25353346.996 8 132021511.105 4      -266.165          45.000  
C14               8               5      2166.501          41.000  
> 2021  2 25  2 54 53.9980000  0 23                     
G31  19773852.403 8 103912295.785 3      -470.117          47.000  
G26  19938635.454 8 104778213.300 3      1913.841          46.000  
G32  21162697.974 4 111210723.892 3     -2559.483          46.000  
G22  22346297.645 8 117430581.536 4      -865.569          36.000  
G29  22160656.627 8 116455042.717 3       952.663          44.000  
G 3  22202518.704 8 116675017.634 4       630.179          36.000  
G16  22039337.007 8 115817492.074 3      3666.479          40.000  
G25  22545373.899 8 118476731.570 4     -3336.859          42.000  
C16  35357705.257 4 184116810.441 3       137.646          47.000  
C 6  35267379.266 4 183646474.713 3       172.382          45.000  
C 9  35193963.094 8 183264165.892 3       535.437          46.000  
C 7  36132734.464 4 188152592.406 3       832.000          42.000  
C26  21461684.523 8 111756588.907 3      1370.591          47.000  
C21  22361839.922 8 116443929.752 3     -2094.687          47.000  
C 3  37066977.381 4 193017443.033 3       110.476          41.000  
C10  37358570.275 8 194535841.996 3      1112.166          39.000  
C 1  37646599.625 4 196035687.225 3       119.296          41.000  
C 2  37507349.348 8 195310561.859 3        84.417          37.000  
C 4  38412617.226 8 200024534.568 3       126.793          38.000  
C29  24431061.282 8 127218907.786 3      2003.968          42.000  
C22  25706263.811 9                     -3360.521          15.000  
C30  25353398.526 8 132021779.762 4      -267.452          42.000  
C14               8               4      2165.018          41.000  
> 2021  2 25  2 54 54.9980000  0 23                     
G31  19773942.219 8 103912767.218 3      -471.196          47.000  
G26  19938271.460 8 104776301.735 3      1912.687          46.000  
G32  21163185.376 8 111213285.482 3     -2560.574          46.000  
G22  22346463.212 8 117431450.249 4      -866.342          36.000  
G29  22160475.947 8 116454092.081 4       951.532          44.000  
G 3  22202399.537 8 116674390.763 5       629.828          37.000  
G16  22038639.679 8 115813828.828 4      3665.460          41.000  
G25  22546008.843 8 118480071.197 5     -3338.360          40.000  
C16  35357679.134 8 184116673.769 3       136.920          47.000  
C 6  35267346.686 8 183646303.516 3       171.588          45.000  
C 9  35193860.452 8 183263631.991 3       534.888          46.000  
C 7  36132574.899 8 188151762.298 3       831.042          43.000  
C26  21461421.827 8 111755220.474 4      1369.953          47.000  
C21  22362242.708 8 116446027.116 3     -2095.765          47.000  
C 3  37066956.737 8 193017335.144 3       109.548          41.000  
C10  37358357.243 8 194534732.297 3      1110.867          39.000  
C 1  37646577.342 8 196035570.236 3       118.303          41.000  
C 2  37507334.062 8 195310480.687 4        83.847          37.000  
C 4  38412593.616 8 200024409.997 4       126.070          37.000  
C29  24430676.697 8 127216905.626 4      2003.884          41.000  
C22  25706911.197 9                     -3360.521          11.000  
C30  25353450.301 8 132022050.241 4      -268.357          44.000  
C14               8               4      2163.668          41.000  
> 2021  2 25  2 54 55.9980000  0 22                     
G31  19774031.930 8 103913238.992 3      -473.980          47.000  
G26  19937907.606 8 104774390.599 3      1909.876          46.000  
G32  21163672.988 8 111215847.549 3     -2563.335          46.000  
G22  22346628.501 8 117432319.378 4      -868.844          37.000  
G29  22160295.076 8 116453142.311 4       948.135          44.000  
G 3  22202280.230 8 116673764.375 5       626.308          37.000  
G16  22037942.961 8 115810165.731 3      3663.147          40.000  
G25  22546644.694 8 118483411.172 4     -3341.297          41.000  
C16  35357652.593 4 184116537.222 3       134.436          47.000  
C 6  35267313.932 4 183646132.450 3       169.183          45.000  
C 9  35193757.984 8 183263098.114 3       532.397          46.000  
C 7  36132415.439 8 188150932.243 3       828.806          43.000  
C26  21461158.940 8 111753852.192 3      1367.395          47.000  
C21  22362645.494 8 116448124.790 3     -2098.260          47.000  
C 3  37066935.867 8 193017227.165 3       107.504          41.000  
C10  37358143.949 8 194533622.499 3      1109.457          40.000  
C 1  37646554.726 8 196035453.316 3       115.971          41.000  
C 2  37507318.235 8 195310399.373 4        81.411          37.000  
C 4  38412569.569 8 200024285.600 3       124.149          37.000  
C29  24430292.618 8 127214904.110 4      2000.450          39.000  
C30  25353502.495 8 132022321.555 4      -272.335          43.000  
C14               8               4      2160.668          41.000  
> 2021  2 25  2 54 56.9980000  0 23                     
G31  19774122.375 8 103913712.567 4      -471.920          47.000  
G26  19937544.467 8 104772481.344 4      1911.473          46.000  
G32  21164160.843 8 111218411.275 4     -2561.358          46.000  
G22  22346793.981 8 117433190.535 4      -867.998          37.000  
G29  22160114.780 8 116452194.524 4       950.257          44.000  
G 3  22202161.341 8 116673140.223 5       627.245          38.000  
G16  22037245.790 8 115806504.211 4      3665.255          40.000  
G25  22547279.864 9               6     -3339.906          40.000  
C16  35357626.662 8 184116402.148 4       136.627          47.000  
C 6  35267281.353 8 183645962.829 4       171.411          45.000  
C 9  35193655.987 8 183262565.768 4       534.760          46.000  
C 7  36132256.258 8 188150103.613 4       830.810          43.000  
C26  21460896.471 8 111752485.624 4      1369.002          47.000  
C21  22363048.559 8 116450224.187 4     -2096.598          47.000  
C 3  37066915.293 8 193017120.455 4       109.545          41.000  
C10  37357931.039 8 194532514.140 4      1111.074          40.000  
C 1  37646532.425 8 196035337.632 4       118.395          41.000  
C 2  37507302.983 8 195310319.353 4        83.464          37.000  
C 4  38412545.959 8 200024162.463 4       126.144          37.000  
C29  24429908.625 8 127212904.294 4      2002.384          37.000  
C22  25708203.892 9                     -3360.521          12.000  
C30  25353554.775 8 132022594.882 5      -270.017          44.000  
C14               8               5      2162.547          41.000  
> 2021  2 25  2 54 57.9980000  0 23                     
G31  19774211.772 4 103914183.272 3      -468.490          47.000  
G26  19937180.647 4 104770569.932 3      1914.836          46.000  
G32  21164648.368 4 111220972.674 3     -2557.885          46.000  
G22  22346959.095 8 117434059.305 3      -864.732          37.000  
G29  22159934.013 8 116451244.236 3       953.007          43.000  
G 3  22202042.366 8 116672513.683 3       630.252          38.000  
G16  22036548.305 8 115802840.536 3      3668.348          39.000  
G25  22547914.913 8 118490091.292 4     -3335.206          41.000  
C16  35357600.172 4 184116264.211 3       140.399          47.000  
C 6  35267248.197 4 183645790.364 3       175.421          45.000  
C 9  35193553.066 4 183262030.404 3       538.232          46.000  
C 7  36132096.676 4 188149272.454 3       834.528          43.000  
C26  21460633.374 4 111751116.409 3      1372.574          47.000  
C21  22363451.398 4 116452321.433 3     -2093.497          47.000  
C 3  37066894.510 4 193017011.196 3       113.490          41.000  
C10  37357717.518 4 194531403.340 3      1114.674          39.000  
C 1  37646509.722 4 196035219.310 3       121.810          41.000  
C 2  37507287.051 8 195310236.802 3        87.146          37.000  
C 4  38412521.703 8 200024036.590 3       128.951          37.000  
C29  24429523.831 8 127210901.780 4      2006.046          37.000  
C22  25708847.543 9                     -3354.761          15.000  
C30  25353606.533 8 132022865.304 3      -266.906          43.000  
C14               8               3      2165.687          41.000  
> 2021  2 25  2 54 58.9980000  0 23                     
G31  19774301.274 8 103914653.942 3      -471.149          47.000  
G26  19936816.950 8 104768658.199 3      1912.200          46.000  
G32  21165135.508 8 111223533.811 3     -2560.512          46.000  
G22  22347124.576 8 117434927.842 4      -867.377          35.000  
G29  22159753.002 8 116450294.402 4       949.188          44.000  
G 3  22201923.268 8 116671887.153 5       627.565          38.000  
G16  22035851.239 8 115799176.131 4      3665.827          40.000  
G25  22548550.589 8 118493430.063 5     -3338.368          42.000  
C16  35357573.438 8 184116125.848 3       137.933          47.000  
C 6  35267215.024 8 183645617.490 3       172.797          45.000  
C 9  35193449.830 8 183261494.608 4       535.907          46.000  
C 7  36131937.042 8 188148440.605 3       832.184          43.000  
C26  21460370.364 8 111749746.775 4      1369.924          47.000  
C21  22363853.870 8 116454418.156 3     -2095.778          47.000  
C 3  37066873.238 8 193016901.023 3       111.307          41.000  
C10  37357504.067 8 194530291.643 4      1112.791          39.000  
C 1  37646486.705 8 196035100.311 3       119.478          41.000  
C 2  37507271.049 8 195310153.279 4        84.826          37.000  
C 4  38412497.238 8 200023910.132 3       127.289          37.000  
C29  24429139.176 8 127208899.500 4      2001.067          32.000  
C22  25709489.729 9                     -3354.761          15.000  
C30  25353658.726 8 132023136.354 4      -270.217          42.000  
C14               8               5      2162.912          41.000  
> 2021  2 25  2 54 59.9980000  0 23                     
G31  19774390.655 8 103915124.106 3      -467.726          47.000  
G26  19936453.025 8 104766746.239 3      1915.886          46.000  
G32  21165622.404 8 111226094.373 3     -2556.407          46.000  
G22  22347289.689 8 117435796.257 4      -864.961          37.000  
G29  22159572.427 8 116449344.140 4       953.618          45.000  
G 3  22201803.909 8 116671260.716 5       630.391          38.000  
G16  22035154.015 8 115795511.239 4      3670.226          41.000  
G25  22549185.655 8 118496768.023 4     -3334.683          42.000  
C16  35357546.687 8 184115986.727 3       141.962          47.000  
C 6  35267181.799 8 183645443.833 3       176.776          45.000  
C 9  35193346.961 8 183260958.117 4       539.380          46.000  
C 7  36131777.006 8 188147608.042 3       836.542          43.000  
C26  21460107.407 8 111748376.707 3      1373.408          47.000  
C21  22364256.638 8 116456514.535 3     -2092.129          47.000  
C 3  37066852.228 8 193016790.001 3       115.942          41.000  
C10  37357290.476 8 194529179.264 4      1117.120          40.000  
C 1  37646463.653 8 196034980.318 3       124.550          41.000  
C 2  37507254.751 8 195310068.978 4        89.625          37.000  
C 4  38412472.825 8 200023782.682 4       131.804          39.000  
C29  24428755.620 9               7      2006.915          32.000  
C22  25710131.356 9                     -3347.160          16.000  
C30  25353710.519 8 132023406.982 4      -267.426          42.000  
C14               8               4      2165.962          41.000  
